Time,Longitude,Latitude,Altitude,Roll (deg),Pitch (deg),Yaw (deg),Health
0.0,128.181867,37.923645,6999.6231864,4.0,-3.003,352.999,1.0
0.0166,128.18186,37.92369,6999.375079200001,4.0,-3.012,352.999,1.0
0.0333,128.181853,37.923734,6999.1257528,4.001,-3.028,353.0,1.0
0.05,128.181846,37.923779,6998.874597600001,4.015,-3.045,353.006,1.0
0.0666,128.181839,37.923823,6998.6234424,4.019,-3.064,353.012,1.0
0.0833,128.181832,37.923868,6998.371982400001,4.015,-3.083,353.018,1.0
0.1,128.181825,37.923912,6998.1193032,4.004,-3.102,353.024,1.0
0.1166,128.181818,37.923957,6997.8660144000005,3.986,-3.121,353.03,1.0
0.1333,128.181812,37.924001,6997.612116,3.962,-3.14,353.036,1.0
0.15,128.181805,37.924046,6997.3573032,3.934,-3.16,353.041,1.0
0.1666,128.181798,37.92409,6997.101576,3.901,-3.179,353.047,1.0
0.1833,128.181791,37.924135,6996.8452392,3.865,-3.198,353.053,1.0
0.2,128.181784,37.924179,6996.5876832,3.826,-3.216,353.059,1.0
0.2166,128.181777,37.924224,6996.3295176,3.784,-3.234,353.066,1.0
0.2333,128.18177,37.924269,6996.0704376,3.74,-3.253,353.072,1.0
0.25,128.181763,37.924313,6995.810138400001,3.695,-3.27,353.078,1.0
0.2666,128.181756,37.924358,6995.5492296,3.647,-3.288,353.084,1.0
0.2833,128.181749,37.924402,6995.287101600001,3.598,-3.305,353.091,1.0
0.3,128.181742,37.924447,6995.024364000001,3.549,-3.323,353.097,1.0
0.3166,128.181735,37.924491,6994.7604071999995,3.498,-3.34,353.103,1.0
0.3333,128.181729,37.924536,6994.4952312000005,3.446,-3.356,353.11,1.0
0.35,128.181722,37.92458,6994.2294456,3.393,-3.373,353.116,1.0
0.3666,128.181715,37.924625,6993.9624408,3.339,-3.389,353.122,1.0
0.3833,128.181708,37.92467,6993.6945216,3.285,-3.405,353.128,1.0
0.4,128.181701,37.924714,6993.4253832,3.23,-3.422,353.135,1.0
0.4166,128.181694,37.924759,6993.1553304,3.174,-3.437,353.141,1.0
0.4333,128.181687,37.924803,6992.8843632,3.118,-3.453,353.147,1.0
0.45,128.18168,37.924848,6992.6121768,3.062,-3.469,353.153,1.0
0.4666,128.181673,37.924892,6992.339076,3.005,-3.484,353.159,1.0
0.4833,128.181666,37.924937,6992.064756000001,2.947,-3.5,353.165,1.0
0.5,128.18166,37.924981,6991.7895216,2.889,-3.515,353.171,1.0
0.5166,128.181653,37.925026,6991.5133728,2.83,-3.53,353.177,1.0
0.5333,128.181646,37.925071,6991.2357,2.771,-3.545,353.183,1.0
0.55,128.181639,37.925115,6990.957417600001,2.712,-3.56,353.189,1.0
0.5666,128.181632,37.92516,6990.677611200001,2.652,-3.575,353.195,1.0
0.5833,128.181625,37.925204,6990.3968904,2.592,-3.589,353.201,1.0
0.6,128.181618,37.925249,6990.1152552,2.531,-3.604,353.207,1.0
0.6166,128.181611,37.925293,6989.832400800001,2.47,-3.619,353.212,1.0
0.6333,128.181605,37.925338,6989.5483272,2.409,-3.633,353.218,1.0
0.65,128.181598,37.925383,6989.2633392,2.347,-3.647,353.224,1.0
0.6666,128.181591,37.925427,6988.977132,2.285,-3.662,353.23,1.0
0.6833,128.181584,37.925472,6988.689705600001,2.222,-3.676,353.235,1.0
0.7,128.181577,37.925516,6988.401364800001,2.159,-3.69,353.241,1.0
0.7166,128.18157,37.925561,6988.111804800001,2.096,-3.704,353.247,1.0
0.7333,128.181563,37.925606,6987.8210256,2.032,-3.719,353.252,1.0
0.75,128.181556,37.92565,6987.529332,1.968,-3.733,353.258,1.0
0.7666,128.18155,37.925695,6987.236114400001,1.904,-3.747,353.263,1.0
0.7833,128.181543,37.925739,6986.9422872000005,1.84,-3.761,353.269,1.0
0.8,128.181536,37.925784,6986.646936,1.775,-3.775,353.274,1.0
0.8166,128.181529,37.925829,6986.350670400001,1.709,-3.788,353.279,1.0
0.8333,128.181522,37.925873,6986.0531856,1.644,-3.802,353.285,1.0
0.85,128.181515,37.925918,6985.7544816,1.578,-3.816,353.29,1.0
0.8666,128.181508,37.925962,6985.454863200001,1.511,-3.83,353.295,1.0
0.8833,128.181501,37.926007,6985.1537208,1.445,-3.844,353.301,1.0
0.9,128.181495,37.926052,6984.851664000001,1.378,-3.857,353.306,1.0
0.9166,128.181488,37.926096,6984.548692800001,1.31,-3.871,353.311,1.0
0.9333,128.181481,37.926141,6984.244197600001,1.243,-3.885,353.316,1.0
0.95,128.181474,37.926185,6983.938788,1.175,-3.898,353.321,1.0
0.9666,128.181467,37.92623,6983.6318544000005,1.106,-3.912,353.327,1.0
0.9833,128.18146,37.926275,6983.324006400001,1.038,-3.925,353.332,1.0
1.0,128.181453,37.926319,6983.015244,0.969,-3.939,353.337,1.0
1.0166,128.181447,37.926364,6982.7049576,0.9,-3.952,353.342,1.0
1.0333,128.18144,37.926408,6982.393756800001,0.83,-3.966,353.347,1.0
1.05,128.181433,37.926453,6982.081032,0.761,-3.979,353.352,1.0
1.0666,128.181426,37.926498,6981.7673928,0.691,-3.993,353.357,1.0
1.0833,128.181419,37.926542,6981.452534399999,0.62,-4.006,353.362,1.0
1.1,128.181412,37.926587,6981.136456800001,0.55,-4.02,353.366,1.0
1.1166,128.181405,37.926632,6980.819464800001,0.479,-4.033,353.371,1.0
1.1333,128.181399,37.926676,6980.5009488,0.407,-4.047,353.376,1.0
1.15,128.181392,37.926721,6980.181518400001,0.336,-4.06,353.381,1.0
1.1666,128.181385,37.926765,6979.8608688,0.264,-4.073,353.386,1.0
1.1833,128.181378,37.92681,6979.539000000001,0.192,-4.087,353.39,1.0
1.2,128.181371,37.926855,6979.215912,0.119,-4.1,353.395,1.0
1.2166,128.181364,37.926899,6978.8903856,0.069,-4.112,353.401,1.0
1.2333,128.181357,37.926944,6978.5630304,0.04,-4.124,353.409,1.0
1.25,128.181351,37.926989,6978.2338464,0.032,-4.135,353.417,1.0
1.2666,128.181344,37.927033,6977.903138400001,0.04,-4.146,353.425,1.0
1.2833,128.181337,37.927078,6977.570906400001,0.064,-4.157,353.433,1.0
1.3,128.18133,37.927123,6977.2368456,0.101,-4.167,353.441,1.0
1.3166,128.181323,37.927167,6976.901260800001,0.148,-4.178,353.448,1.0
1.3333,128.181316,37.927212,6976.564152000001,0.205,-4.188,353.454,1.0
1.35,128.18131,37.927257,6976.225824000001,0.268,-4.199,353.46,1.0
1.3666,128.181303,37.927301,6975.885972,0.338,-4.21,353.466,1.0
1.3833,128.181296,37.927346,6975.5449008000005,0.413,-4.221,353.471,1.0
1.4,128.181289,37.927391,6975.202305600001,0.491,-4.233,353.476,1.0
1.4166,128.181282,37.927435,6974.858186400001,0.573,-4.244,353.481,1.0
1.4333,128.181275,37.92748,6974.512848,0.657,-4.256,353.485,1.0
1.45,128.181269,37.927525,6974.1662904,0.743,-4.268,353.49,1.0
1.4666,128.181262,37.927569,6973.8185136,0.83,-4.281,353.494,1.0
1.4833,128.181255,37.927614,6973.4692128,0.919,-4.293,353.498,1.0
1.5,128.181248,37.927659,6973.118692800001,1.008,-4.305,353.502,1.0
1.5166,128.181241,37.927703,6972.7669536,1.098,-4.318,353.506,1.0
1.5333,128.181234,37.927748,6972.413690400001,1.189,-4.331,353.51,1.0
1.55,128.181228,37.927793,6972.0595128,1.281,-4.344,353.513,1.0
1.5666,128.181221,37.927838,6971.703811200001,1.372,-4.357,353.517,1.0
1.5833,128.181214,37.927882,6971.3468904,1.464,-4.37,353.52,1.0
1.6,128.181207,37.927927,6970.9884456,1.556,-4.383,353.524,1.0
1.6166,128.1812,37.927972,6970.6290864,1.648,-4.396,353.527,1.0
1.6333,128.181193,37.928016,6970.268508,1.741,-4.41,353.53,1.0
1.65,128.181187,37.928061,6969.906405600001,1.833,-4.423,353.534,1.0
1.6666,128.18118,37.928106,6969.543084000001,1.925,-4.437,353.537,1.0
1.6833,128.181173,37.928151,6969.1785432,2.018,-4.45,353.54,1.0
1.7,128.181166,37.928195,6968.812783200001,2.11,-4.464,353.543,1.0
1.7166,128.181159,37.92824,6968.445804,2.203,-4.478,353.546,1.0
1.7333,128.181152,37.928285,6968.077300800001,2.295,-4.492,353.549,1.0
1.75,128.181146,37.928329,6967.707883200001,2.387,-4.506,353.552,1.0
1.7666,128.181139,37.928374,6967.3369416000005,2.48,-4.52,353.555,1.0
1.7833,128.181132,37.928419,6966.9647808,2.572,-4.534,353.558,1.0
1.8,128.181125,37.928464,6966.591400800001,2.664,-4.548,353.561,1.0
1.8166,128.181118,37.928508,6966.2168016000005,2.757,-4.562,353.563,1.0
1.8333,128.181112,37.928553,6965.840983200001,2.849,-4.576,353.566,1.0
1.85,128.181105,37.928598,6965.4639456,2.942,-4.59,353.569,1.0
1.8666,128.181098,37.928643,6965.085384000001,3.034,-4.605,353.572,1.0
1.8833,128.181091,37.928687,6964.7056032,3.126,-4.619,353.574,1.0
1.9,128.181084,37.928732,6964.3249080000005,3.219,-4.633,353.577,1.0
1.9166,128.181078,37.928777,6963.9426888,3.311,-4.648,353.579,1.0
1.9333,128.181071,37.928822,6963.559250400001,3.403,-4.662,353.582,1.0
1.95,128.181064,37.928867,6963.174288000001,3.496,-4.677,353.584,1.0
1.9666,128.181057,37.928911,6962.788411200001,3.588,-4.691,353.587,1.0
1.9833,128.18105,37.928956,6962.401315200001,3.681,-4.706,353.589,1.0
2.0,128.181044,37.929001,6962.0126952,3.773,-4.72,353.592,1.0
2.0166,128.181037,37.929046,6961.622856000001,3.866,-4.735,353.594,1.0
2.0333,128.18103,37.92909,6961.231797600001,3.959,-4.75,353.596,1.0
2.05,128.181023,37.929135,6960.83952,4.051,-4.764,353.599,1.0
2.0666,128.181016,37.92918,6960.4460232,4.144,-4.779,353.601,1.0
2.0833,128.18101,37.929225,6960.0513072,4.237,-4.794,353.603,1.0
2.1,128.181003,37.92927,6959.6550672,4.33,-4.809,353.606,1.0
2.1166,128.180996,37.929314,6959.2579128,4.423,-4.823,353.608,1.0
2.1333,128.180989,37.929359,6958.8592344,4.516,-4.838,353.61,1.0
2.15,128.180982,37.929404,6958.4593368000005,4.609,-4.853,353.612,1.0
2.1666,128.180976,37.929449,6958.058220000001,4.702,-4.868,353.614,1.0
2.1833,128.180969,37.929494,6957.655884000001,4.796,-4.883,353.616,1.0
2.2,128.180962,37.929539,6957.252024,4.889,-4.898,353.618,1.0
2.2166,128.180955,37.929583,6956.8472496,4.983,-4.913,353.621,1.0
2.2333,128.180949,37.929628,6956.4409512,5.076,-4.928,353.623,1.0
2.25,128.180942,37.929673,6956.0334336000005,5.17,-4.943,353.625,1.0
2.2666,128.180935,37.929718,6955.6246968000005,5.264,-4.958,353.627,1.0
2.2833,128.180928,37.929763,6955.2147408,5.358,-4.973,353.629,1.0
2.3,128.180922,37.929808,6954.8032608,5.452,-4.988,353.631,1.0
2.3166,128.180915,37.929852,6954.3908664,5.546,-5.003,353.633,1.0
2.3333,128.180908,37.929897,6953.9769479999995,5.64,-5.018,353.634,1.0
2.35,128.180901,37.929942,6953.5618104000005,5.735,-5.033,353.636,1.0
2.3666,128.180895,37.929987,6953.1454536,5.83,-5.048,353.638,1.0
2.3833,128.180888,37.930032,6952.7278776,5.924,-5.063,353.64,1.0
2.4,128.180881,37.930077,6952.3087776,6.019,-5.078,353.642,1.0
2.4166,128.180874,37.930122,6951.8884584,6.114,-5.093,353.644,1.0
2.4333,128.180868,37.930167,6951.467224800001,6.21,-5.108,353.646,1.0
2.45,128.180861,37.930211,6951.0444672,6.305,-5.123,353.648,1.0
2.4666,128.180854,37.930256,6950.6201856,6.4,-5.139,353.649,1.0
2.4833,128.180847,37.930301,6950.1949896,6.496,-5.154,353.651,1.0
2.5,128.180841,37.930346,6949.768269600001,6.592,-5.169,353.653,1.0
2.5166,128.180834,37.930391,6949.3403304,6.688,-5.184,353.655,1.0
2.5333,128.180827,37.930436,6948.911172,6.784,-5.199,353.656,1.0
2.55,128.18082,37.930481,6948.4807944,6.881,-5.214,353.658,1.0
2.5666,128.180814,37.930526,6948.0488928,6.977,-5.23,353.66,1.0
2.5833,128.180807,37.930571,6947.6160768,7.074,-5.245,353.662,1.0
2.6,128.1808,37.930616,6947.1817368,7.171,-5.26,353.663,1.0
2.6166,128.180794,37.93066,6946.7461776,7.268,-5.275,353.665,1.0
2.6333,128.180787,37.930705,6946.3090944000005,7.366,-5.291,353.667,1.0
2.65,128.18078,37.93075,6945.8710968000005,7.463,-5.306,353.668,1.0
2.6666,128.180773,37.930795,6945.4315752,7.561,-5.321,353.67,1.0
2.6833,128.180767,37.93084,6944.9908344,7.659,-5.336,353.672,1.0
2.7,128.18076,37.930885,6944.5488744,7.757,-5.352,353.673,1.0
2.7166,128.180753,37.93093,6944.1053904,7.855,-5.367,353.675,1.0
2.7333,128.180747,37.930975,6943.660992000001,7.954,-5.382,353.676,1.0
2.75,128.18074,37.93102,6943.215069600001,8.053,-5.397,353.678,1.0
2.7666,128.180733,37.931065,6942.7676232,8.152,-5.413,353.68,1.0
2.7833,128.180727,37.93111,6942.3192624,8.251,-5.428,353.681,1.0
2.8,128.18072,37.931155,6941.8693776,8.35,-5.443,353.683,1.0
2.8166,128.180713,37.9312,6941.4182736,8.45,-5.458,353.684,1.0
2.8333,128.180707,37.931245,6940.9659504,8.55,-5.474,353.686,1.0
2.85,128.1807,37.93129,6940.5124080000005,8.65,-5.489,353.688,1.0
2.8666,128.180693,37.931335,6940.057341600001,8.75,-5.504,353.689,1.0
2.8833,128.180687,37.93138,6939.601056,8.851,-5.519,353.691,1.0
2.9,128.18068,37.931425,6939.143551200001,8.952,-5.535,353.692,1.0
2.9166,128.180673,37.93147,6938.6845224,9.053,-5.55,353.694,1.0
2.9333,128.180667,37.931515,6938.224579200001,9.154,-5.565,353.695,1.0
2.95,128.18066,37.93156,6937.763112,9.255,-5.58,353.697,1.0
2.9666,128.180653,37.931605,6937.3001208,9.357,-5.596,353.698,1.0
2.9833,128.180647,37.93165,6936.836215200001,9.459,-5.611,353.7,1.0
3.0,128.18064,37.931695,6936.3707856,9.561,-5.626,353.701,1.0
3.0166,128.180633,37.93174,6935.904136800001,9.664,-5.641,353.703,1.0
3.0333,128.180627,37.931785,6935.4362688,9.767,-5.657,353.705,1.0
3.05,128.18062,37.93183,6934.9668768,9.87,-5.672,353.706,1.0
3.0666,128.180613,37.931875,6934.496265600001,9.973,-5.687,353.708,1.0
3.0833,128.180607,37.93192,6934.0244352,10.076,-5.702,353.709,1.0
3.1,128.1806,37.931965,6933.5510808,10.18,-5.718,353.711,1.0
3.1166,128.180594,37.93201,6933.0765071999995,10.284,-5.733,353.712,1.0
3.1333,128.180587,37.932055,6932.6007144000005,10.388,-5.748,353.714,1.0
3.15,128.18058,37.9321,6932.1237024,10.493,-5.763,353.715,1.0
3.1666,128.180574,37.932145,6931.6451664,10.598,-5.779,353.717,1.0
3.1833,128.180567,37.93219,6931.165411200001,10.703,-5.794,353.718,1.0
3.2,128.180561,37.932235,6930.6844368,10.808,-5.809,353.72,1.0
3.2166,128.180554,37.932281,6930.2019384000005,10.914,-5.824,353.721,1.0
3.2333,128.180547,37.932326,6929.7182207999995,11.02,-5.839,353.723,1.0
3.25,128.180541,37.932371,6929.233284000001,11.126,-5.855,353.724,1.0
3.2666,128.180534,37.932416,6928.7468232,11.232,-5.87,353.726,1.0
3.2833,128.180528,37.932461,6928.2591432,11.339,-5.885,353.727,1.0
3.3,128.180521,37.932506,6927.770244,11.446,-5.9,353.729,1.0
3.3166,128.180514,37.932551,6927.2801256,11.554,-5.915,353.73,1.0
3.3333,128.180508,37.932596,6926.788483200001,11.661,-5.931,353.732,1.0
3.35,128.180501,37.932641,6926.2956216,11.769,-5.946,353.733,1.0
3.3666,128.180495,37.932687,6925.801236,11.877,-5.961,353.735,1.0
3.3833,128.180488,37.932732,6925.3056312,11.986,-5.976,353.736,1.0
3.4,128.180482,37.932777,6924.8088072,12.095,-5.991,353.738,1.0
3.4166,128.180475,37.932822,6924.3104592,12.204,-6.007,353.739,1.0
3.4333,128.180468,37.932867,6923.810892,12.313,-6.022,353.741,1.0
3.45,128.180462,37.932912,6923.3101056000005,12.423,-6.037,353.742,1.0
3.4666,128.180455,37.932957,6922.8081,12.533,-6.052,353.744,1.0
3.4833,128.180449,37.933003,6922.304570400001,12.644,-6.068,353.745,1.0
3.5,128.180442,37.933048,6921.7995168,12.754,-6.083,353.747,1.0
3.5166,128.180436,37.933093,6921.2935488,12.865,-6.098,353.748,1.0
3.5333,128.180429,37.933138,6920.786056800001,12.977,-6.113,353.75,1.0
3.55,128.180423,37.933183,6920.277040800001,13.089,-6.129,353.751,1.0
3.5666,128.180416,37.933228,6919.7668056,13.201,-6.144,353.753,1.0
3.5833,128.18041,37.933274,6919.2553512,13.313,-6.159,353.754,1.0
3.6,128.180403,37.933319,6918.7426776,13.426,-6.175,353.756,1.0
3.6166,128.180397,37.933364,6918.22848,13.539,-6.19,353.757,1.0
3.6333,128.18039,37.933409,6917.7127584,13.652,-6.205,353.759,1.0
3.65,128.180384,37.933454,6917.196122400001,13.766,-6.22,353.761,1.0
3.6666,128.180377,37.9335,6916.6776576,13.88,-6.236,353.762,1.0
3.6833,128.180371,37.933545,6916.1582784,13.994,-6.251,353.764,1.0
3.7,128.180364,37.93359,6915.6373752,14.109,-6.267,353.765,1.0
3.7166,128.180358,37.933635,6915.1152528,14.224,-6.282,353.767,1.0
3.7333,128.180351,37.93368,6914.591606400001,14.339,-6.297,353.768,1.0
3.75,128.180345,37.933726,6914.0667408,14.455,-6.313,353.77,1.0
3.7666,128.180338,37.933771,6913.5403512,14.571,-6.328,353.771,1.0
3.7833,128.180332,37.933816,6913.012742400001,14.687,-6.343,353.773,1.0
3.8,128.180325,37.933861,6912.483914400001,14.804,-6.359,353.774,1.0
3.8166,128.180319,37.933907,6911.9535624,14.921,-6.374,353.776,1.0
3.8333,128.180312,37.933952,6911.4216864,15.038,-6.39,353.777,1.0
3.85,128.180306,37.933997,6910.888896,15.156,-6.405,353.779,1.0
3.8666,128.180299,37.934043,6910.354276800001,15.274,-6.421,353.78,1.0
3.8833,128.180293,37.934088,6909.8187431999995,15.392,-6.436,353.782,1.0
3.9,128.180286,37.934133,6909.2816856,15.511,-6.452,353.784,1.0
3.9166,128.18028,37.934178,6908.743104,15.63,-6.467,353.785,1.0
3.9333,128.180274,37.934224,6908.2033032,15.75,-6.482,353.787,1.0
3.95,128.180267,37.934269,6907.6619784,15.869,-6.498,353.788,1.0
3.9666,128.180261,37.934314,6907.1194344,15.99,-6.513,353.79,1.0
3.9833,128.180254,37.93436,6906.5756712,16.11,-6.529,353.791,1.0
4.0,128.180248,37.934405,6906.030384000001,16.231,-6.544,353.793,1.0
4.0166,128.180241,37.93445,6905.483877600001,16.352,-6.56,353.795,1.0
4.0333,128.180235,37.934496,6904.9358472,16.473,-6.575,353.796,1.0
4.05,128.180229,37.934541,6904.386292800001,16.595,-6.59,353.798,1.0
4.0666,128.180222,37.934586,6903.835519200001,16.717,-6.606,353.799,1.0
4.0833,128.180216,37.934632,6903.2835264000005,16.84,-6.621,353.801,1.0
4.1,128.180209,37.934677,6902.730009600001,16.962,-6.637,353.803,1.0
4.1166,128.180203,37.934722,6902.174968800001,17.085,-6.652,353.804,1.0
4.1333,128.180197,37.934768,6901.618708800001,17.209,-6.668,353.806,1.0
4.15,128.18019,37.934813,6901.0612296,17.332,-6.683,353.807,1.0
4.1666,128.180184,37.934858,6900.5022264,17.456,-6.699,353.809,1.0
4.1833,128.180178,37.934904,6899.941699200001,17.58,-6.714,353.811,1.0
4.2,128.180171,37.934949,6899.3799528,17.704,-6.73,353.812,1.0
4.2166,128.180165,37.934995,6898.816987200001,17.829,-6.745,353.814,1.0
4.2333,128.180159,37.93504,6898.252192800001,17.954,-6.761,353.816,1.0
4.25,128.180152,37.935085,6897.686484000001,18.079,-6.776,353.817,1.0
4.2666,128.180146,37.935131,6897.118946400001,18.205,-6.792,353.819,1.0
4.2833,128.18014,37.935176,6896.5501896,18.33,-6.808,353.82,1.0
4.3,128.180133,37.935222,6895.980213600001,18.457,-6.823,353.822,1.0
4.3166,128.180127,37.935267,6895.408713600001,18.583,-6.839,353.824,1.0
4.3333,128.180121,37.935313,6894.8356896000005,18.71,-6.854,353.825,1.0
4.35,128.180114,37.935358,6894.261446400001,18.837,-6.87,353.827,1.0
4.3666,128.180108,37.935403,6893.685679200001,18.964,-6.886,353.829,1.0
4.3833,128.180102,37.935449,6893.1086928,19.092,-6.901,353.83,1.0
4.4,128.180095,37.935494,6892.530182400001,19.22,-6.917,353.832,1.0
4.4166,128.180089,37.93554,6891.950148,19.348,-6.933,353.834,1.0
4.4333,128.180083,37.935585,6891.3688944000005,19.477,-6.948,353.835,1.0
4.45,128.180076,37.935631,6890.7861168,19.606,-6.964,353.837,1.0
4.4666,128.18007,37.935676,6890.201815200001,19.735,-6.98,353.839,1.0
4.4833,128.180064,37.935722,6889.6162944,19.865,-6.995,353.84,1.0
4.5,128.180058,37.935767,6889.0292496,19.995,-7.011,353.842,1.0
4.5166,128.180051,37.935813,6888.4409856,20.125,-7.027,353.844,1.0
4.5333,128.180045,37.935858,6887.850892800001,20.255,-7.042,353.845,1.0
4.55,128.180039,37.935904,6887.259580800001,20.386,-7.058,353.847,1.0
4.5666,128.180033,37.935949,6886.667049600001,20.517,-7.074,353.849,1.0
4.5833,128.180026,37.935995,6886.0729944,20.649,-7.089,353.851,1.0
4.6,128.18002,37.93604,6885.477415200001,20.781,-7.105,353.852,1.0
4.6166,128.180014,37.936086,6884.880312,20.913,-7.121,353.854,1.0
4.6333,128.180008,37.936131,6884.2819896,21.045,-7.137,353.856,1.0
4.65,128.180001,37.936177,6883.6821432,21.178,-7.152,353.857,1.0
4.6666,128.179995,37.936222,6883.0807728,21.311,-7.168,353.859,1.0
4.6833,128.179989,37.936268,6882.477878400001,21.445,-7.184,353.861,1.0
4.7,128.179983,37.936314,6881.873764800001,21.579,-7.2,353.863,1.0
4.7166,128.179977,37.936359,6881.2681272,21.713,-7.216,353.864,1.0
4.7333,128.17997,37.936405,6880.660965600001,21.848,-7.231,353.866,1.0
4.75,128.179964,37.93645,6880.0525848,21.982,-7.247,353.868,1.0
4.7666,128.179958,37.936496,6879.44268,22.118,-7.263,353.87,1.0
4.7833,128.179952,37.936541,6878.8312512,22.253,-7.279,353.871,1.0
4.8,128.179946,37.936587,6878.2182984,22.389,-7.295,353.873,1.0
4.8166,128.179939,37.936633,6877.6038216,22.526,-7.311,353.875,1.0
4.8333,128.179933,37.936678,6876.9881256,22.662,-7.327,353.877,1.0
4.85,128.179927,37.936724,6876.370600800001,22.799,-7.342,353.878,1.0
4.8666,128.179921,37.936769,6875.7518568000005,22.937,-7.358,353.88,1.0
4.8833,128.179915,37.936815,6875.1315888,23.074,-7.374,353.882,1.0
4.9,128.179909,37.936861,6874.510101600001,23.212,-7.39,353.884,1.0
4.9166,128.179903,37.936906,6873.8867856,23.351,-7.406,353.886,1.0
4.9333,128.179896,37.936952,6873.2622504,23.49,-7.422,353.887,1.0
4.95,128.17989,37.936998,6872.6358864,23.629,-7.438,353.889,1.0
4.9666,128.179884,37.937043,6872.0083032,23.768,-7.454,353.891,1.0
4.9833,128.179878,37.937089,6871.379196000001,23.908,-7.47,353.893,1.0
5.0,128.179872,37.937135,6870.748564800001,24.048,-7.486,353.895,1.0
5.0166,128.179866,37.93718,6870.1167144,24.188,-7.502,353.896,1.0
5.0333,128.17986,37.937226,6869.4830352,24.329,-7.517,353.898,1.0
5.05,128.179854,37.937272,6868.847832,24.47,-7.533,353.9,1.0
5.0666,128.179848,37.937317,6868.2114096000005,24.611,-7.549,353.902,1.0
5.0833,128.179841,37.937363,6867.5731584000005,24.752,-7.565,353.904,1.0
5.1,128.179835,37.937409,6866.933688000001,24.894,-7.581,353.906,1.0
5.1166,128.179829,37.937455,6866.2926936,25.036,-7.597,353.908,1.0
5.1333,128.179823,37.9375,6865.6501751999995,25.179,-7.613,353.91,1.0
5.15,128.179817,37.937546,6865.005828,25.322,-7.629,353.911,1.0
5.1666,128.179811,37.937592,6864.3602616,25.465,-7.645,353.913,1.0
5.1833,128.179805,37.937638,6863.7131712,25.608,-7.661,353.915,1.0
5.2,128.179799,37.937683,6863.064556800001,25.752,-7.677,353.917,1.0
5.2166,128.179793,37.937729,6862.414418400001,25.896,-7.693,353.919,1.0
5.2333,128.179787,37.937775,6861.762756000001,26.041,-7.709,353.921,1.0
5.25,128.179781,37.937821,6861.109569600001,26.185,-7.724,353.923,1.0
5.2666,128.179775,37.937866,6860.4548592,26.33,-7.74,353.925,1.0
5.2833,128.179769,37.937912,6859.798624800001,26.476,-7.756,353.927,1.0
5.3,128.179763,37.937958,6859.1408664,26.621,-7.772,353.929,1.0
5.3166,128.179757,37.938004,6858.481584000001,26.767,-7.788,353.931,1.0
5.3333,128.179751,37.93805,6857.820777600001,26.914,-7.804,353.933,1.0
5.35,128.179745,37.938095,6857.1584472,27.06,-7.82,353.935,1.0
5.3666,128.179739,37.938141,6856.4952023999995,27.188,-7.836,353.936,1.0
5.3833,128.179733,37.938187,6855.831348,27.296,-7.852,353.936,1.0
5.4,128.179727,37.938233,6855.165969600001,27.389,-7.868,353.935,1.0
5.4166,128.179721,37.938279,6854.499372,27.466,-7.884,353.934,1.0
5.4333,128.179715,37.938324,6853.83186,27.531,-7.9,353.933,1.0
5.45,128.179709,37.93837,6853.162519200001,27.586,-7.917,353.933,1.0
5.4666,128.179703,37.938416,6852.492264,27.632,-7.933,353.933,1.0
5.4833,128.179698,37.938462,6851.8204848,27.672,-7.95,353.934,1.0
5.5,128.179692,37.938508,6851.1474864,27.706,-7.967,353.935,1.0
5.5166,128.179686,37.938554,6850.472659200001,27.736,-7.983,353.936,1.0
5.5333,128.17968,37.9386,6849.7966128,27.763,-7.999,353.938,1.0
5.55,128.179674,37.938645,6849.1193472,27.788,-8.016,353.94,1.0
5.5666,128.179668,37.938691,6848.4402528,27.811,-8.032,353.942,1.0
5.5833,128.179662,37.938737,6847.7599392,27.832,-8.048,353.945,1.0
5.6,128.179656,37.938783,6847.078101600001,27.853,-8.064,353.947,1.0
5.6166,128.17965,37.938829,6846.39474,27.873,-8.08,353.95,1.0
5.6333,128.179645,37.938875,6845.7098544,27.892,-8.096,353.953,1.0
5.65,128.179639,37.938921,6845.0234448,27.911,-8.112,353.956,1.0
5.6666,128.179633,37.938967,6844.335816,27.93,-8.128,353.959,1.0
5.6833,128.179627,37.939013,6843.6463584,27.949,-8.143,353.962,1.0
5.7,128.179621,37.939059,6842.9553768000005,27.969,-8.159,353.965,1.0
5.7166,128.179615,37.939105,6842.263176,27.988,-8.174,353.968,1.0
5.7333,128.17961,37.93915,6841.569451200001,28.008,-8.19,353.972,1.0
5.75,128.179604,37.939196,6840.8738976,28.028,-8.206,353.975,1.0
5.7666,128.179598,37.939242,6840.1771248000005,28.049,-8.221,353.979,1.0
5.7833,128.179592,37.939288,6839.478828,28.07,-8.236,353.983,1.0
5.8,128.179586,37.939334,6838.7787024,28.091,-8.252,353.986,1.0
5.8166,128.179581,37.93938,6838.0773576,28.113,-8.267,353.99,1.0
5.8333,128.179575,37.939426,6837.3744888,28.135,-8.282,353.994,1.0
5.85,128.179569,37.939472,6836.670096000001,28.157,-8.298,353.998,1.0
5.8666,128.179563,37.939518,6835.9638744,28.18,-8.313,354.002,1.0
5.8833,128.179558,37.939564,6835.2564336000005,28.204,-8.328,354.006,1.0
5.9,128.179552,37.93961,6834.5474688,28.228,-8.343,354.01,1.0
5.9166,128.179546,37.939656,6833.83698,28.252,-8.359,354.014,1.0
5.9333,128.17954,37.939702,6833.1249672,28.277,-8.374,354.018,1.0
5.95,128.179535,37.939748,6832.4114304,28.303,-8.389,354.022,1.0
5.9666,128.179529,37.939794,6831.6963696,28.328,-8.404,354.026,1.0
5.9833,128.179523,37.93984,6830.9797848,28.355,-8.419,354.03,1.0
6.0,128.179517,37.939886,6830.261676,28.382,-8.434,354.035,1.0
6.0166,128.179512,37.939932,6829.5420432,28.409,-8.449,354.039,1.0
6.0333,128.179506,37.939978,6828.820886400001,28.437,-8.464,354.043,1.0
6.05,128.1795,37.940024,6828.0982056,28.465,-8.479,354.048,1.0
6.0666,128.179495,37.94007,6827.3743056,28.494,-8.494,354.052,1.0
6.0833,128.179489,37.940116,6826.6485768,28.523,-8.509,354.057,1.0
6.1,128.179483,37.940163,6825.921324000001,28.553,-8.524,354.061,1.0
6.1166,128.179478,37.940209,6825.192547200001,28.583,-8.539,354.066,1.0
6.1333,128.179472,37.940255,6824.4622464,28.613,-8.554,354.07,1.0
6.15,128.179466,37.940301,6823.7304216,28.644,-8.569,354.075,1.0
6.1666,128.179461,37.940347,6822.997377600001,28.676,-8.584,354.079,1.0
6.1833,128.179455,37.940393,6822.2625048,28.708,-8.599,354.084,1.0
6.2,128.179449,37.940439,6821.526108,28.74,-8.614,354.089,1.0
6.2166,128.179444,37.940485,6820.788187200001,28.773,-8.629,354.093,1.0
6.2333,128.179438,37.940531,6820.049047200001,28.807,-8.644,354.098,1.0
6.25,128.179433,37.940577,6819.3080784,28.841,-8.659,354.103,1.0
6.2666,128.179427,37.940624,6818.5655856,28.875,-8.674,354.108,1.0
6.2833,128.179421,37.94067,6817.821568800001,28.91,-8.689,354.113,1.0
6.3,128.179416,37.940716,6817.0763328,28.945,-8.704,354.117,1.0
6.3166,128.17941,37.940762,6816.329268,28.981,-8.719,354.122,1.0
6.3333,128.179405,37.940808,6815.580679200001,29.017,-8.734,354.127,1.0
6.35,128.179399,37.940854,6814.8308712,29.054,-8.748,354.132,1.0
6.3666,128.179394,37.9409,6814.0792344,29.091,-8.763,354.137,1.0
6.3833,128.179388,37.940947,6813.3260736,29.129,-8.778,354.142,1.0
6.4,128.179382,37.940993,6812.5716936,29.167,-8.793,354.147,1.0
6.4166,128.179377,37.941039,6811.8154848,29.206,-8.808,354.152,1.0
6.4333,128.179371,37.941085,6811.057752000001,29.245,-8.823,354.157,1.0
6.45,128.179366,37.941131,6810.2988000000005,29.284,-8.838,354.162,1.0
6.4666,128.17936,37.941177,6809.5380192,29.325,-8.853,354.167,1.0
6.4833,128.179355,37.941224,6808.775714400001,29.365,-8.868,354.172,1.0
6.5,128.179349,37.94127,6808.0121904,29.406,-8.883,354.177,1.0
6.5166,128.179344,37.941316,6807.246837600001,29.448,-8.898,354.182,1.0
6.5333,128.179338,37.941362,6806.479960800001,29.49,-8.913,354.187,1.0
6.55,128.179333,37.941409,6805.7118648000005,29.532,-8.928,354.192,1.0
6.5666,128.179327,37.941455,6804.94194,29.575,-8.943,354.197,1.0
6.5833,128.179322,37.941501,6804.1704912000005,29.619,-8.958,354.202,1.0
6.6,128.179316,37.941547,6803.397823200001,29.663,-8.973,354.207,1.0
6.6166,128.179311,37.941593,6802.6233264,29.708,-8.988,354.212,1.0
6.6333,128.179305,37.94164,6801.8473056,29.753,-9.003,354.217,1.0
6.65,128.1793,37.941686,6801.069760800001,29.799,-9.018,354.223,1.0
6.6666,128.179294,37.941732,6800.2909968,29.845,-9.033,354.228,1.0
6.6833,128.179289,37.941778,6799.510404000001,29.892,-9.048,354.233,1.0
6.7,128.179284,37.941825,6798.7282872000005,29.939,-9.063,354.238,1.0
6.7166,128.179278,37.941871,6797.9446464,29.987,-9.078,354.243,1.0
6.7333,128.179273,37.941917,6797.159481600001,30.036,-9.094,354.248,1.0
6.75,128.179267,37.941964,6796.372792800001,30.085,-9.109,354.253,1.0
6.7666,128.179262,37.94201,6795.58458,30.134,-9.124,354.258,1.0
6.7833,128.179257,37.942056,6794.794843199999,30.185,-9.139,354.263,1.0
6.8,128.179251,37.942102,6794.003582400001,30.235,-9.154,354.269,1.0
6.8166,128.179246,37.942149,6793.210797600001,30.287,-9.17,354.274,1.0
6.8333,128.17924,37.942195,6792.416184000001,30.339,-9.185,354.279,1.0
6.85,128.179235,37.942241,6791.6203512,30.391,-9.2,354.284,1.0
6.8666,128.17923,37.942288,6790.8229944,30.444,-9.215,354.289,1.0
6.8833,128.179224,37.942334,6790.023808800001,30.498,-9.23,354.294,1.0
6.9,128.179219,37.94238,6789.223404,30.552,-9.246,354.3,1.0
6.9166,128.179214,37.942427,6788.421170400001,30.606,-9.261,354.305,1.0
6.9333,128.179208,37.942473,6787.6177176,30.662,-9.276,354.31,1.0
6.95,128.179203,37.942519,6786.812436,30.718,-9.291,354.315,1.0
6.9666,128.179198,37.942566,6786.0056304,30.774,-9.307,354.32,1.0
6.9833,128.179192,37.942612,6785.1976056,30.832,-9.322,354.326,1.0
7.0,128.179187,37.942659,6784.387752000001,30.89,-9.337,354.331,1.0
7.0166,128.179182,37.942705,6783.576069600001,30.948,-9.352,354.336,1.0
7.0333,128.179176,37.942751,6782.763168,31.007,-9.367,354.341,1.0
7.05,128.179171,37.942798,6781.948742400001,31.067,-9.383,354.347,1.0
7.0666,128.179166,37.942844,6781.132792800001,31.128,-9.398,354.352,1.0
7.0833,128.17916,37.942891,6780.3150144,31.19,-9.413,354.358,1.0
7.1,128.179155,37.942937,6779.4960168,31.252,-9.428,354.363,1.0
7.1166,128.17915,37.942983,6778.6751904,31.315,-9.443,354.368,1.0
7.1333,128.179145,37.94303,6777.8528400000005,31.379,-9.458,354.374,1.0
7.15,128.179139,37.943076,6777.0289656,31.444,-9.473,354.379,1.0
7.1666,128.179134,37.943123,6776.2035672,31.51,-9.489,354.384,1.0
7.1833,128.179129,37.943169,6775.37634,31.577,-9.504,354.39,1.0
7.2,128.179124,37.943216,6774.5478936,31.644,-9.519,354.395,1.0
7.2166,128.179118,37.943262,6773.7176184,31.713,-9.534,354.4,1.0
7.2333,128.179113,37.943308,6772.885819200001,31.782,-9.55,354.406,1.0
7.25,128.179108,37.943355,6772.052496,31.853,-9.565,354.411,1.0
7.2666,128.179103,37.943401,6771.2176488000005,31.924,-9.58,354.416,1.0
7.2833,128.179098,37.943448,6770.3812776,31.997,-9.596,354.422,1.0
7.3,128.179092,37.943494,6769.5430776,32.07,-9.611,354.427,1.0
7.3166,128.179087,37.943541,6768.7033536,32.144,-9.627,354.432,1.0
7.3333,128.179082,37.943587,6767.8621056,32.219,-9.642,354.437,1.0
7.35,128.179077,37.943634,6767.019333600001,32.295,-9.658,354.443,1.0
7.3666,128.179072,37.94368,6766.175037600001,32.372,-9.674,354.448,1.0
7.3833,128.179067,37.943727,6765.328912800001,32.45,-9.689,354.453,1.0
7.4,128.179061,37.943773,6764.481264,32.529,-9.705,354.458,1.0
7.4166,128.179056,37.94382,6763.6320912,32.609,-9.721,354.463,1.0
7.4333,128.179051,37.943866,6762.7813944,32.69,-9.737,354.468,1.0
7.45,128.179046,37.943913,6761.928868800001,32.772,-9.752,354.473,1.0
7.4666,128.179041,37.943959,6761.074819200001,32.855,-9.768,354.478,1.0
7.4833,128.179036,37.944006,6760.2192456,32.938,-9.784,354.483,1.0
7.5,128.179031,37.944052,6759.362148,33.023,-9.8,354.488,1.0
7.5166,128.179026,37.944099,6758.5032216,33.109,-9.816,354.493,1.0
7.5333,128.17902,37.944145,6757.6427711999995,33.196,-9.832,354.498,1.0
7.55,128.179015,37.944192,6756.780796800001,33.284,-9.848,354.503,1.0
7.5666,128.17901,37.944239,6755.9169936,33.373,-9.864,354.508,1.0
7.5833,128.179005,37.944285,6755.0516664,33.463,-9.88,354.513,1.0
7.6,128.179,37.944332,6754.184815200001,33.555,-9.896,354.518,1.0
7.6166,128.178995,37.944378,6753.3161352,33.647,-9.912,354.523,1.0
7.6333,128.17899,37.944425,6752.4459312,33.741,-9.928,354.528,1.0
7.65,128.178985,37.944471,6751.5738984,33.835,-9.944,354.532,1.0
7.6666,128.17898,37.944518,6750.700341600001,33.932,-9.961,354.537,1.0
7.6833,128.178975,37.944565,6749.825260800001,34.029,-9.977,354.542,1.0
7.7,128.17897,37.944611,6748.9486560000005,34.128,-9.993,354.547,1.0
7.7166,128.178965,37.944658,6748.0699176,34.228,-10.009,354.552,1.0
7.7333,128.17896,37.944705,6747.189960000001,34.329,-10.026,354.557,1.0
7.75,128.178955,37.944751,6746.3081736,34.432,-10.042,354.561,1.0
7.7666,128.17895,37.944798,6745.4245584,34.536,-10.058,354.566,1.0
7.7833,128.178945,37.944844,6744.5394192,34.642,-10.075,354.571,1.0
7.8,128.17894,37.944891,6743.652756,34.749,-10.091,354.576,1.0
7.8166,128.178935,37.944938,6742.764264,34.858,-10.108,354.58,1.0
7.8333,128.17893,37.944984,6741.8739432,34.968,-10.124,354.585,1.0
7.85,128.178925,37.945031,6740.9820984,35.08,-10.14,354.59,1.0
7.8666,128.17892,37.945078,6740.0887296,35.193,-10.157,354.594,1.0
7.8833,128.178915,37.945124,6739.1932272,35.308,-10.173,354.599,1.0
7.9,128.17891,37.945171,6738.2965056,35.425,-10.19,354.604,1.0
7.9166,128.178905,37.945218,6737.3976504,35.544,-10.206,354.608,1.0
7.9333,128.1789,37.945264,6736.4972712,35.664,-10.223,354.613,1.0
7.95,128.178895,37.945311,6735.595368,35.787,-10.239,354.618,1.0
7.9666,128.17889,37.945358,6734.691331200001,35.911,-10.256,354.622,1.0
7.9833,128.178885,37.945404,6733.785770400001,36.037,-10.272,354.627,1.0
8.0,128.17888,37.945451,6732.8786856,36.166,-10.289,354.632,1.0
8.0166,128.178876,37.945498,6731.9694672000005,36.296,-10.306,354.636,1.0
8.0333,128.178871,37.945545,6731.058724800001,36.429,-10.322,354.641,1.0
8.05,128.178866,37.945591,6730.1464584000005,36.564,-10.339,354.645,1.0
8.0666,128.178861,37.945638,6729.2320584,36.701,-10.356,354.65,1.0
8.0833,128.178856,37.945685,6728.3161344,36.841,-10.373,354.654,1.0
8.1,128.178851,37.945731,6727.3980768,36.983,-10.39,354.658,1.0
8.1166,128.178846,37.945778,6726.4784952,37.128,-10.407,354.663,1.0
8.1333,128.178841,37.945825,6725.5573896,37.276,-10.424,354.667,1.0
8.15,128.178837,37.945872,6724.6341504,37.425,-10.441,354.671,1.0
8.1666,128.178832,37.945918,6723.709082400001,37.578,-10.459,354.675,1.0
8.1833,128.178827,37.945965,6722.7824904,37.733,-10.476,354.679,1.0
8.2,128.178822,37.946012,6721.854069600001,37.89,-10.493,354.683,1.0
8.2166,128.178817,37.946059,6720.923820000001,38.049,-10.511,354.687,1.0
8.2333,128.178812,37.946106,6719.991436800001,38.21,-10.528,354.69,1.0
8.25,128.178808,37.946152,6719.0578344,38.372,-10.546,354.694,1.0
8.2666,128.178803,37.946199,6718.1220984,38.536,-10.564,354.697,1.0
8.2833,128.178798,37.946246,6717.184533600001,38.702,-10.582,354.7,1.0
8.3,128.178793,37.946293,6716.24514,38.869,-10.6,354.704,1.0
8.3166,128.178788,37.946339,6715.3042224,39.038,-10.618,354.707,1.0
8.3333,128.178784,37.946386,6714.3611712,39.207,-10.636,354.709,1.0
8.35,128.178779,37.946433,6713.4162912,39.379,-10.654,354.712,1.0
8.3666,128.178774,37.94648,6712.469887200001,39.551,-10.673,354.715,1.0
8.3833,128.178769,37.946527,6711.521349600001,39.725,-10.691,354.717,1.0
8.4,128.178765,37.946574,6710.5709832,39.901,-10.71,354.72,1.0
8.4166,128.17876,37.94662,6709.618788000001,40.079,-10.729,354.722,1.0
8.4333,128.178755,37.946667,6708.664764,40.258,-10.748,354.724,1.0
8.45,128.17875,37.946714,6707.708911200001,40.439,-10.768,354.725,1.0
8.4666,128.178746,37.946761,6706.750924800001,40.621,-10.788,354.727,1.0
8.4833,128.178741,37.946808,6705.791414400001,40.805,-10.808,354.728,1.0
8.5,128.178736,37.946855,6704.829770400001,40.991,-10.828,354.729,1.0
8.5166,128.178732,37.946902,6703.8662976000005,41.177,-10.848,354.73,1.0
8.5333,128.178727,37.946948,6702.900996,41.365,-10.868,354.73,1.0
8.55,128.178722,37.946995,6701.933560800001,41.553,-10.889,354.731,1.0
8.5666,128.178718,37.947042,6700.964296800001,41.743,-10.909,354.731,1.0
8.5833,128.178713,37.947089,6699.993204,41.933,-10.93,354.731,1.0
8.6,128.178708,37.947136,6699.019977600001,42.124,-10.95,354.732,1.0
8.6166,128.178703,37.947183,6698.0449224,42.315,-10.97,354.732,1.0
8.6333,128.178699,37.94723,6697.068038400001,42.507,-10.991,354.733,1.0
8.65,128.178694,37.947277,6696.0890208,42.699,-11.011,354.733,1.0
8.6666,128.17869,37.947324,6695.108174400001,42.891,-11.031,354.734,1.0
8.6833,128.178685,37.94737,6694.1254992,43.084,-11.05,354.734,1.0
8.7,128.17868,37.947417,6693.1406904000005,43.277,-11.07,354.735,1.0
8.7166,128.178676,37.947464,6692.1540528,43.469,-11.089,354.736,1.0
8.7333,128.178671,37.947511,6691.1652816000005,43.662,-11.109,354.737,1.0
8.75,128.178666,37.947558,6690.1746816,43.855,-11.128,354.738,1.0
8.7666,128.178662,37.947605,6689.1819479999995,44.047,-11.147,354.739,1.0
8.7833,128.178657,37.947652,6688.1870808,44.24,-11.166,354.74,1.0
8.8,128.178653,37.947699,6687.1906896,44.433,-11.185,354.741,1.0
8.8166,128.178648,37.947746,6686.191860000001,44.625,-11.204,354.742,1.0
8.8333,128.178643,37.947793,6685.191201600001,44.818,-11.223,354.743,1.0
8.85,128.178639,37.94784,6684.1887144,45.01,-11.242,354.744,1.0
8.8666,128.178634,37.947887,6683.1837888,45.203,-11.26,354.746,1.0
8.8833,128.17863,37.947934,6682.1773392,45.395,-11.279,354.747,1.0
8.9,128.178625,37.947981,6681.168451200001,45.587,-11.298,354.748,1.0
8.9166,128.178621,37.948028,6680.1577344,45.78,-11.316,354.749,1.0
8.9333,128.178616,37.948075,6679.144884000001,45.972,-11.335,354.751,1.0
8.95,128.178611,37.948122,6678.130204800001,46.164,-11.354,354.752,1.0
8.9666,128.178607,37.948169,6677.113392,46.356,-11.372,354.753,1.0
8.9833,128.178602,37.948216,6676.094445600001,46.548,-11.39,354.755,1.0
9.0,128.178598,37.948263,6675.073365600001,46.74,-11.409,354.756,1.0
9.0166,128.178593,37.94831,6674.050456800001,46.931,-11.427,354.757,1.0
9.0333,128.178589,37.948357,6673.025414400001,47.123,-11.445,354.759,1.0
9.05,128.178584,37.948404,6671.998543199999,47.315,-11.464,354.76,1.0
9.0666,128.17858,37.948451,6670.969233600001,47.507,-11.482,354.762,1.0
9.0833,128.178575,37.948498,6669.9380952,47.698,-11.5,354.764,1.0
9.1,128.178571,37.948545,6668.9048232000005,47.891,-11.518,354.765,1.0
9.1166,128.178566,37.948592,6667.8694176,48.083,-11.536,354.767,1.0
9.1333,128.178562,37.948639,6666.8318784,48.275,-11.554,354.769,1.0
9.15,128.178557,37.948686,6665.7925104000005,48.468,-11.572,354.771,1.0
9.1666,128.178553,37.948733,6664.750704,48.661,-11.589,354.773,1.0
9.1833,128.178548,37.94878,6663.7070688,48.855,-11.607,354.775,1.0
9.2,128.178544,37.948827,6662.661300000001,49.048,-11.625,354.777,1.0
9.2166,128.17854,37.948874,6661.613397600001,49.243,-11.642,354.779,1.0
9.2333,128.178535,37.948921,6660.5633616,49.437,-11.66,354.781,1.0
9.25,128.178531,37.948968,6659.511496800001,49.632,-11.678,354.783,1.0
9.2666,128.178526,37.949015,6658.4571936,49.827,-11.695,354.786,1.0
9.2833,128.178522,37.949062,6657.400756800001,50.023,-11.713,354.788,1.0
9.3,128.178517,37.949109,6656.3424912,50.219,-11.73,354.79,1.0
9.3166,128.178513,37.949156,6655.282092,50.415,-11.747,354.792,1.0
9.3333,128.178509,37.949203,6654.2192544,50.612,-11.765,354.795,1.0
9.35,128.178504,37.949251,6653.154588,50.809,-11.782,354.797,1.0
9.3666,128.1785,37.949298,6652.087788000001,51.007,-11.8,354.799,1.0
9.3833,128.178495,37.949345,6651.0188544,51.205,-11.817,354.802,1.0
9.4,128.178491,37.949392,6649.947482400001,51.403,-11.834,354.804,1.0
9.4166,128.178487,37.949439,6648.8742816,51.602,-11.852,354.806,1.0
9.4333,128.178482,37.949486,6647.798947200001,51.801,-11.869,354.809,1.0
9.45,128.178478,37.949533,6646.7214792,52.0,-11.886,354.811,1.0
9.4666,128.178474,37.94958,6645.6418776,52.2,-11.903,354.814,1.0
9.4833,128.178469,37.949627,6644.560142400001,52.4,-11.921,354.816,1.0
9.5,128.178465,37.949674,6643.4762736,52.6,-11.938,354.818,1.0
9.5166,128.178461,37.949722,6642.3902712,52.801,-11.955,354.821,1.0
9.5333,128.178456,37.949769,6641.3021352,53.001,-11.972,354.823,1.0
9.55,128.178452,37.949816,6640.211865600001,53.203,-11.989,354.826,1.0
9.5666,128.178448,37.949863,6639.1191576,53.404,-12.007,354.828,1.0
9.5833,128.178443,37.94991,6638.0246208,53.606,-12.024,354.831,1.0
9.6,128.178439,37.949957,6636.927950400001,53.808,-12.041,354.833,1.0
9.6166,128.178435,37.950004,6635.8288416000005,54.011,-12.058,354.836,1.0
9.6333,128.17843,37.950052,6634.727904,54.214,-12.075,354.838,1.0
9.65,128.178426,37.950099,6633.624528,54.417,-12.093,354.841,1.0
9.6666,128.178422,37.950146,6632.5193232,54.62,-12.11,354.843,1.0
9.6833,128.178417,37.950193,6631.41168,54.824,-12.127,354.845,1.0
9.7,128.178413,37.95024,6630.3019032,55.028,-12.144,354.848,1.0
9.7166,128.178409,37.950287,6629.189992800001,55.232,-12.161,354.85,1.0
9.7333,128.178405,37.950335,6628.0759488,55.437,-12.178,354.853,1.0
9.75,128.1784,37.950382,6626.9597711999995,55.642,-12.195,354.856,1.0
9.7666,128.178396,37.950429,6625.841155200001,55.847,-12.212,354.858,1.0
9.7833,128.178392,37.950476,6624.720710400001,56.053,-12.23,354.861,1.0
9.8,128.178388,37.950523,6623.5978272,56.259,-12.247,354.863,1.0
9.8166,128.178383,37.950571,6622.4728104000005,56.466,-12.264,354.866,1.0
9.8333,128.178379,37.950618,6621.345660000001,56.673,-12.281,354.868,1.0
9.85,128.178375,37.950665,6620.216376,56.88,-12.298,354.871,1.0
9.8666,128.178371,37.950712,6619.0849584,57.087,-12.315,354.874,1.0
9.8833,128.178367,37.950759,6617.951102399999,57.295,-12.332,354.876,1.0
9.9,128.178362,37.950807,6616.8151128,57.504,-12.349,354.879,1.0
9.9166,128.178358,37.950854,6615.6769896,57.712,-12.366,354.882,1.0
9.9333,128.178354,37.950901,6614.5367328,57.921,-12.383,354.884,1.0
9.95,128.17835,37.950948,6613.394037600001,58.131,-12.4,354.887,1.0
9.9666,128.178346,37.950996,6612.249513600001,58.34,-12.417,354.89,1.0
9.9833,128.178341,37.951043,6611.102551200001,58.55,-12.434,354.892,1.0
10.0,128.178337,37.95109,6609.9534552000005,58.761,-12.451,354.895,1.0
10.0166,128.178333,37.951137,6608.8019208,58.971,-12.468,354.898,1.0
10.0333,128.178329,37.951184,6607.6482528,59.182,-12.485,354.901,1.0
10.05,128.178325,37.951232,6606.492451200001,59.394,-12.502,354.904,1.0
10.0666,128.178321,37.951279,6605.334516,59.605,-12.519,354.906,1.0
10.0833,128.178317,37.951326,6604.174447200001,59.817,-12.536,354.909,1.0
10.1,128.178312,37.951374,6603.01194,60.029,-12.553,354.912,1.0
10.1166,128.178308,37.951421,6601.8472992,60.242,-12.57,354.915,1.0
10.1333,128.178304,37.951468,6600.680220000001,60.455,-12.587,354.918,1.0
10.15,128.1783,37.951515,6599.511312,60.668,-12.604,354.921,1.0
10.1666,128.178296,37.951563,6598.339660800001,60.882,-12.621,354.924,1.0
10.1833,128.178292,37.95161,6597.1661808,61.096,-12.638,354.927,1.0
10.2,128.178288,37.951657,6595.9902624,61.31,-12.655,354.93,1.0
10.2166,128.178284,37.951704,6594.8122104,61.524,-12.672,354.933,1.0
10.2333,128.17828,37.951752,6593.632024800001,61.739,-12.689,354.936,1.0
10.25,128.178275,37.951799,6592.4494008,61.954,-12.706,354.939,1.0
10.2666,128.178271,37.951846,6591.2646432,62.17,-12.723,354.942,1.0
10.2833,128.178267,37.951894,6590.077447200001,62.385,-12.74,354.945,1.0
10.3,128.178263,37.951941,6588.8881176,62.601,-12.757,354.948,1.0
10.3166,128.178259,37.951988,6587.696654400001,62.818,-12.774,354.951,1.0
10.3333,128.178255,37.952036,6586.5027528,63.034,-12.791,354.954,1.0
10.35,128.178251,37.952083,6585.3067176,63.251,-12.807,354.958,1.0
10.3666,128.178247,37.95213,6584.108244,63.468,-12.824,354.961,1.0
10.3833,128.178243,37.952178,6582.907636800001,63.686,-12.841,354.964,1.0
10.4,128.178239,37.952225,6581.704896,63.903,-12.858,354.967,1.0
10.4166,128.178235,37.952272,6580.4997168,64.121,-12.875,354.97,1.0
10.4333,128.178231,37.952319,6579.292404,64.34,-12.892,354.974,1.0
10.45,128.178227,37.952367,6578.0826528,64.558,-12.909,354.977,1.0
10.4666,128.178223,37.952414,6576.870768000001,64.777,-12.926,354.98,1.0
10.4833,128.178219,37.952462,6575.6567496,64.996,-12.943,354.984,1.0
10.5,128.178215,37.952509,6574.440292800001,65.215,-12.96,354.987,1.0
10.5166,128.178211,37.952556,6573.221397600001,65.435,-12.977,354.99,1.0
10.5333,128.178207,37.952604,6572.000368800001,65.655,-12.994,354.994,1.0
10.55,128.178203,37.952651,6570.776901600001,65.875,-13.01,354.997,1.0
10.5666,128.178199,37.952698,6569.551300800001,66.096,-13.027,355.0,1.0
10.5833,128.178195,37.952746,6568.3235664,66.316,-13.044,355.004,1.0
10.6,128.178191,37.952793,6567.0933936,66.537,-13.061,355.007,1.0
10.6166,128.178187,37.95284,6565.8607824,66.759,-13.078,355.011,1.0
10.6333,128.178183,37.952888,6564.626037600001,66.98,-13.095,355.014,1.0
10.65,128.178179,37.952935,6563.3891592,67.202,-13.112,355.018,1.0
10.6666,128.178175,37.952982,6562.149842400001,67.424,-13.129,355.021,1.0
10.6833,128.178172,37.95303,6560.9080872,67.646,-13.146,355.025,1.0
10.7,128.178168,37.953077,6559.6641984,67.868,-13.163,355.029,1.0
10.7166,128.178164,37.953125,6558.4178712,68.091,-13.18,355.032,1.0
10.7333,128.17816,37.953172,6557.169410400001,68.314,-13.197,355.036,1.0
10.75,128.178156,37.953219,6555.9185112000005,68.537,-13.214,355.039,1.0
10.7666,128.178152,37.953267,6554.6651736,68.761,-13.231,355.043,1.0
10.7833,128.178148,37.953314,6553.4097024,68.984,-13.248,355.047,1.0
10.8,128.178144,37.953362,6552.151792800001,69.208,-13.265,355.05,1.0
10.8166,128.17814,37.953409,6550.8917496,69.432,-13.282,355.054,1.0
10.8333,128.178136,37.953456,6549.629268000001,69.657,-13.299,355.058,1.0
10.85,128.178133,37.953504,6548.3646528,69.881,-13.316,355.062,1.0
10.8666,128.178129,37.953551,6547.0975992,70.106,-13.333,355.065,1.0
10.8833,128.178125,37.953599,6545.8281072,70.331,-13.35,355.069,1.0
10.9,128.178121,37.953646,6544.556481600001,70.556,-13.367,355.073,1.0
10.9166,128.178117,37.953694,6543.2824176,70.782,-13.384,355.077,1.0
10.9333,128.178113,37.953741,6542.0059152,71.008,-13.401,355.081,1.0
10.95,128.178109,37.953788,6540.727279200001,71.234,-13.418,355.085,1.0
10.9666,128.178106,37.953836,6539.4462048000005,71.46,-13.435,355.088,1.0
10.9833,128.178102,37.953883,6538.162692000001,71.686,-13.452,355.092,1.0
11.0,128.178098,37.953931,6536.8770456,71.913,-13.469,355.096,1.0
11.0166,128.178094,37.953978,6535.588960800001,72.14,-13.486,355.1,1.0
11.0333,128.17809,37.954026,6534.2987424,72.367,-13.503,355.104,1.0
11.05,128.178087,37.954073,6533.0057808,72.594,-13.52,355.108,1.0
11.0666,128.178083,37.954121,6531.7106856,72.822,-13.537,355.112,1.0
11.0833,128.178079,37.954168,6530.413456800001,73.049,-13.554,355.116,1.0
11.1,128.178075,37.954215,6529.1134848,73.277,-13.571,355.12,1.0
11.1166,128.178071,37.954263,6527.8113792,73.505,-13.588,355.124,1.0
11.1333,128.178068,37.95431,6526.50714,73.734,-13.606,355.129,1.0
11.15,128.178064,37.954358,6525.2001576,73.962,-13.623,355.133,1.0
11.1666,128.17806,37.954405,6523.891041600001,74.191,-13.64,355.137,1.0
11.1833,128.178056,37.954453,6522.579487200001,74.42,-13.657,355.141,1.0
11.2,128.178053,37.9545,6521.2654944,74.649,-13.674,355.145,1.0
11.2166,128.178049,37.954548,6519.9493680000005,74.879,-13.691,355.149,1.0
11.2333,128.178045,37.954595,6518.6304984,75.108,-13.709,355.154,1.0
11.25,128.178041,37.954643,6517.3094952,75.338,-13.726,355.158,1.0
11.2666,128.178038,37.95469,6515.9863584,75.568,-13.743,355.162,1.0
11.2833,128.178034,37.954738,6514.660478400001,75.798,-13.76,355.166,1.0
11.3,128.17803,37.954785,6513.332464800001,76.029,-13.777,355.171,1.0
11.3166,128.178027,37.954833,6512.002012800001,76.259,-13.795,355.175,1.0
11.3333,128.178023,37.95488,6510.669122400001,76.49,-13.812,355.179,1.0
11.35,128.178019,37.954928,6509.3337936,76.721,-13.829,355.184,1.0
11.3666,128.178015,37.954975,6507.9963312,76.952,-13.846,355.188,1.0
11.3833,128.178012,37.955023,6506.6561255999995,77.184,-13.864,355.192,1.0
11.4,128.178008,37.95507,6505.3137864,77.415,-13.881,355.197,1.0
11.4166,128.178004,37.955118,6503.969008800001,77.647,-13.898,355.201,1.0
11.4333,128.178001,37.955165,6502.6220976,77.879,-13.916,355.206,1.0
11.45,128.177997,37.955213,6501.2724431999995,78.111,-13.933,355.21,1.0
11.4666,128.177993,37.95526,6499.9206552000005,78.343,-13.95,355.215,1.0
11.4833,128.17799,37.955308,6498.566124000001,78.576,-13.968,355.219,1.0
11.5,128.177986,37.955355,6497.2094592,78.808,-13.985,355.224,1.0
11.5166,128.177982,37.955403,6495.850356000001,79.041,-14.003,355.228,1.0
11.5333,128.177979,37.95545,6494.4891192000005,79.274,-14.02,355.233,1.0
11.55,128.177975,37.955498,6493.1251391999995,79.507,-14.038,355.237,1.0
11.5666,128.177971,37.955545,6491.7587207999995,79.741,-14.055,355.242,1.0
11.5833,128.177968,37.955593,6490.3901688000005,79.974,-14.073,355.246,1.0
11.6,128.177964,37.955641,6489.019178400001,80.208,-14.09,355.251,1.0
11.6166,128.177961,37.955688,6487.6457496,80.442,-14.108,355.256,1.0
11.6333,128.177957,37.955736,6486.269882400001,80.676,-14.125,355.26,1.0
11.65,128.177953,37.955783,6484.891576800001,80.91,-14.143,355.265,1.0
11.6666,128.17795,37.955831,6483.510832800001,81.145,-14.16,355.27,1.0
11.6833,128.177946,37.955878,6482.127650400001,81.379,-14.178,355.274,1.0
11.7,128.177942,37.955926,6480.7420296,81.614,-14.195,355.279,1.0
11.7166,128.177939,37.955973,6479.354275199999,81.849,-14.213,355.284,1.0
11.7333,128.177935,37.956021,6477.9637776,82.084,-14.231,355.288,1.0
11.75,128.177932,37.956068,6476.5711464000005,82.319,-14.248,355.293,1.0
11.7666,128.177928,37.956116,6475.1760768,82.554,-14.266,355.298,1.0
11.7833,128.177925,37.956164,6473.7785688,82.79,-14.284,355.303,1.0
11.8,128.177921,37.956211,6472.378317600001,83.025,-14.301,355.307,1.0
11.8166,128.177917,37.956259,6470.975932800001,83.261,-14.319,355.312,1.0
11.8333,128.177914,37.956306,6469.5711096,83.497,-14.337,355.317,1.0
11.85,128.17791,37.956354,6468.163848,83.733,-14.355,355.322,1.0
11.8666,128.177907,37.956401,6466.754148,83.969,-14.372,355.327,1.0
11.8833,128.177903,37.956449,6465.342009600001,84.205,-14.39,355.332,1.0
11.9,128.1779,37.956497,6463.9274328,84.442,-14.408,355.336,1.0
11.9166,128.177896,37.956544,6462.5107224,84.678,-14.426,355.341,1.0
11.9333,128.177893,37.956592,6461.091268800001,84.915,-14.444,355.346,1.0
11.95,128.177889,37.956639,6459.6693768000005,85.152,-14.462,355.351,1.0
11.9666,128.177886,37.956687,6458.2450464,85.389,-14.479,355.356,1.0
11.9833,128.177882,37.956735,6456.8182776,85.626,-14.497,355.361,1.0
12.0,128.177879,37.956782,6455.389375199999,85.864,-14.515,355.366,1.0
12.0166,128.177875,37.95683,6453.9577296,86.101,-14.533,355.371,1.0
12.0333,128.177872,37.956877,6452.5236456,86.338,-14.551,355.376,1.0
12.05,128.177868,37.956925,6451.087123200001,86.576,-14.569,355.38,1.0
12.0666,128.177865,37.956973,6449.6484672,86.814,-14.587,355.385,1.0
12.0833,128.177861,37.95702,6448.207068000001,87.052,-14.605,355.39,1.0
12.1,128.177858,37.957068,6446.7632304,87.29,-14.623,355.395,1.0
12.1166,128.177854,37.957115,6445.3169544,87.528,-14.641,355.4,1.0
12.1333,128.177851,37.957163,6443.86824,87.766,-14.66,355.405,1.0
12.15,128.177847,37.957211,6442.4170872,88.004,-14.678,355.41,1.0
12.1666,128.177844,37.957258,6440.9638008,88.243,-14.696,355.415,1.0
12.1833,128.17784,37.957306,6439.5077712,88.481,-14.714,355.42,1.0
12.2,128.177837,37.957354,6438.0493032,88.72,-14.732,355.425,1.0
12.2166,128.177833,37.957401,6436.588396800001,88.959,-14.75,355.43,1.0
12.2333,128.17783,37.957449,6435.125052000001,89.197,-14.769,355.435,1.0
12.25,128.177826,37.957496,6433.6592688,89.436,-14.787,355.441,1.0
12.2666,128.177823,37.957544,6432.190742400001,89.675,-14.805,355.446,1.0
12.2833,128.17782,37.957592,6430.7200824,89.914,-14.824,355.451,1.0
12.3,128.177816,37.957639,6429.246984000001,90.153,-14.842,355.456,1.0
12.3166,128.177813,37.957687,6427.771447200001,90.392,-14.86,355.461,1.0
12.3333,128.177809,37.957735,6426.2931672,90.632,-14.879,355.466,1.0
12.35,128.177806,37.957782,6424.8127536,90.871,-14.897,355.471,1.0
12.3666,128.177802,37.95783,6423.3295968,91.11,-14.915,355.476,1.0
12.3833,128.177799,37.957878,6421.844306400001,91.349,-14.934,355.481,1.0
12.4,128.177796,37.957925,6420.356272800001,91.589,-14.952,355.486,1.0
12.4166,128.177792,37.957973,6418.8658008,91.828,-14.971,355.491,1.0
12.4333,128.177789,37.958021,6417.3731952,92.068,-14.989,355.496,1.0
12.45,128.177785,37.958068,6415.877846400001,92.308,-15.008,355.502,1.0
12.4666,128.177782,37.958116,6414.380059200001,92.547,-15.026,355.507,1.0
12.4833,128.177779,37.958163,6412.879833600001,92.787,-15.045,355.512,1.0
12.5,128.177775,37.958211,6411.3768648000005,93.027,-15.064,355.517,1.0
12.5166,128.177772,37.958259,6409.8717624,93.267,-15.082,355.522,1.0
12.5333,128.177768,37.958306,6408.3642216,93.506,-15.101,355.527,1.0
12.55,128.177765,37.958354,6406.853937600001,93.746,-15.12,355.532,1.0
12.5666,128.177762,37.958402,6405.341520000001,93.986,-15.138,355.538,1.0
12.5833,128.177758,37.958449,6403.8263592,94.226,-15.157,355.543,1.0
12.6,128.177755,37.958497,6402.308760000001,94.466,-15.176,355.548,1.0
12.6166,128.177752,37.958545,6400.788722400001,94.706,-15.195,355.553,1.0
12.6333,128.177748,37.958593,6399.2662464,94.947,-15.213,355.558,1.0
12.65,128.177745,37.95864,6397.7413320000005,95.187,-15.232,355.563,1.0
12.6666,128.177741,37.958688,6396.213979200001,95.427,-15.251,355.568,1.0
12.6833,128.177738,37.958736,6394.684188000001,95.667,-15.27,355.574,1.0
12.7,128.177735,37.958783,6393.1516536,95.907,-15.289,355.579,1.0
12.7166,128.177731,37.958831,6391.616985600001,96.148,-15.308,355.584,1.0
12.7333,128.177728,37.958879,6390.079574400001,96.388,-15.327,355.589,1.0
12.75,128.177725,37.958926,6388.539724800001,96.629,-15.346,355.594,1.0
12.7666,128.177721,37.958974,6386.9974368,96.869,-15.365,355.599,1.0
12.7833,128.177718,37.959022,6385.452710400001,97.109,-15.384,355.604,1.0
12.8,128.177715,37.959069,6383.905545600001,97.35,-15.403,355.609,1.0
12.8166,128.177711,37.959117,6382.355637600001,97.59,-15.422,355.615,1.0
12.8333,128.177708,37.959165,6380.803596000001,97.831,-15.441,355.62,1.0
12.85,128.177705,37.959212,6379.248811200001,98.071,-15.46,355.625,1.0
12.8666,128.177702,37.95926,6377.691588000001,98.312,-15.479,355.63,1.0
12.8833,128.177698,37.959308,6376.1319264,98.552,-15.498,355.635,1.0
12.9,128.177695,37.959356,6374.5698264,98.793,-15.518,355.64,1.0
12.9166,128.177692,37.959403,6373.005288,99.033,-15.537,355.645,1.0
12.9333,128.177688,37.959451,6371.438006400001,99.274,-15.556,355.65,1.0
12.95,128.177685,37.959499,6369.8685912,99.514,-15.575,355.655,1.0
12.9666,128.177682,37.959546,6368.296432800001,99.755,-15.595,355.66,1.0
12.9833,128.177678,37.959594,6366.721836000001,99.995,-15.614,355.666,1.0
13.0,128.177675,37.959642,6365.144800800001,100.236,-15.633,355.671,1.0
13.0166,128.177672,37.95969,6363.5653272,100.476,-15.653,355.676,1.0
13.0333,128.177669,37.959737,6361.9834152,100.717,-15.672,355.681,1.0
13.0499,128.177665,37.959785,6360.399064800001,100.957,-15.691,355.686,1.0
13.0666,128.177662,37.959833,6358.8119712,101.198,-15.711,355.691,1.0
13.0833,128.177659,37.95988,6357.2224392,101.438,-15.73,355.696,1.0
13.1,128.177656,37.959928,6355.6304688,101.679,-15.75,355.701,1.0
13.1166,128.177652,37.959976,6354.03606,101.919,-15.769,355.706,1.0
13.1333,128.177649,37.960024,6352.4392128,102.16,-15.789,355.711,1.0
13.15,128.177646,37.960071,6350.839927200001,102.4,-15.808,355.716,1.0
13.1666,128.177642,37.960119,6349.2378984,102.64,-15.828,355.721,1.0
13.1833,128.177639,37.960167,6347.633736000001,102.881,-15.848,355.726,1.0
13.2,128.177636,37.960215,6346.0268304,103.121,-15.867,355.731,1.0
13.2166,128.177633,37.960262,6344.417486400001,103.361,-15.887,355.735,1.0
13.2333,128.177629,37.96031,6342.805704,103.601,-15.906,355.74,1.0
13.25,128.177626,37.960358,6341.1911784,103.841,-15.926,355.745,1.0
13.2666,128.177623,37.960405,6339.5745192,104.081,-15.946,355.75,1.0
13.2833,128.17762,37.960453,6337.9551168,104.321,-15.966,355.755,1.0
13.3,128.177617,37.960501,6336.3335808,104.561,-15.985,355.76,1.0
13.3166,128.177613,37.960549,6334.709301600001,104.801,-16.005,355.765,1.0
13.3333,128.17761,37.960596,6333.082584000001,105.041,-16.025,355.77,1.0
13.35,128.177607,37.960644,6331.453123200001,105.281,-16.045,355.774,1.0
13.3666,128.177604,37.960692,6329.821528800001,105.521,-16.065,355.779,1.0
13.3833,128.1776,37.96074,6328.187191200001,105.761,-16.085,355.784,1.0
13.4,128.177597,37.960787,6326.550720000001,106.001,-16.104,355.789,1.0
13.4166,128.177594,37.960835,6324.911505600001,106.24,-16.124,355.794,1.0
13.4333,128.177591,37.960883,6323.2698528,106.48,-16.144,355.798,1.0
13.45,128.177587,37.960931,6321.6257616,106.72,-16.164,355.803,1.0
13.4666,128.177584,37.960978,6319.978927200001,106.959,-16.184,355.808,1.0
13.4833,128.177581,37.961026,6318.3299592,107.199,-16.204,355.813,1.0
13.5,128.177578,37.961074,6316.678248,107.438,-16.224,355.817,1.0
13.5166,128.177575,37.961122,6315.0240984,107.678,-16.244,355.822,1.0
13.5333,128.177571,37.961169,6313.3675104,107.917,-16.264,355.827,1.0
13.55,128.177568,37.961217,6311.708484000001,108.157,-16.285,355.831,1.0
13.5666,128.177565,37.961265,6310.0470192,108.396,-16.305,355.836,1.0
13.5833,128.177562,37.961313,6308.383116,108.635,-16.325,355.841,1.0
13.6,128.177559,37.961361,6306.716469600001,108.875,-16.345,355.845,1.0
13.6166,128.177555,37.961408,6305.0473848,109.114,-16.365,355.85,1.0
13.6333,128.177552,37.961456,6303.3758616,109.353,-16.385,355.854,1.0
13.65,128.177549,37.961504,6301.7019,109.592,-16.406,355.859,1.0
13.6666,128.177546,37.961552,6300.025500000001,109.831,-16.426,355.863,1.0
13.6833,128.177543,37.961599,6298.3466616,110.07,-16.446,355.868,1.0
13.7,128.177539,37.961647,6296.6653848,110.309,-16.466,355.872,1.0
13.7166,128.177536,37.961695,6294.981364800001,110.548,-16.487,355.877,1.0
13.7333,128.177533,37.961743,6293.2949064,110.787,-16.507,355.881,1.0
13.75,128.17753,37.961791,6291.606314400001,111.026,-16.527,355.886,1.0
13.7666,128.177527,37.961838,6289.914979200001,111.264,-16.548,355.89,1.0
13.7833,128.177524,37.961886,6288.220900800001,111.503,-16.568,355.894,1.0
13.8,128.17752,37.961934,6286.5246888,111.741,-16.589,355.899,1.0
13.8166,128.177517,37.961982,6284.8260384000005,111.98,-16.609,355.903,1.0
13.8333,128.177514,37.962029,6283.1246448,112.218,-16.629,355.907,1.0
13.85,128.177511,37.962077,6281.4211176,112.457,-16.65,355.912,1.0
13.8666,128.177508,37.962125,6279.714847200001,112.695,-16.67,355.916,1.0
13.8833,128.177505,37.962173,6278.006138400001,112.933,-16.691,355.92,1.0
13.9,128.177501,37.962221,6276.2949912,113.171,-16.711,355.924,1.0
13.9166,128.177498,37.962268,6274.581405600001,113.409,-16.732,355.928,1.0
13.9333,128.177495,37.962316,6272.865381600001,113.647,-16.752,355.933,1.0
13.95,128.177492,37.962364,6271.1466144000005,113.884,-16.773,355.937,1.0
13.9666,128.177489,37.962412,6269.425713600001,114.122,-16.794,355.941,1.0
13.9833,128.177486,37.96246,6267.702069600001,114.36,-16.814,355.945,1.0
14.0,128.177482,37.962507,6265.976292,114.597,-16.835,355.949,1.0
14.0166,128.177479,37.962555,6264.2477712,114.834,-16.855,355.953,1.0
14.0333,128.177476,37.962603,6262.516812,115.072,-16.876,355.957,1.0
14.05,128.177473,37.962651,6260.783414400001,115.309,-16.897,355.961,1.0
14.0666,128.17747,37.962699,6259.047578400001,115.546,-16.917,355.965,1.0
14.0833,128.177467,37.962746,6257.309304,115.783,-16.938,355.969,1.0
14.1,128.177463,37.962794,6255.568591200001,116.02,-16.959,355.973,1.0
14.1166,128.17746,37.962842,6253.8251352,116.256,-16.979,355.977,1.0
14.1333,128.177457,37.96289,6252.0795456000005,116.493,-17.0,355.98,1.0
14.15,128.177454,37.962938,6250.3312128,116.729,-17.021,355.984,1.0
14.1666,128.177451,37.962985,6248.580746400001,116.966,-17.042,355.988,1.0
14.1833,128.177448,37.963033,6246.8275368,117.202,-17.062,355.992,1.0
14.2,128.177445,37.963081,6245.0718888,117.438,-17.083,355.996,1.0
14.2166,128.177441,37.963129,6243.3141072,117.674,-17.104,355.999,1.0
14.2333,128.177438,37.963177,6241.553582400001,117.91,-17.125,356.003,1.0
14.25,128.177435,37.963224,6239.790619200001,118.146,-17.146,356.007,1.0
14.2666,128.177432,37.963272,6238.0252176,118.381,-17.166,356.01,1.0
14.2833,128.177429,37.96332,6236.257377600001,118.617,-17.187,356.014,1.0
14.3,128.177426,37.963368,6234.487099200001,118.852,-17.208,356.017,1.0
14.3166,128.177423,37.963416,6232.714077600001,119.087,-17.229,356.021,1.0
14.3333,128.177419,37.963464,6230.938922400001,119.322,-17.25,356.024,1.0
14.35,128.177416,37.963511,6229.161328800001,119.558,-17.271,356.028,1.0
14.3666,128.177413,37.963559,6227.3812968,119.792,-17.292,356.031,1.0
14.3833,128.17741,37.963607,6225.5985216,120.027,-17.312,356.034,1.0
14.4,128.177407,37.963655,6223.813612800001,120.262,-17.333,356.038,1.0
14.4166,128.177404,37.963703,6222.025960800001,120.497,-17.354,356.041,1.0
14.4333,128.177401,37.96375,6220.2361752,120.731,-17.375,356.044,1.0
14.45,128.177397,37.963798,6218.443951200001,120.965,-17.396,356.048,1.0
14.4666,128.177394,37.963846,6216.648984000001,121.2,-17.417,356.051,1.0
14.4833,128.177391,37.963894,6214.851883200001,121.434,-17.438,356.054,1.0
14.5,128.177388,37.963942,6213.0520392,121.668,-17.459,356.057,1.0
14.5166,128.177385,37.96399,6211.2500616,121.901,-17.48,356.06,1.0
14.5333,128.177382,37.964037,6209.4453408,122.135,-17.501,356.063,1.0
14.55,128.177379,37.964085,6207.6384864,122.369,-17.522,356.067,1.0
14.5666,128.177375,37.964133,6205.8288888,122.602,-17.543,356.07,1.0
