Time,Longitude,Latitude,Altitude,Roll (deg),Pitch (deg),Yaw (deg),Health
0.0,128.181881,37.968463,7002.830292000001,0.0,-0.003,179.999,1.0
0.0166,128.181881,37.968418,7002.8116992000005,0.0,-0.012,180.0,1.0
0.0333,128.181881,37.968374,7002.792496800001,0.0,-0.025,180.0,1.0
0.05,128.181881,37.968329,7002.7720752,0.0,-0.04,180.0,1.0
0.0666,128.181881,37.968284,7002.751044,0.0,-0.057,180.0,1.0
0.0833,128.181881,37.968239,7002.7290984,0.0,-0.075,180.0,1.0
0.1,128.181881,37.968194,7002.705933600001,0.0,-0.094,180.0,1.0
0.1166,128.181881,37.968149,7002.682159200001,0.0,-0.112,180.0,1.0
0.1333,128.181881,37.968104,7002.657470400001,0.0,-0.131,180.0,1.0
0.15,128.181881,37.968059,7002.6318672,0.0,-0.149,180.0,1.0
0.1666,128.181881,37.968014,7002.6050448000005,0.0,-0.167,180.0,1.0
0.1833,128.181881,37.967969,7002.5776128,0.0,-0.185,180.0,1.0
0.2,128.181881,37.967924,7002.5489615999995,0.0,-0.203,180.0,1.0
0.2166,128.181881,37.96788,7002.5197008000005,0.0,-0.22,180.0,1.0
0.2333,128.181881,37.967835,7002.4892208,0.0,-0.237,180.0,1.0
0.25,128.181881,37.96779,7002.4578264,0.0,-0.254,180.0,1.0
0.2666,128.181881,37.967745,7002.4252128,0.0,-0.271,180.0,1.0
0.2833,128.181881,37.9677,7002.3919896,0.0,-0.287,180.0,1.0
0.3,128.181881,37.967655,7002.357547200001,0.0,-0.304,180.0,1.0
0.3166,128.181881,37.96761,7002.3221904,0.0,-0.32,180.0,1.0
0.3333,128.181881,37.967565,7002.2859192000005,0.0,-0.335,180.0,1.0
0.35,128.181881,37.967521,7002.2484288000005,0.0,-0.351,180.0,1.0
0.3666,128.181881,37.967476,7002.210024000001,0.001,-0.366,180.0,1.0
0.3833,128.181881,37.967431,7002.1704,0.001,-0.381,180.0,1.0
0.4,128.181881,37.967386,7002.1301664,0.001,-0.396,180.0,1.0
0.4166,128.181881,37.967341,7002.0884088,0.001,-0.411,180.0,1.0
0.4333,128.181881,37.967296,7002.0460416000005,0.001,-0.426,180.0,1.0
0.45,128.181881,37.967252,7002.0024552,0.001,-0.441,180.0,1.0
0.4666,128.181881,37.967207,7001.957954400001,0.001,-0.455,180.0,1.0
0.4833,128.181881,37.967162,7001.9122344,0.001,-0.469,180.0,1.0
0.5,128.181881,37.967117,7001.8656,0.002,-0.483,180.0,1.0
0.5166,128.181881,37.967072,7001.817746400001,0.002,-0.498,180.0,1.0
0.5333,128.181881,37.967028,7001.7689784,0.002,-0.512,180.0,1.0
0.55,128.181881,37.966983,7001.719296,0.002,-0.526,180.0,1.0
0.5666,128.181881,37.966938,7001.6683944,0.002,-0.539,180.0,1.0
0.5833,128.181881,37.966893,7001.616273600001,0.002,-0.553,180.0,1.0
0.6,128.181881,37.966849,7001.563238400001,0.003,-0.567,180.0,1.0
0.6166,128.181881,37.966804,7001.5092888,0.003,-0.58,180.0,1.0
0.6333,128.181881,37.966759,7001.454120000001,0.003,-0.594,180.0,1.0
0.65,128.181881,37.966714,7001.3980368,0.003,-0.607,180.0,1.0
0.6666,128.181881,37.96667,7001.3407344,0.003,-0.621,180.0,1.0
0.6833,128.181881,37.966625,7001.2822128,0.004,-0.634,180.0,1.0
0.7,128.181881,37.96658,7001.2227768,0.004,-0.648,180.0,1.0
0.7166,128.181881,37.966536,7001.1624264,0.004,-0.661,180.0,1.0
0.7333,128.181881,37.966491,7001.100856800001,0.004,-0.674,180.0,1.0
0.75,128.181881,37.966446,7001.038372800001,0.005,-0.687,180.0,1.0
0.7666,128.181881,37.966402,7000.974669600001,0.005,-0.701,180.0,1.0
0.7833,128.181881,37.966357,7000.909747200001,0.005,-0.714,180.0,1.0
0.8,128.181881,37.966312,7000.843910400001,0.005,-0.727,180.0,1.0
0.8166,128.181881,37.966268,7000.777159200001,0.005,-0.74,180.001,1.0
0.8333,128.181881,37.966223,7000.7091887999995,0.006,-0.753,180.001,1.0
0.85,128.181881,37.966179,7000.639999200001,0.006,-0.766,180.001,1.0
0.8666,128.181881,37.966134,7000.5698952,0.006,-0.78,180.001,1.0
0.8833,128.181881,37.966089,7000.498572,0.007,-0.793,180.001,1.0
0.9,128.181881,37.966045,7000.4263344,0.007,-0.806,180.001,1.0
0.9166,128.181881,37.966,7000.3528776,0.007,-0.819,180.001,1.0
0.9333,128.181881,37.965956,7000.278506400001,0.007,-0.832,180.001,1.0
0.95,128.181881,37.965911,7000.202916,0.008,-0.845,180.001,1.0
0.9666,128.181881,37.965867,7000.126106400001,0.008,-0.858,180.001,1.0
0.9833,128.181881,37.965822,7000.0483824,0.008,-0.871,180.001,1.0
1.0,128.181881,37.965778,6999.9694392,0.008,-0.884,180.001,1.0
1.0166,128.181881,37.965733,6999.8895816,0.009,-0.897,180.001,1.0
1.0333,128.181881,37.965689,6999.8085048,0.009,-0.91,180.001,1.0
1.05,128.181881,37.965644,6999.7265136000005,0.009,-0.923,180.001,1.0
1.0666,128.181881,37.9656,6999.6433032,0.01,-0.936,180.001,1.0
1.0833,128.181881,37.965555,6999.558873600001,0.01,-0.949,180.001,1.0
1.1,128.181881,37.965511,6999.4735296,0.01,-0.962,180.001,1.0
1.1166,128.181881,37.965466,6999.3872712,0.011,-0.976,180.001,1.0
1.1333,128.181881,37.965422,6999.2994888,0.011,-0.989,180.001,1.0
1.15,128.181881,37.965377,6999.211096800001,0.011,-1.002,180.001,1.0
1.1666,128.181881,37.965333,6999.1211808,0.012,-1.015,180.001,1.0
1.1833,128.181881,37.965289,6999.0303504,0.012,-1.028,180.001,1.0
1.2,128.181881,37.965244,6998.9383008,0.012,-1.041,180.001,1.0
1.2166,128.181881,37.9652,6998.8453368,0.013,-1.054,180.002,1.0
1.2333,128.181881,37.965155,6998.7511536,0.013,-1.067,180.002,1.0
1.25,128.181881,37.965111,6998.656056000001,0.013,-1.08,180.002,1.0
1.2666,128.181881,37.965067,6998.5597392,0.014,-1.094,180.002,1.0
1.2833,128.181881,37.965022,6998.4622032,0.014,-1.107,180.002,1.0
1.3,128.181881,37.964978,6998.3637528,0.014,-1.12,180.002,1.0
1.3166,128.181881,37.964934,6998.264083200001,0.015,-1.133,180.002,1.0
1.3333,128.181881,37.964889,6998.1634992,0.015,-1.146,180.002,1.0
1.35,128.181881,37.964845,6998.061696000001,0.015,-1.16,180.002,1.0
1.3666,128.18188,37.964801,6997.9586736,0.016,-1.173,180.002,1.0
1.3833,128.18188,37.964756,6997.854736800001,0.016,-1.186,180.002,1.0
1.4,128.18188,37.964712,6997.7495808,0.016,-1.199,180.002,1.0
1.4166,128.18188,37.964668,6997.6432056,0.017,-1.212,180.002,1.0
1.4333,128.18188,37.964623,6997.535916,0.017,-1.226,180.002,1.0
1.45,128.18188,37.964579,6997.4274072,0.018,-1.239,180.002,1.0
1.4666,128.18188,37.964535,6997.317984000001,0.018,-1.252,180.002,1.0
1.4833,128.18188,37.964491,6997.2070368,0.018,-1.266,180.002,1.0
1.5,128.18188,37.964446,6997.09548,0.019,-1.279,180.002,1.0
1.5166,128.18188,37.964402,6996.9823992,0.019,-1.292,180.002,1.0
1.5333,128.18188,37.964358,6996.868404,0.02,-1.306,180.002,1.0
1.55,128.18188,37.964314,6996.7534944,0.02,-1.319,180.002,1.0
1.5666,128.18188,37.964269,6996.6373656000005,0.02,-1.332,180.003,1.0
1.5833,128.18188,37.964225,6996.5200176,0.021,-1.346,180.003,1.0
1.6,128.18188,37.964181,6996.401450400001,0.021,-1.359,180.003,1.0
1.6166,128.18188,37.964137,6996.281968800001,0.021,-1.372,180.003,1.0
1.6333,128.18188,37.964093,6996.161268000001,0.022,-1.386,180.003,1.0
1.65,128.18188,37.964049,6996.0396528,0.022,-1.399,180.003,1.0
1.6666,128.18188,37.964004,6995.9165136,0.023,-1.412,180.003,1.0
1.6833,128.18188,37.96396,6995.7927648,0.023,-1.426,180.003,1.0
1.7,128.18188,37.963916,6995.6674920000005,0.024,-1.439,180.003,1.0
1.7166,128.18188,37.963872,6995.5413048,0.024,-1.453,180.003,1.0
1.7333,128.18188,37.963828,6995.4138984,0.024,-1.466,180.003,1.0
1.75,128.18188,37.963784,6995.285577600001,0.025,-1.48,180.003,1.0
1.7666,128.18188,37.96374,6995.156037600001,0.025,-1.493,180.003,1.0
1.7833,128.18188,37.963696,6995.0252784,0.026,-1.507,180.003,1.0
1.8,128.18188,37.963651,6994.893300000001,0.026,-1.52,180.003,1.0
1.8166,128.18188,37.963607,6994.7604071999995,0.027,-1.534,180.003,1.0
1.8333,128.18188,37.963563,6994.6266000000005,0.027,-1.547,180.003,1.0
1.85,128.18188,37.963519,6994.4912688,0.027,-1.561,180.003,1.0
1.8666,128.18188,37.963475,6994.355023200001,0.028,-1.574,180.004,1.0
1.8833,128.18188,37.963431,6994.217558400001,0.028,-1.588,180.004,1.0
1.9,128.18188,37.963387,6994.079179200001,0.029,-1.601,180.004,1.0
1.9166,128.18188,37.963343,6993.9395808,0.029,-1.615,180.004,1.0
1.9333,128.18188,37.963299,6993.7987632,0.03,-1.629,180.004,1.0
1.95,128.18188,37.963255,6993.6567264000005,0.03,-1.642,180.004,1.0
1.9666,128.18188,37.963211,6993.5137752,0.03,-1.656,180.004,1.0
1.9833,128.18188,37.963167,6993.3696048,0.031,-1.669,180.004,1.0
2.0,128.18188,37.963123,6993.224215200001,0.031,-1.683,180.004,1.0
2.0166,128.18188,37.963079,6993.077911200001,0.032,-1.697,180.004,1.0
2.0333,128.18188,37.963035,6992.930388000001,0.032,-1.71,180.004,1.0
2.05,128.18188,37.962991,6992.7816456,0.033,-1.724,180.004,1.0
2.0666,128.18188,37.962947,6992.6319888,0.033,-1.738,180.004,1.0
2.0833,128.18188,37.962903,6992.4811128,0.034,-1.751,180.004,1.0
2.1,128.18188,37.962859,6992.3290176,0.034,-1.765,180.004,1.0
2.1166,128.18188,37.962815,6992.176008,0.035,-1.779,180.004,1.0
2.1333,128.18188,37.962771,6992.021779200001,0.035,-1.792,180.004,1.0
2.15,128.18188,37.962727,6991.8663312,0.036,-1.806,180.004,1.0
2.1666,128.18188,37.962684,6991.709664000001,0.036,-1.82,180.005,1.0
2.1833,128.18188,37.96264,6991.5520824000005,0.037,-1.834,180.005,1.0
2.2,128.18188,37.962596,6991.393281600001,0.037,-1.847,180.005,1.0
2.2166,128.18188,37.962552,6991.233261599999,0.038,-1.861,180.005,1.0
2.2333,128.18188,37.962508,6991.072022400001,0.038,-1.875,180.005,1.0
2.25,128.18188,37.962464,6990.9098688,0.038,-1.889,180.005,1.0
2.2666,128.18188,37.96242,6990.746496000001,0.039,-1.903,180.005,1.0
2.2833,128.18188,37.962376,6990.5822088,0.039,-1.916,180.005,1.0
2.3,128.18188,37.962333,6990.416397600001,0.04,-1.93,180.005,1.0
2.3166,128.18188,37.962289,6990.249672,0.04,-1.944,180.005,1.0
2.3333,128.18188,37.962245,6990.082032,0.041,-1.958,180.005,1.0
2.35,128.18188,37.962201,6989.912868,0.041,-1.972,180.005,1.0
2.3666,128.18188,37.962157,6989.7427896,0.042,-1.986,180.005,1.0
2.3833,128.18188,37.962113,6989.571492000001,0.042,-1.999,180.005,1.0
2.4,128.18188,37.96207,6989.3989752,0.043,-2.013,180.005,1.0
2.4166,128.18188,37.962026,6989.225544,0.043,-2.027,180.005,1.0
2.4333,128.18188,37.961982,6989.0508936,0.044,-2.041,180.005,1.0
2.45,128.18188,37.961938,6988.875024000001,0.044,-2.055,180.006,1.0
2.4666,128.18188,37.961894,6988.6979352,0.045,-2.069,180.006,1.0
2.4833,128.18188,37.961851,6988.5196272,0.045,-2.083,180.006,1.0
2.5,128.18188,37.961807,6988.3404048,0.046,-2.097,180.006,1.0
2.5166,128.18188,37.961763,6988.159963200001,0.047,-2.111,180.006,1.0
2.5333,128.18188,37.961719,6987.9786072,0.047,-2.125,180.006,1.0
2.55,128.18188,37.961676,6987.7957272,0.048,-2.139,180.006,1.0
2.5666,128.18188,37.961632,6987.6119328,0.048,-2.153,180.006,1.0
2.5833,128.18188,37.961588,6987.4269192,0.049,-2.167,180.006,1.0
2.6,128.18188,37.961545,6987.2409912,0.049,-2.181,180.006,1.0
2.6166,128.18188,37.961501,6987.0535392,0.05,-2.195,180.006,1.0
2.6333,128.18188,37.961457,6986.8651728,0.05,-2.209,180.006,1.0
2.65,128.18188,37.961413,6986.6755872,0.051,-2.223,180.006,1.0
2.6666,128.18188,37.96137,6986.484782400001,0.051,-2.237,180.006,1.0
2.6833,128.18188,37.961326,6986.293063200001,0.052,-2.251,180.006,1.0
2.7,128.18188,37.961282,6986.100124800001,0.052,-2.265,180.006,1.0
2.7166,128.18188,37.961239,6985.9059672,0.053,-2.279,180.007,1.0
2.7333,128.18188,37.961195,6985.7105904,0.053,-2.293,180.007,1.0
2.75,128.18188,37.961151,6985.5139944,0.054,-2.307,180.007,1.0
2.7666,128.18188,37.961108,6985.316484000001,0.054,-2.321,180.007,1.0
2.7833,128.18188,37.961064,6985.1177544,0.055,-2.335,180.007,1.0
2.8,128.18188,37.961021,6984.917805600001,0.056,-2.35,180.007,1.0
2.8166,128.18188,37.960977,6984.7169424,0.056,-2.364,180.007,1.0
2.8333,128.18188,37.960933,6984.5145552,0.057,-2.378,180.007,1.0
2.85,128.18188,37.96089,6984.3112536,0.057,-2.392,180.007,1.0
2.8666,128.18188,37.960846,6984.106732800001,0.058,-2.406,180.007,1.0
2.8833,128.18188,37.960803,6983.9009928000005,0.058,-2.42,180.007,1.0
2.9,128.18188,37.960759,6983.694338400001,0.059,-2.435,180.007,1.0
2.9166,128.18188,37.960715,6983.48616,0.059,-2.449,180.007,1.0
2.9333,128.18188,37.960672,6983.2770672,0.06,-2.463,180.007,1.0
2.95,128.18188,37.960628,6983.0667552,0.061,-2.477,180.007,1.0
2.9666,128.18188,37.960585,6982.855528800001,0.061,-2.491,180.007,1.0
2.9833,128.18188,37.960541,6982.642778400001,0.062,-2.506,180.008,1.0
3.0,128.181879,37.960498,6982.4291136,0.062,-2.52,180.008,1.0
3.0166,128.181879,37.960454,6982.2142296,0.063,-2.534,180.008,1.0
3.0333,128.181879,37.96041,6981.9981264,0.063,-2.548,180.008,1.0
3.05,128.181879,37.960367,6981.780804,0.064,-2.563,180.008,1.0
3.0666,128.181879,37.960323,6981.5622624,0.065,-2.577,180.008,1.0
3.0833,128.181879,37.96028,6981.342806400001,0.065,-2.591,180.008,1.0
3.1,128.181879,37.960236,6981.1221312,0.066,-2.606,180.008,1.0
3.1166,128.181879,37.960193,6980.9002368,0.066,-2.62,180.008,1.0
3.1333,128.181879,37.960149,6980.6771232,0.067,-2.634,180.008,1.0
3.15,128.181879,37.960106,6980.4530952000005,0.067,-2.649,180.008,1.0
3.1666,128.181879,37.960063,6980.2275432,0.068,-2.663,180.008,1.0
3.1833,128.181879,37.960019,6980.0010768,0.069,-2.677,180.008,1.0
3.2,128.181879,37.959976,6979.7733912,0.069,-2.692,180.008,1.0
3.2166,128.181879,37.959932,6979.5444864,0.07,-2.706,180.008,1.0
3.2333,128.181879,37.959889,6979.3146672,0.07,-2.72,180.008,1.0
3.25,128.181879,37.959845,6979.083324000001,0.071,-2.735,180.009,1.0
3.2666,128.181879,37.959802,6978.8510664,0.072,-2.749,180.009,1.0
3.2833,128.181879,37.959758,6978.6175896,0.072,-2.764,180.009,1.0
3.3,128.181879,37.959715,6978.3828936,0.073,-2.778,180.009,1.0
3.3166,128.181879,37.959672,6978.146978400001,0.073,-2.792,180.009,1.0
3.3333,128.181879,37.959628,6977.9101488,0.074,-2.807,180.009,1.0
3.35,128.181879,37.959585,6977.6717952,0.075,-2.821,180.009,1.0
3.3666,128.181879,37.959541,6977.432527200001,0.075,-2.836,180.009,1.0
3.3833,128.181879,37.959498,6977.19204,0.076,-2.85,180.009,1.0
3.4,128.181879,37.959455,6976.950333600001,0.076,-2.865,180.009,1.0
3.4166,128.181879,37.959411,6976.707408,0.077,-2.879,180.009,1.0
3.4333,128.181879,37.959368,6976.4632632,0.078,-2.894,180.009,1.0
3.45,128.181879,37.959324,6976.218204,0.078,-2.908,180.009,1.0
3.4666,128.181879,37.959281,6975.9719256,0.079,-2.923,180.009,1.0
3.4833,128.181879,37.959238,6975.724123200001,0.08,-2.937,180.009,1.0
3.5,128.181879,37.959194,6975.475406400001,0.08,-2.952,180.01,1.0
3.5166,128.181879,37.959151,6975.2257752,0.081,-2.966,180.01,1.0
3.5333,128.181879,37.959108,6974.974620000001,0.081,-2.981,180.01,1.0
3.55,128.181879,37.959064,6974.7222456,0.082,-2.995,180.01,1.0
3.5666,128.181879,37.959021,6974.468956800001,0.083,-3.01,180.01,1.0
3.5833,128.181879,37.958978,6974.2144488,0.083,-3.024,180.01,1.0
3.6,128.181879,37.958934,6973.9587216,0.084,-3.039,180.01,1.0
3.6166,128.181879,37.958891,6973.7017752,0.085,-3.054,180.01,1.0
3.6333,128.181879,37.958848,6973.443609600001,0.085,-3.068,180.01,1.0
3.65,128.181879,37.958805,6973.184224800001,0.086,-3.083,180.01,1.0
3.6666,128.181879,37.958761,6972.9236208,0.087,-3.097,180.01,1.0
3.6833,128.181879,37.958718,6972.6621024,0.087,-3.112,180.01,1.0
3.7,128.181879,37.958675,6972.3993648000005,0.088,-3.127,180.01,1.0
3.7166,128.181879,37.958631,6972.135408,0.088,-3.141,180.01,1.0
3.7333,128.181879,37.958588,6971.870232,0.089,-3.156,180.01,1.0
3.75,128.181879,37.958545,6971.603836800001,0.09,-3.171,180.011,1.0
3.7666,128.181879,37.958502,6971.3362224,0.09,-3.185,180.011,1.0
3.7833,128.181879,37.958458,6971.0673888,0.091,-3.2,180.011,1.0
3.8,128.181879,37.958415,6970.7976408,0.092,-3.215,180.011,1.0
3.8166,128.181879,37.958372,6970.5263688000005,0.092,-3.229,180.011,1.0
3.8333,128.181879,37.958329,6970.254182400001,0.093,-3.244,180.011,1.0
3.85,128.181879,37.958285,6969.9807768,0.094,-3.259,180.011,1.0
3.8666,128.181879,37.958242,6969.706152000001,0.094,-3.274,180.011,1.0
3.8833,128.181879,37.958199,6969.430308,0.095,-3.288,180.011,1.0
3.9,128.181879,37.958156,6969.1532448,0.096,-3.303,180.011,1.0
3.9166,128.181879,37.958113,6968.8749624,0.096,-3.318,180.011,1.0
3.9333,128.181879,37.958069,6968.595765600001,0.097,-3.333,180.011,1.0
3.95,128.181879,37.958026,6968.315044800001,0.098,-3.347,180.011,1.0
3.9666,128.181879,37.957983,6968.033409600001,0.098,-3.362,180.011,1.0
3.9833,128.181879,37.95794,6967.7502504,0.099,-3.377,180.011,1.0
4.0,128.181878,37.957897,6967.4661768000005,0.1,-3.392,180.012,1.0
4.0166,128.181878,37.957854,6967.180884000001,0.1,-3.406,180.012,1.0
4.0333,128.181878,37.95781,6966.894372,0.101,-3.421,180.012,1.0
4.05,128.181878,37.957767,6966.606640800001,0.102,-3.436,180.012,1.0
4.0666,128.181878,37.957724,6966.3179952,0.102,-3.451,180.012,1.0
4.0833,128.181878,37.957681,6966.0278256,0.103,-3.466,180.012,1.0
4.1,128.181878,37.957638,6965.736436800001,0.104,-3.481,180.012,1.0
4.1166,128.181878,37.957595,6965.444133600001,0.105,-3.495,180.012,1.0
4.1333,128.181878,37.957552,6965.150306400001,0.105,-3.51,180.012,1.0
4.15,128.181878,37.957509,6964.855564800001,0.106,-3.525,180.012,1.0
4.1666,128.181878,37.957465,6964.559604,0.107,-3.54,180.012,1.0
4.1833,128.181878,37.957422,6964.2624240000005,0.107,-3.555,180.012,1.0
4.2,128.181878,37.957379,6963.963720000001,0.108,-3.57,180.012,1.0
4.2166,128.181878,37.957336,6963.664406400001,0.109,-3.585,180.012,1.0
4.2333,128.181878,37.957293,6963.3635688,0.109,-3.6,180.012,1.0
4.25,128.181878,37.95725,6963.061512,0.11,-3.614,180.013,1.0
4.2666,128.181878,37.957207,6962.758236000001,0.111,-3.629,180.013,1.0
4.2833,128.181878,37.957164,6962.453740800001,0.112,-3.644,180.013,1.0
4.3,128.181878,37.957121,6962.1483312,0.112,-3.659,180.013,1.0
4.3166,128.181878,37.957078,6961.841397600001,0.113,-3.674,180.013,1.0
4.3333,128.181878,37.957035,6961.533549600001,0.114,-3.689,180.013,1.0
4.35,128.181878,37.956992,6961.2241776,0.114,-3.704,180.013,1.0
4.3666,128.181878,37.956949,6960.913891200001,0.115,-3.719,180.013,1.0
4.3833,128.181878,37.956905,6960.6023856,0.116,-3.734,180.013,1.0
4.4,128.181878,37.956862,6960.289660800001,0.117,-3.749,180.013,1.0
4.4166,128.181878,37.956819,6959.9757168,0.117,-3.764,180.013,1.0
4.4333,128.181878,37.956776,6959.6602488,0.118,-3.779,180.013,1.0
4.45,128.181878,37.956733,6959.3438664,0.119,-3.794,180.013,1.0
4.4666,128.181878,37.95669,6959.026569600001,0.119,-3.809,180.013,1.0
4.4833,128.181878,37.956647,6958.7077488,0.12,-3.824,180.014,1.0
4.5,128.181878,37.956604,6958.3877088,0.121,-3.839,180.014,1.0
4.5166,128.181878,37.956561,6958.0664496,0.122,-3.854,180.014,1.0
4.5333,128.181878,37.956518,6957.7439712,0.122,-3.869,180.014,1.0
4.55,128.181878,37.956475,6957.4205784000005,0.123,-3.884,180.014,1.0
4.5666,128.181878,37.956432,6957.095661599999,0.124,-3.899,180.014,1.0
4.5833,128.181878,37.956389,6956.7695256,0.125,-3.914,180.014,1.0
4.6,128.181878,37.956346,6956.4424751999995,0.125,-3.929,180.014,1.0
4.6166,128.181878,37.956303,6956.113900800001,0.126,-3.944,180.014,1.0
4.6333,128.181878,37.95626,6955.784412,0.127,-3.96,180.014,1.0
4.65,128.181878,37.956217,6955.4537040000005,0.128,-3.975,180.014,1.0
4.6666,128.181878,37.956175,6955.121472,0.128,-3.99,180.014,1.0
4.6833,128.181878,37.956132,6954.7883256,0.129,-4.005,180.014,1.0
4.7,128.181878,37.956089,6954.453960000001,0.13,-4.02,180.014,1.0
4.7166,128.181878,37.956046,6954.118070400001,0.131,-4.035,180.015,1.0
4.7333,128.181878,37.956003,6953.7812664,0.131,-4.05,180.015,1.0
4.75,128.181878,37.95596,6953.443243199999,0.132,-4.065,180.015,1.0
4.7666,128.181878,37.955917,6953.104000800001,0.133,-4.081,180.015,1.0
4.7833,128.181878,37.955874,6952.7635392,0.134,-4.096,180.015,1.0
4.8,128.181877,37.955831,6952.4218584,0.135,-4.111,180.015,1.0
4.8166,128.181877,37.955788,6952.0789584,0.135,-4.126,180.015,1.0
4.8333,128.181877,37.955745,6951.7348392,0.136,-4.141,180.015,1.0
4.85,128.181877,37.955702,6951.389500800001,0.137,-4.156,180.015,1.0
4.8666,128.181877,37.955659,6951.0429432,0.138,-4.172,180.015,1.0
4.8833,128.181877,37.955617,6950.6951664,0.138,-4.187,180.015,1.0
4.9,128.181877,37.955574,6950.346170400001,0.139,-4.202,180.015,1.0
4.9166,128.181877,37.955531,6949.995955200001,0.14,-4.217,180.015,1.0
4.9333,128.181877,37.955488,6949.6445208,0.141,-4.232,180.015,1.0
4.95,128.181877,37.955445,6949.2918672000005,0.142,-4.248,180.016,1.0
4.9666,128.181877,37.955402,6948.9379944,0.142,-4.263,180.016,1.0
4.9833,128.181877,37.955359,6948.5829023999995,0.143,-4.278,180.016,1.0
5.0,128.181877,37.955316,6948.2265912,0.144,-4.293,180.016,1.0
5.0166,128.181877,37.955274,6947.869060800001,0.145,-4.309,180.016,1.0
5.0333,128.181877,37.955231,6947.510311200001,0.146,-4.324,180.016,1.0
5.05,128.181877,37.955188,6947.150647200001,0.146,-4.339,180.016,1.0
5.0666,128.181877,37.955145,6946.7894592,0.147,-4.354,180.016,1.0
5.0833,128.181877,37.955102,6946.427052000001,0.148,-4.37,180.016,1.0
5.1,128.181877,37.955059,6946.0634256,0.149,-4.385,180.016,1.0
5.1166,128.181877,37.955017,6945.69858,0.15,-4.4,180.016,1.0
5.1333,128.181877,37.954974,6945.332515200001,0.15,-4.415,180.016,1.0
5.15,128.181877,37.954931,6944.965536000001,0.151,-4.431,180.016,1.0
5.1666,128.181877,37.954888,6944.5970328,0.152,-4.446,180.016,1.0
5.1833,128.181877,37.954845,6944.2273104000005,0.153,-4.461,180.017,1.0
5.2,128.181877,37.954802,6943.8563688,0.154,-4.476,180.017,1.0
5.2166,128.181877,37.95476,6943.484208,0.155,-4.492,180.017,1.0
5.2333,128.181877,37.954717,6943.110828000001,0.155,-4.507,180.017,1.0
5.25,128.181877,37.954674,6942.736533600001,0.156,-4.522,180.017,1.0
5.2666,128.181877,37.954631,6942.3607152,0.157,-4.537,180.017,1.0
5.2833,128.181877,37.954589,6941.9836776,0.158,-4.553,180.017,1.0
5.3,128.181877,37.954546,6941.6054208,0.159,-4.568,180.017,1.0
5.3166,128.181877,37.954503,6941.2259448,0.16,-4.583,180.017,1.0
5.3333,128.181877,37.95446,6940.8452496,0.16,-4.598,180.017,1.0
5.35,128.181877,37.954417,6940.4633352,0.161,-4.614,180.017,1.0
5.3666,128.181877,37.954375,6940.080201600001,0.162,-4.629,180.017,1.0
5.3833,128.181877,37.954332,6939.6958488,0.163,-4.644,180.017,1.0
5.4,128.181877,37.954289,6939.310581600001,0.164,-4.659,180.018,1.0
5.4166,128.181877,37.954246,6938.9237904,0.165,-4.675,180.018,1.0
5.4333,128.181877,37.954204,6938.53578,0.165,-4.69,180.018,1.0
5.45,128.181877,37.954161,6938.146550400001,0.166,-4.705,180.018,1.0
5.4666,128.181876,37.954118,6937.756101600001,0.167,-4.72,180.018,1.0
5.4833,128.181876,37.954075,6937.364433600001,0.168,-4.736,180.018,1.0
5.5,128.181876,37.954033,6936.971546400001,0.169,-4.751,180.018,1.0
5.5166,128.181876,37.95399,6936.57744,0.17,-4.766,180.018,1.0
5.5333,128.181876,37.953947,6936.1821144000005,0.171,-4.781,180.018,1.0
5.55,128.181876,37.953905,6935.785569600001,0.172,-4.797,180.018,1.0
5.5666,128.181876,37.953862,6935.3878056,0.172,-4.812,180.018,1.0
5.5833,128.181876,37.953819,6934.9885176,0.173,-4.827,180.018,1.0
5.6,128.181876,37.953777,6934.588315200001,0.174,-4.842,180.018,1.0
5.6166,128.181876,37.953734,6934.1868936,0.175,-4.858,180.018,1.0
5.6333,128.181876,37.953691,6933.7842528,0.176,-4.873,180.019,1.0
5.65,128.181876,37.953648,6933.380392800001,0.177,-4.888,180.019,1.0
5.6666,128.181876,37.953606,6932.9753136,0.178,-4.903,180.019,1.0
5.6833,128.181876,37.953563,6932.569015200001,0.179,-4.919,180.019,1.0
5.7,128.181876,37.95352,6932.161192800001,0.179,-4.934,180.019,1.0
5.7166,128.181876,37.953478,6931.752456000001,0.18,-4.949,180.019,1.0
5.7333,128.181876,37.953435,6931.342500000001,0.181,-4.965,180.019,1.0
5.75,128.181876,37.953392,6930.931324800001,0.182,-4.98,180.019,1.0
5.7666,128.181876,37.95335,6930.5186256,0.183,-4.995,180.019,1.0
5.7833,128.181876,37.953307,6930.105012,0.184,-5.01,180.019,1.0
5.8,128.181876,37.953265,6929.690179200001,0.185,-5.026,180.019,1.0
5.8166,128.181876,37.953222,6929.2738224,0.186,-5.041,180.019,1.0
5.8333,128.181876,37.953179,6928.8565512000005,0.187,-5.056,180.019,1.0
5.85,128.181876,37.953137,6928.437756,0.188,-5.072,180.02,1.0
5.8666,128.181876,37.953094,6928.0180464000005,0.189,-5.087,180.02,1.0
5.8833,128.181876,37.953051,6927.5971176,0.189,-5.102,180.02,1.0
5.9,128.181876,37.953009,6927.174664800001,0.19,-5.118,180.02,1.0
5.9166,128.181876,37.952966,6926.750992800001,0.191,-5.133,180.02,1.0
5.9333,128.181876,37.952924,6926.3264064,0.192,-5.148,180.02,1.0
5.95,128.181876,37.952881,6925.900296000001,0.193,-5.163,180.02,1.0
5.9666,128.181876,37.952838,6925.4732711999995,0.194,-5.179,180.02,1.0
5.9833,128.181876,37.952796,6925.0447224,0.195,-5.194,180.02,1.0
6.0,128.181876,37.952753,6924.6149544,0.196,-5.209,180.02,1.0
6.0166,128.181876,37.952711,6924.184272,0.197,-5.225,180.02,1.0
6.0333,128.181876,37.952668,6923.752065600001,0.198,-5.24,180.02,1.0
6.05,128.181875,37.952625,6923.31864,0.199,-5.255,180.02,1.0
6.0666,128.181875,37.952583,6922.884300000001,0.2,-5.271,180.021,1.0
6.0833,128.181875,37.95254,6922.448436000001,0.201,-5.286,180.021,1.0
6.1,128.181875,37.952498,6922.0113528,0.202,-5.301,180.021,1.0
6.1166,128.181875,37.952455,6921.5730504,0.203,-5.317,180.021,1.0
6.1333,128.181875,37.952413,6921.133528800001,0.204,-5.332,180.021,1.0
6.15,128.181875,37.95237,6920.692788000001,0.205,-5.347,180.021,1.0
6.1666,128.181875,37.952327,6920.250828,0.205,-5.363,180.021,1.0
6.1833,128.181875,37.952285,6919.8076488,0.206,-5.378,180.021,1.0
6.2,128.181875,37.952242,6919.363250400001,0.207,-5.393,180.021,1.0
6.2166,128.181875,37.9522,6918.9176328,0.208,-5.409,180.021,1.0
6.2333,128.181875,37.952157,6918.4707960000005,0.209,-5.424,180.021,1.0
6.25,128.181875,37.952115,6918.02274,0.21,-5.439,180.021,1.0
6.2666,128.181875,37.952072,6917.573464800001,0.211,-5.455,180.021,1.0
6.2833,128.181875,37.95203,6917.122970400001,0.212,-5.47,180.022,1.0
6.3,128.181875,37.951987,6916.671256800001,0.213,-5.486,180.022,1.0
6.3166,128.181875,37.951945,6916.2180192000005,0.214,-5.501,180.022,1.0
6.3333,128.181875,37.951902,6915.7638672,0.215,-5.516,180.022,1.0
6.35,128.181875,37.95186,6915.308496000001,0.216,-5.532,180.022,1.0
6.3666,128.181875,37.951817,6914.851600800001,0.217,-5.547,180.022,1.0
6.3833,128.181875,37.951775,6914.3937912,0.218,-5.562,180.022,1.0
6.4,128.181875,37.951732,6913.9347624,0.219,-5.578,180.022,1.0
6.4166,128.181875,37.95169,6913.474209600001,0.22,-5.593,180.022,1.0
6.4333,128.181875,37.951647,6913.012742400001,0.221,-5.609,180.022,1.0
6.45,128.181875,37.951605,6912.549751200001,0.222,-5.624,180.022,1.0
6.4666,128.181875,37.951562,6912.0858456000005,0.223,-5.639,180.022,1.0
6.4833,128.181875,37.95152,6911.620416,0.224,-5.655,180.023,1.0
6.5,128.181875,37.951477,6911.1537672,0.225,-5.67,180.023,1.0
6.5166,128.181875,37.951435,6910.6862040000005,0.226,-5.686,180.023,1.0
6.5333,128.181875,37.951392,6910.2171168,0.227,-5.701,180.023,1.0
6.55,128.181875,37.95135,6909.746810400001,0.228,-5.716,180.023,1.0
6.5666,128.181875,37.951308,6909.2752848,0.229,-5.732,180.023,1.0
6.5833,128.181874,37.951265,6908.8028448000005,0.23,-5.747,180.023,1.0
6.6,128.181874,37.951223,6908.3288808,0.231,-5.763,180.023,1.0
6.6166,128.181874,37.95118,6907.8536976000005,0.232,-5.778,180.023,1.0
6.6333,128.181874,37.951138,6907.3772952,0.234,-5.793,180.023,1.0
6.65,128.181874,37.951095,6906.899673600001,0.235,-5.809,180.023,1.0
6.6666,128.181874,37.951053,6906.4208328,0.236,-5.824,180.023,1.0
6.6833,128.181874,37.951011,6905.940772800001,0.237,-5.84,180.023,1.0
6.7,128.181874,37.950968,6905.4594936,0.238,-5.855,180.024,1.0
6.7166,128.181874,37.950926,6904.976995200001,0.239,-5.871,180.024,1.0
6.7333,128.181874,37.950883,6904.4932776000005,0.24,-5.886,180.024,1.0
6.75,128.181874,37.950841,6904.008036,0.241,-5.901,180.024,1.0
6.7666,128.181874,37.950799,6903.52188,0.242,-5.917,180.024,1.0
6.7833,128.181874,37.950756,6903.034504800001,0.243,-5.932,180.024,1.0
6.8,128.181874,37.950714,6902.545910400001,0.244,-5.948,180.024,1.0
6.8166,128.181874,37.950671,6902.055792000001,0.245,-5.963,180.024,1.0
6.8333,128.181874,37.950629,6901.5647592000005,0.246,-5.979,180.024,1.0
6.85,128.181874,37.950587,6901.0722024,0.247,-5.994,180.024,1.0
6.8666,128.181874,37.950544,6900.5787312,0.248,-6.009,180.024,1.0
6.8833,128.181874,37.950502,6900.0837360000005,0.249,-6.025,180.024,1.0
6.9,128.181874,37.95046,6899.5878264,0.251,-6.04,180.025,1.0
6.9166,128.181874,37.950417,6899.090392800001,0.252,-6.056,180.025,1.0
6.9333,128.181874,37.950375,6898.592044800001,0.253,-6.071,180.025,1.0
6.95,128.181874,37.950333,6898.0921728,0.254,-6.087,180.025,1.0
6.9666,128.181874,37.95029,6897.5910816000005,0.255,-6.102,180.025,1.0
6.9833,128.181874,37.950248,6897.0887712,0.256,-6.118,180.025,1.0
7.0,128.181874,37.950205,6896.585546400001,0.257,-6.133,180.025,1.0
7.0166,128.181874,37.950163,6896.080797600001,0.258,-6.149,180.025,1.0
7.0333,128.181874,37.950121,6895.5748296,0.259,-6.164,180.025,1.0
7.05,128.181873,37.950078,6895.0676424,0.26,-6.18,180.025,1.0
7.0666,128.181873,37.950036,6894.559236,0.262,-6.195,180.025,1.0
7.0833,128.181873,37.949994,6894.0496104,0.263,-6.211,180.025,1.0
7.1,128.181873,37.949952,6893.538765600001,0.264,-6.226,180.026,1.0
7.1166,128.181873,37.949909,6893.026701600001,0.265,-6.241,180.026,1.0
7.1333,128.181873,37.949867,6892.513418400001,0.266,-6.257,180.026,1.0
7.15,128.181873,37.949825,6891.998611200001,0.267,-6.272,180.026,1.0
7.1666,128.181873,37.949782,6891.4828896,0.268,-6.288,180.026,1.0
7.1833,128.181873,37.94974,6890.9659488,0.269,-6.303,180.026,1.0
7.2,128.181873,37.949698,6890.447484000001,0.271,-6.319,180.026,1.0
7.2166,128.181873,37.949655,6889.9281048,0.272,-6.334,180.026,1.0
7.2333,128.181873,37.949613,6889.407506400001,0.273,-6.35,180.026,1.0
7.25,128.181873,37.949571,6888.885384000001,0.274,-6.365,180.026,1.0
7.2666,128.181873,37.949529,6888.362347200001,0.275,-6.381,180.026,1.0
7.2833,128.181873,37.949486,6887.8377864,0.276,-6.396,180.026,1.0
7.3,128.181873,37.949444,6887.312311200001,0.277,-6.412,180.027,1.0
7.3166,128.181873,37.949402,6886.785312,0.279,-6.427,180.027,1.0
7.3333,128.181873,37.94936,6886.2570936,0.28,-6.443,180.027,1.0
7.35,128.181873,37.949317,6885.727656000001,0.281,-6.458,180.027,1.0
7.3666,128.181873,37.949275,6885.197304,0.282,-6.474,180.027,1.0
7.3833,128.181873,37.949233,6884.665428,0.283,-6.49,180.027,1.0
7.4,128.181873,37.949191,6884.132332800001,0.284,-6.505,180.027,1.0
7.4166,128.181873,37.949148,6883.5980184,0.286,-6.521,180.027,1.0
7.4333,128.181873,37.949106,6883.0624848,0.287,-6.536,180.027,1.0
7.45,128.181873,37.949064,6882.525732,0.288,-6.552,180.027,1.0
7.4666,128.181873,37.949022,6881.987760000001,0.289,-6.567,180.027,1.0
7.4833,128.181872,37.948979,6881.4485688,0.29,-6.583,180.028,1.0
7.5,128.181872,37.948937,6880.9081584000005,0.292,-6.598,180.028,1.0
7.5166,128.181872,37.948895,6880.366224,0.293,-6.614,180.028,1.0
7.5333,128.181872,37.948853,6879.8233752,0.294,-6.629,180.028,1.0
7.55,128.181872,37.948811,6879.2793071999995,0.295,-6.645,180.028,1.0
7.5666,128.181872,37.948768,6878.734020000001,0.296,-6.66,180.028,1.0
7.5833,128.181872,37.948726,6878.1872088,0.298,-6.676,180.028,1.0
7.6,128.181872,37.948684,6877.6394832000005,0.299,-6.691,180.028,1.0
7.6166,128.181872,37.948642,6877.090233600001,0.3,-6.707,180.028,1.0
7.6333,128.181872,37.9486,6876.540069600001,0.301,-6.723,180.028,1.0
7.65,128.181872,37.948557,6875.9883816,0.302,-6.738,180.028,1.0
7.6666,128.181872,37.948515,6875.435474400001,0.304,-6.754,180.028,1.0
7.6833,128.181872,37.948473,6874.8816528,0.305,-6.769,180.029,1.0
7.7,128.181872,37.948431,6874.3263072,0.306,-6.785,180.029,1.0
7.7166,128.181872,37.948389,6873.769742400001,0.307,-6.8,180.029,1.0
7.7333,128.181872,37.948347,6873.2119584,0.309,-6.816,180.029,1.0
7.75,128.181872,37.948304,6872.6529552,0.31,-6.831,180.029,1.0
7.7666,128.181872,37.948262,6872.092732800001,0.311,-6.847,180.029,1.0
7.7833,128.181872,37.94822,6871.531596000001,0.312,-6.863,180.029,1.0
7.8,128.181872,37.948178,6870.9686304,0.314,-6.878,180.029,1.0
7.8166,128.181872,37.948136,6870.4047504,0.315,-6.894,180.029,1.0
7.8333,128.181872,37.948094,6869.839651200001,0.316,-6.909,180.029,1.0
7.85,128.181872,37.948052,6869.2733328,0.317,-6.925,180.029,1.0
7.8666,128.181872,37.948009,6868.7057952000005,0.319,-6.941,180.03,1.0
7.8833,128.181872,37.947967,6868.137038400001,0.32,-6.956,180.03,1.0
7.9,128.181871,37.947925,6867.5667576,0.321,-6.972,180.03,1.0
7.9166,128.181871,37.947883,6866.9955624,0.322,-6.987,180.03,1.0
7.9333,128.181871,37.947841,6866.4228432,0.324,-7.003,180.03,1.0
7.95,128.181871,37.947799,6865.849209600001,0.325,-7.018,180.03,1.0
7.9666,128.181871,37.947757,6865.274052000001,0.326,-7.034,180.03,1.0
7.9833,128.181871,37.947715,6864.69798,0.328,-7.05,180.03,1.0
8.0,128.181871,37.947673,6864.120384000001,0.329,-7.065,180.03,1.0
8.0166,128.181871,37.94763,6863.5415688,0.33,-7.081,180.03,1.0
8.0333,128.181871,37.947588,6862.9618392,0.332,-7.096,180.03,1.0
8.05,128.181871,37.947546,6862.3805856,0.333,-7.112,180.031,1.0
8.0666,128.181871,37.947504,6861.7981128,0.334,-7.128,180.031,1.0
8.0833,128.181871,37.947462,6861.2144208,0.335,-7.143,180.031,1.0
8.1,128.181871,37.94742,6860.6295096,0.337,-7.159,180.031,1.0
8.1166,128.181871,37.947378,6860.043379200001,0.338,-7.174,180.031,1.0
8.1333,128.181871,37.947336,6859.4560296,0.339,-7.19,180.031,1.0
8.15,128.181871,37.947294,6858.867460800001,0.341,-7.206,180.031,1.0
8.1666,128.181871,37.947252,6858.277672800001,0.342,-7.221,180.031,1.0
8.1833,128.181871,37.94721,6857.686665600001,0.343,-7.237,180.031,1.0
8.2,128.181871,37.947168,6857.0941344,0.345,-7.252,180.031,1.0
8.2166,128.181871,37.947126,6856.5006888,0.346,-7.268,180.031,1.0
8.2333,128.181871,37.947084,6855.906024000001,0.347,-7.284,180.032,1.0
8.25,128.181871,37.947042,6855.3098352,0.349,-7.299,180.032,1.0
8.2666,128.181871,37.947,6854.712732,0.35,-7.315,180.032,1.0
8.2833,128.18187,37.946957,6854.114104800001,0.351,-7.331,180.032,1.0
8.3,128.18187,37.946915,6853.5145632,0.353,-7.346,180.032,1.0
8.3166,128.18187,37.946873,6852.9134976000005,0.354,-7.362,180.032,1.0
8.3333,128.18187,37.946831,6852.3115176,0.356,-7.377,180.032,1.0
8.35,128.18187,37.946789,6851.7080136,0.357,-7.393,180.032,1.0
8.3666,128.18187,37.946747,6851.1032904,0.358,-7.409,180.032,1.0
8.3833,128.18187,37.946705,6850.497348,0.36,-7.424,180.032,1.0
8.4,128.18187,37.946663,6849.8901864,0.361,-7.44,180.032,1.0
8.4166,128.18187,37.946621,6849.281805600001,0.362,-7.456,180.033,1.0
8.4333,128.18187,37.946579,6848.672205600001,0.364,-7.471,180.033,1.0
8.45,128.18187,37.946537,6848.061386400001,0.365,-7.487,180.033,1.0
8.4666,128.18187,37.946495,6847.449348,0.367,-7.502,180.033,1.0
8.4833,128.18187,37.946453,6846.8360904,0.368,-7.518,180.033,1.0
8.5,128.18187,37.946411,6846.221613600001,0.369,-7.534,180.033,1.0
8.5166,128.18187,37.946369,6845.6059176,0.371,-7.549,180.033,1.0
8.5333,128.18187,37.946327,6844.988697600001,0.372,-7.565,180.033,1.0
8.55,128.18187,37.946285,6844.3705632,0.374,-7.581,180.033,1.0
8.5666,128.18187,37.946243,6843.7512096,0.375,-7.596,180.033,1.0
8.5833,128.18187,37.946202,6843.130332000001,0.377,-7.612,180.034,1.0
8.6,128.18187,37.94616,6842.50854,0.378,-7.628,180.034,1.0
8.6166,128.18187,37.946118,6841.885224000001,0.379,-7.643,180.034,1.0
8.6333,128.181869,37.946076,6841.2606888,0.381,-7.659,180.034,1.0
8.65,128.181869,37.946034,6840.6352392,0.382,-7.675,180.034,1.0
8.6666,128.181869,37.945992,6840.0082656,0.384,-7.69,180.034,1.0
8.6833,128.181869,37.94595,6839.380072800001,0.385,-7.706,180.034,1.0
8.7,128.181869,37.945908,6838.7506608,0.387,-7.722,180.034,1.0
8.7166,128.181869,37.945866,6838.1200296,0.388,-7.737,180.034,1.0
8.7333,128.181869,37.945824,6837.488179200001,0.39,-7.753,180.034,1.0
8.75,128.181869,37.945782,6836.8551096,0.391,-7.769,180.034,1.0
8.7666,128.181869,37.94574,6836.2208208,0.392,-7.784,180.035,1.0
8.7833,128.181869,37.945698,6835.5853128,0.394,-7.8,180.035,1.0
8.8,128.181869,37.945656,6834.9485856,0.395,-7.816,180.035,1.0
8.8166,128.181869,37.945614,6834.3106392,0.397,-7.831,180.035,1.0
8.8333,128.181869,37.945572,6833.6714736,0.398,-7.847,180.035,1.0
8.85,128.181869,37.945531,6833.0307840000005,0.4,-7.863,180.035,1.0
8.8666,128.181869,37.945489,6832.38918,0.401,-7.878,180.035,1.0
8.8833,128.181869,37.945447,6831.746052,0.403,-7.894,180.035,1.0
8.9,128.181869,37.945405,6831.1020096,0.404,-7.91,180.035,1.0
8.9166,128.181869,37.945363,6830.4564432,0.406,-7.925,180.035,1.0
8.9333,128.181869,37.945321,6829.8099624,0.407,-7.941,180.036,1.0
8.95,128.181869,37.945279,6829.1619576,0.409,-7.957,180.036,1.0
8.9666,128.181868,37.945237,6828.5127336000005,0.41,-7.972,180.036,1.0
8.9833,128.181868,37.945195,6827.8625952,0.412,-7.988,180.036,1.0
9.0,128.181868,37.945154,6827.210932800001,0.413,-8.004,180.036,1.0
9.0166,128.181868,37.945112,6826.558051200001,0.415,-8.019,180.036,1.0
9.0333,128.181868,37.94507,6825.9039504,0.417,-8.035,180.036,1.0
9.05,128.181868,37.945028,6825.2486304,0.418,-8.051,180.036,1.0
9.0666,128.181868,37.944986,6824.5920912,0.42,-8.066,180.036,1.0
9.0833,128.181868,37.944944,6823.9343328,0.421,-8.082,180.036,1.0
9.1,128.181868,37.944902,6823.2753552,0.423,-8.098,180.037,1.0
9.1166,128.181868,37.944861,6822.6151584,0.424,-8.114,180.037,1.0
9.1333,128.181868,37.944819,6821.953437600001,0.426,-8.129,180.037,1.0
9.15,128.181868,37.944777,6821.2908024,0.427,-8.145,180.037,1.0
9.1666,128.181868,37.944735,6820.626948,0.429,-8.161,180.037,1.0
9.1833,128.181868,37.944693,6819.961569600001,0.431,-8.176,180.037,1.0
9.2,128.181868,37.944651,6819.2952768000005,0.432,-8.192,180.037,1.0
9.2166,128.181868,37.94461,6818.627460000001,0.434,-8.208,180.037,1.0
9.2333,128.181868,37.944568,6817.958728800001,0.435,-8.223,180.037,1.0
9.25,128.181868,37.944526,6817.2884736000005,0.437,-8.239,180.037,1.0
9.2666,128.181868,37.944484,6816.6169992000005,0.438,-8.255,180.038,1.0
9.2833,128.181868,37.944442,6815.944305600001,0.44,-8.271,180.038,1.0
9.3,128.181867,37.9444,6815.270697600001,0.442,-8.286,180.038,1.0
9.3166,128.181867,37.944359,6814.595565600001,0.443,-8.302,180.038,1.0
9.3333,128.181867,37.944317,6813.919214400001,0.445,-8.318,180.038,1.0
9.35,128.181867,37.944275,6813.241644,0.446,-8.333,180.038,1.0
9.3666,128.181867,37.944233,6812.5628544,0.448,-8.349,180.038,1.0
9.3833,128.181867,37.944191,6811.8828456,0.45,-8.365,180.038,1.0
9.4,128.181867,37.94415,6811.201617600001,0.451,-8.38,180.038,1.0
9.4166,128.181867,37.944108,6810.518865600001,0.453,-8.396,180.038,1.0
9.4333,128.181867,37.944066,6809.8351992,0.455,-8.412,180.039,1.0
9.45,128.181867,37.944024,6809.1503136,0.456,-8.428,180.039,1.0
9.4666,128.181867,37.943983,6808.4642088,0.458,-8.443,180.039,1.0
9.4833,128.181867,37.943941,6807.77658,0.46,-8.459,180.039,1.0
9.5,128.181867,37.943899,6807.088036800001,0.461,-8.475,180.039,1.0
9.5166,128.181867,37.943857,6806.397969600001,0.463,-8.49,180.039,1.0
9.5333,128.181867,37.943815,6805.706988000001,0.465,-8.506,180.039,1.0
9.55,128.181867,37.943774,6805.014482400001,0.466,-8.522,180.039,1.0
9.5666,128.181867,37.943732,6804.3207576,0.468,-8.538,180.039,1.0
9.5833,128.181867,37.94369,6803.6261184,0.47,-8.553,180.04,1.0
9.6,128.181866,37.943648,6802.9299552,0.471,-8.569,180.04,1.0
9.6166,128.181866,37.943607,6802.2325728000005,0.473,-8.585,180.04,1.0
9.6333,128.181866,37.943565,6801.5339711999995,0.475,-8.601,180.04,1.0
9.65,128.181866,37.943523,6800.8341504,0.476,-8.616,180.04,1.0
9.6666,128.181866,37.943482,6800.133110400001,0.478,-8.632,180.04,1.0
9.6833,128.181866,37.94344,6799.430851200001,0.48,-8.648,180.04,1.0
9.7,128.181866,37.943398,6798.7273728,0.481,-8.663,180.04,1.0
9.7166,128.181866,37.943356,6798.0226752,0.483,-8.679,180.04,1.0
9.7333,128.181866,37.943315,6797.3167584,0.485,-8.695,180.04,1.0
9.75,128.181866,37.943273,6796.6093176,0.487,-8.711,180.041,1.0
9.7666,128.181866,37.943231,6795.9009624,0.488,-8.726,180.041,1.0
9.7833,128.181866,37.943189,6795.191388000001,0.49,-8.742,180.041,1.0
9.8,128.181866,37.943148,6794.4802896,0.492,-8.758,180.041,1.0
9.8166,128.181866,37.943106,6793.7682768,0.494,-8.773,180.041,1.0
9.8333,128.181866,37.943064,6793.0547400000005,0.495,-8.789,180.041,1.0
9.85,128.181866,37.943023,6792.3402888,0.497,-8.805,180.041,1.0
9.8666,128.181866,37.942981,6791.6243136,0.499,-8.821,180.041,1.0
9.8833,128.181865,37.942939,6790.907424000001,0.501,-8.836,180.041,1.0
9.9,128.181865,37.942898,6790.1890104,0.502,-8.852,180.042,1.0
9.9166,128.181865,37.942856,6789.4693776,0.504,-8.868,180.042,1.0
9.9333,128.181865,37.942814,6788.7485256,0.506,-8.884,180.042,1.0
9.95,128.181865,37.942773,6788.0264544,0.508,-8.899,180.042,1.0
9.9666,128.181865,37.942731,6787.303164000001,0.509,-8.915,180.042,1.0
9.9833,128.181865,37.942689,6786.5786544,0.511,-8.931,180.042,1.0
10.0,128.181865,37.942648,6785.8529256,0.513,-8.946,180.042,1.0
10.0166,128.181865,37.942606,6785.125977600001,0.515,-8.962,180.042,1.0
10.0333,128.181865,37.942564,6784.397810400001,0.517,-8.978,180.042,1.0
10.05,128.181865,37.942523,6783.668424,0.518,-8.994,180.042,1.0
10.0666,128.181865,37.942481,6782.937818400001,0.52,-9.009,180.043,1.0
10.0833,128.181865,37.942439,6782.2059936,0.522,-9.025,180.043,1.0
10.1,128.181865,37.942398,6781.4726448,0.524,-9.041,180.043,1.0
10.1166,128.181865,37.942356,6780.7383816,0.526,-9.056,180.043,1.0
10.1333,128.181865,37.942314,6780.0025944,0.528,-9.072,180.043,1.0
10.15,128.181865,37.942273,6779.265892800001,0.529,-9.088,180.043,1.0
10.1666,128.181864,37.942231,6778.5276672,0.531,-9.104,180.043,1.0
10.1833,128.181864,37.94219,6777.7885272,0.533,-9.119,180.043,1.0
10.2,128.181864,37.942148,6777.0478632,0.535,-9.135,180.043,1.0
10.2166,128.181864,37.942106,6776.3062848,0.537,-9.151,180.044,1.0
10.2333,128.181864,37.942065,6775.5631824,0.539,-9.166,180.044,1.0
10.25,128.181864,37.942023,6774.818860800001,0.541,-9.182,180.044,1.0
10.2666,128.181864,37.941981,6774.07332,0.542,-9.198,180.044,1.0
10.2833,128.181864,37.94194,6773.32656,0.544,-9.214,180.044,1.0
10.3,128.181864,37.941898,6772.5785808,0.546,-9.229,180.044,1.0
10.3166,128.181864,37.941857,6771.8293824,0.548,-9.245,180.044,1.0
10.3333,128.181864,37.941815,6771.078964800001,0.55,-9.261,180.044,1.0
10.35,128.181864,37.941773,6770.327328,0.552,-9.277,180.044,1.0
10.3666,128.181864,37.941732,6769.574472,0.554,-9.292,180.045,1.0
10.3833,128.181864,37.94169,6768.820396800001,0.556,-9.308,180.045,1.0
10.4,128.181864,37.941649,6768.0651024,0.558,-9.324,180.045,1.0
10.4166,128.181864,37.941607,6767.3085888,0.559,-9.339,180.045,1.0
10.4333,128.181863,37.941566,6766.550551200001,0.561,-9.355,180.045,1.0
10.45,128.181863,37.941524,6765.7915992,0.563,-9.371,180.045,1.0
10.4666,128.181863,37.941482,6765.0311232,0.565,-9.387,180.045,1.0
10.4833,128.181863,37.941441,6764.2697328,0.567,-9.402,180.045,1.0
10.5,128.181863,37.941399,6763.5068184,0.569,-9.418,180.045,1.0
10.5166,128.181863,37.941358,6762.7429896,0.571,-9.434,180.046,1.0
10.5333,128.181863,37.941316,6761.9776368,0.573,-9.449,180.046,1.0
10.55,128.181863,37.941275,6761.211369600001,0.575,-9.465,180.046,1.0
10.5666,128.181863,37.941233,6760.443578400001,0.577,-9.481,180.046,1.0
10.5833,128.181863,37.941191,6759.674568,0.579,-9.497,180.046,1.0
10.6,128.181863,37.94115,6758.904338400001,0.581,-9.512,180.046,1.0
10.6166,128.181863,37.941108,6758.1331944,0.583,-9.528,180.046,1.0
10.6333,128.181863,37.941067,6757.3605264,0.585,-9.544,180.046,1.0
10.65,128.181863,37.941025,6756.5866392,0.587,-9.559,180.047,1.0
10.6666,128.181863,37.940984,6755.8115328,0.589,-9.575,180.047,1.0
10.6833,128.181863,37.940942,6755.0352072,0.591,-9.591,180.047,1.0
10.7,128.181862,37.940901,6754.2576624,0.593,-9.607,180.047,1.0
10.7166,128.181862,37.940859,6753.4788984,0.595,-9.622,180.047,1.0
10.7333,128.181862,37.940818,6752.698610400001,0.597,-9.638,180.047,1.0
10.75,128.181862,37.940776,6751.917408,0.599,-9.654,180.047,1.0
10.7666,128.181862,37.940735,6751.1349864,0.601,-9.67,180.047,1.0
10.7833,128.181862,37.940693,6750.3513456,0.603,-9.685,180.047,1.0
10.8,128.181862,37.940652,6749.5661808,0.605,-9.701,180.048,1.0
10.8166,128.181862,37.94061,6748.7801016,0.607,-9.717,180.048,1.0
10.8333,128.181862,37.940569,6747.9924984,0.609,-9.732,180.048,1.0
10.85,128.181862,37.940527,6747.2039808,0.611,-9.748,180.048,1.0
10.8666,128.181862,37.940486,6746.4139392,0.613,-9.764,180.048,1.0
10.8833,128.181862,37.940444,6745.622983200001,0.615,-9.78,180.048,1.0
10.9,128.181862,37.940403,6744.8305032,0.618,-9.795,180.048,1.0
10.9166,128.181862,37.940361,6744.0371088,0.62,-9.811,180.048,1.0
10.9333,128.181861,37.94032,6743.2421904,0.622,-9.827,180.049,1.0
10.95,128.181861,37.940278,6742.4460528,0.624,-9.842,180.049,1.0
10.9666,128.181861,37.940237,6741.648696,0.626,-9.858,180.049,1.0
10.9833,128.181861,37.940195,6740.850424800001,0.628,-9.874,180.049,1.0
11.0,128.181861,37.940154,6740.050629599999,0.63,-9.89,180.049,1.0
11.0166,128.181861,37.940112,6739.2496152,0.632,-9.905,180.049,1.0
11.0333,128.181861,37.940071,6738.4473816,0.634,-9.921,180.049,1.0
11.05,128.181861,37.94003,6737.643928800001,0.636,-9.937,180.049,1.0
11.0666,128.181861,37.939988,6736.839256800001,0.639,-9.952,180.049,1.0
11.0833,128.181861,37.939947,6736.033365600001,0.641,-9.968,180.05,1.0
11.1,128.181861,37.939905,6735.2262552,0.643,-9.984,180.05,1.0
11.1166,128.181861,37.939864,6734.4176208,0.645,-10.0,180.05,1.0
11.1333,128.181861,37.939822,6733.608072,0.647,-10.015,180.05,1.0
11.15,128.181861,37.939781,6732.797304000001,0.649,-10.031,180.05,1.0
11.1666,128.181861,37.939739,6731.9853168,0.652,-10.047,180.05,1.0
11.1833,128.18186,37.939698,6731.171805600001,0.654,-10.062,180.05,1.0
11.2,128.18186,37.939657,6730.3573799999995,0.656,-10.078,180.05,1.0
11.2166,128.18186,37.939615,6729.5414304,0.658,-10.094,180.051,1.0
11.2333,128.18186,37.939574,6728.7245664,0.66,-10.11,180.051,1.0
11.25,128.18186,37.939532,6727.9064832,0.662,-10.125,180.051,1.0
11.2666,128.18186,37.939491,6727.086876,0.665,-10.141,180.051,1.0
11.2833,128.18186,37.939449,6726.2660496,0.667,-10.157,180.051,1.0
11.3,128.18186,37.939408,6725.4443088,0.669,-10.172,180.051,1.0
11.3166,128.18186,37.939367,6724.621044,0.671,-10.188,180.051,1.0
11.3333,128.18186,37.939325,6723.796560000001,0.674,-10.204,180.051,1.0
11.35,128.18186,37.939284,6722.9711615999995,0.676,-10.22,180.052,1.0
11.3666,128.18186,37.939242,6722.1442392,0.678,-10.235,180.052,1.0
11.3833,128.18186,37.939201,6721.316097600001,0.68,-10.251,180.052,1.0
11.4,128.181859,37.93916,6720.4867368000005,0.683,-10.267,180.052,1.0
11.4166,128.181859,37.939118,6719.656156800001,0.685,-10.282,180.052,1.0
11.4333,128.181859,37.939077,6718.8243575999995,0.687,-10.298,180.052,1.0
11.45,128.181859,37.939036,6717.991644,0.689,-10.314,180.052,1.0
11.4666,128.181859,37.938994,6717.157406400001,0.692,-10.33,180.052,1.0
11.4833,128.181859,37.938953,6716.3216448,0.694,-10.345,180.053,1.0
11.5,128.181859,37.938911,6715.4849688,0.696,-10.361,180.053,1.0
11.5166,128.181859,37.93887,6714.6470736,0.699,-10.377,180.053,1.0
11.5333,128.181859,37.938829,6713.8079592,0.701,-10.392,180.053,1.0
11.55,128.181859,37.938787,6712.9676256,0.703,-10.408,180.053,1.0
11.5666,128.181859,37.938746,6712.126072800001,0.705,-10.424,180.053,1.0
11.5833,128.181859,37.938705,6711.282996000001,0.708,-10.439,180.053,1.0
11.6,128.181859,37.938663,6710.4390048000005,0.71,-10.455,180.053,1.0
11.6166,128.181859,37.938622,6709.5937944,0.712,-10.471,180.054,1.0
11.6333,128.181858,37.938581,6708.7473648000005,0.715,-10.487,180.054,1.0
11.65,128.181858,37.938539,6707.899411200001,0.717,-10.502,180.054,1.0
11.6666,128.181858,37.938498,6707.0505432,0.719,-10.518,180.054,1.0
11.6833,128.181858,37.938457,6706.200151200001,0.722,-10.534,180.054,1.0
11.7,128.181858,37.938415,6705.3488448,0.724,-10.549,180.054,1.0
11.7166,128.181858,37.938374,6704.496014400001,0.727,-10.565,180.054,1.0
11.7333,128.181858,37.938333,6703.642269600001,0.729,-10.581,180.054,1.0
11.75,128.181858,37.938291,6702.787000800001,0.731,-10.596,180.055,1.0
11.7666,128.181858,37.93825,6701.9305128000005,0.734,-10.612,180.055,1.0
11.7833,128.181858,37.938209,6701.073110400001,0.736,-10.628,180.055,1.0
11.8,128.181858,37.938167,6700.214184000001,0.739,-10.644,180.055,1.0
11.8166,128.181858,37.938126,6699.354038400001,0.741,-10.659,180.055,1.0
11.8333,128.181858,37.938085,6698.492673600001,0.743,-10.675,180.055,1.0
11.85,128.181857,37.938043,6697.6303944,0.746,-10.691,180.055,1.0
11.8666,128.181857,37.938002,6696.7665912,0.748,-10.706,180.056,1.0
11.8833,128.181857,37.937961,6695.901568800001,0.751,-10.722,180.056,1.0
11.9,128.181857,37.937919,6695.0353272,0.753,-10.738,180.056,1.0
11.9166,128.181857,37.937878,6694.1678664,0.756,-10.753,180.056,1.0
11.9333,128.181857,37.937837,6693.2991864000005,0.758,-10.769,180.056,1.0
11.95,128.181857,37.937796,6692.4292872000005,0.761,-10.785,180.056,1.0
11.9666,128.181857,37.937754,6691.5581688,0.763,-10.801,180.056,1.0
11.9833,128.181857,37.937713,6690.6858312,0.766,-10.816,180.056,1.0
12.0,128.181857,37.937672,6689.812274400001,0.768,-10.832,180.057,1.0
12.0166,128.181857,37.93763,6688.9374984,0.77,-10.848,180.057,1.0
12.0333,128.181857,37.937589,6688.0615032,0.773,-10.863,180.057,1.0
12.05,128.181856,37.937548,6687.1842888,0.776,-10.879,180.057,1.0
12.0666,128.181856,37.937507,6686.3058552,0.778,-10.895,180.057,1.0
12.0833,128.181856,37.937465,6685.425897600001,0.781,-10.91,180.057,1.0
12.1,128.181856,37.937424,6684.5450256,0.783,-10.926,180.057,1.0
12.1166,128.181856,37.937383,6683.6629344,0.786,-10.942,180.058,1.0
12.1333,128.181856,37.937342,6682.779319200001,0.788,-10.957,180.058,1.0
12.15,128.181856,37.9373,6681.8947896,0.791,-10.973,180.058,1.0
12.1666,128.181856,37.937259,6681.009040800001,0.793,-10.989,180.058,1.0
12.1833,128.181856,37.937218,6680.121768,0.796,-11.004,180.058,1.0
12.2,128.181856,37.937177,6679.2335808,0.798,-11.02,180.058,1.0
12.2166,128.181856,37.937135,6678.344174400001,0.801,-11.036,180.058,1.0
12.2333,128.181856,37.937094,6677.453244,0.804,-11.051,180.058,1.0
12.25,128.181855,37.937053,6676.5613992,0.806,-11.067,180.059,1.0
12.2666,128.181855,37.937012,6675.6680304,0.809,-11.083,180.059,1.0
12.2833,128.181855,37.93697,6674.773442400001,0.811,-11.098,180.059,1.0
12.3,128.181855,37.936929,6673.87794,0.814,-11.114,180.059,1.0
12.3166,128.181855,37.936888,6672.9809136,0.817,-11.13,180.059,1.0
12.3333,128.181855,37.936847,6672.082972800001,0.819,-11.146,180.059,1.0
12.35,128.181855,37.936806,6671.183508,0.822,-11.161,180.059,1.0
12.3666,128.181855,37.936764,6670.282824000001,0.825,-11.177,180.06,1.0
12.3833,128.181855,37.936723,6669.3812256,0.827,-11.193,180.06,1.0
12.4,128.181855,37.936682,6668.4781032,0.83,-11.208,180.06,1.0
12.4166,128.181855,37.936641,6667.5737616,0.832,-11.224,180.06,1.0
12.4333,128.181855,37.9366,6666.668200800001,0.835,-11.24,180.06,1.0
12.45,128.181854,37.936558,6665.7617256,0.838,-11.255,180.06,1.0
12.4666,128.181854,37.936517,6664.8537264,0.841,-11.271,180.06,1.0
12.4833,128.181854,37.936476,6663.9445080000005,0.843,-11.287,180.061,1.0
12.5,128.181854,37.936435,6663.034070400001,0.846,-11.302,180.061,1.0
12.5166,128.181854,37.936394,6662.1224136,0.849,-11.318,180.061,1.0
12.5333,128.181854,37.936352,6661.209537600001,0.851,-11.334,180.061,1.0
12.55,128.181854,37.936311,6660.295747200001,0.854,-11.349,180.061,1.0
12.5666,128.181854,37.93627,6659.380432800001,0.857,-11.365,180.061,1.0
12.5833,128.181854,37.936229,6658.4638992,0.86,-11.38,180.061,1.0
12.6,128.181854,37.936188,6657.546146400001,0.862,-11.396,180.062,1.0
12.6166,128.181854,37.936147,6656.6271744000005,0.865,-11.412,180.062,1.0
12.6333,128.181853,37.936105,6655.706983200001,0.868,-11.427,180.062,1.0
12.65,128.181853,37.936064,6654.7855728,0.871,-11.443,180.062,1.0
12.6666,128.181853,37.936023,6653.8629432,0.873,-11.459,180.062,1.0
12.6833,128.181853,37.935982,6652.9387896,0.876,-11.474,180.062,1.0
12.7,128.181853,37.935941,6652.0137216,0.879,-11.49,180.062,1.0
12.7166,128.181853,37.9359,6651.087434399999,0.882,-11.506,180.063,1.0
12.7333,128.181853,37.935858,6650.159928000001,0.885,-11.521,180.063,1.0
12.75,128.181853,37.935817,6649.2312024,0.887,-11.537,180.063,1.0
12.7666,128.181853,37.935776,6648.3012576,0.89,-11.553,180.063,1.0
12.7833,128.181853,37.935735,6647.3700936,0.893,-11.568,180.063,1.0
12.8,128.181853,37.935694,6646.437405600001,0.896,-11.584,180.063,1.0
12.8166,128.181853,37.935653,6645.5038032,0.899,-11.6,180.063,1.0
12.8333,128.181852,37.935612,6644.5689816,0.902,-11.615,180.064,1.0
12.85,128.181852,37.935571,6643.6329408,0.904,-11.631,180.064,1.0
12.8666,128.181852,37.935529,6642.695376,0.907,-11.647,180.064,1.0
12.8833,128.181852,37.935488,6641.7568968000005,0.91,-11.662,180.064,1.0
12.9,128.181852,37.935447,6640.8171984,0.913,-11.678,180.064,1.0
12.9166,128.181852,37.935406,6639.8762808,0.916,-11.693,180.064,1.0
12.9333,128.181852,37.935365,6638.9338392,0.919,-11.709,180.064,1.0
12.95,128.181852,37.935324,6637.990483200001,0.922,-11.725,180.065,1.0
12.9666,128.181852,37.935283,6637.045908,0.925,-11.74,180.065,1.0
12.9833,128.181852,37.935242,6636.099808800001,0.928,-11.756,180.065,1.0
13.0,128.181851,37.9352,6635.152795200001,0.931,-11.772,180.065,1.0
13.0166,128.181851,37.935159,6634.2042576,0.933,-11.787,180.065,1.0
13.0333,128.181851,37.935118,6633.2548056000005,0.936,-11.803,180.065,1.0
13.0499,128.181851,37.935077,6632.3041344,0.939,-11.819,180.066,1.0
13.0666,128.181851,37.935036,6631.3519392,0.942,-11.834,180.066,1.0
13.0833,128.181851,37.934995,6630.3988296,0.945,-11.85,180.066,1.0
13.1,128.181851,37.934954,6629.444196,0.948,-11.865,180.066,1.0
13.1166,128.181851,37.934913,6628.488648,0.951,-11.881,180.066,1.0
13.1333,128.181851,37.934872,6627.531576,0.954,-11.897,180.066,1.0
13.15,128.181851,37.934831,6626.5735896,0.957,-11.912,180.066,1.0
13.1666,128.181851,37.93479,6625.614384,0.96,-11.928,180.067,1.0
13.1833,128.18185,37.934749,6624.6536544,0.963,-11.944,180.067,1.0
13.2,128.18185,37.934707,6623.692010400001,0.966,-11.959,180.067,1.0
13.2166,128.18185,37.934666,6622.728842400001,0.969,-11.975,180.067,1.0
13.2333,128.18185,37.934625,6621.7644552,0.972,-11.99,180.067,1.0
13.25,128.18185,37.934584,6620.7991536,0.975,-12.006,180.067,1.0
13.2666,128.18185,37.934543,6619.832328,0.979,-12.022,180.068,1.0
13.2833,128.18185,37.934502,6618.864588,0.982,-12.037,180.068,1.0
13.3,128.18185,37.934461,6617.895324000001,0.985,-12.053,180.068,1.0
13.3166,128.18185,37.93442,6616.9251456,0.988,-12.068,180.068,1.0
13.3333,128.18185,37.934379,6615.9534432,0.991,-12.084,180.068,1.0
13.35,128.181849,37.934338,6614.9808264,0.994,-12.1,180.068,1.0
13.3666,128.181849,37.934297,6614.0066856,0.997,-12.115,180.068,1.0
13.3833,128.181849,37.934256,6613.0313256,1.0,-12.131,180.069,1.0
13.4,128.181849,37.934215,6612.055051200001,1.003,-12.146,180.069,1.0
13.4166,128.181849,37.934174,6611.0772528,1.006,-12.162,180.069,1.0
13.4333,128.181849,37.934133,6610.09854,1.01,-12.178,180.069,1.0
13.45,128.181849,37.934092,6609.1183032,1.013,-12.193,180.069,1.0
13.4666,128.181849,37.934051,6608.1368472,1.016,-12.209,180.069,1.0
13.4833,128.181849,37.93401,6607.1544768,1.019,-12.224,180.07,1.0
13.5,128.181849,37.933969,6606.1705824,1.022,-12.24,180.07,1.0
13.5166,128.181848,37.933928,6605.1857736,1.026,-12.256,180.07,1.0
13.5333,128.181848,37.933887,6604.1994408,1.029,-12.271,180.07,1.0
13.55,128.181848,37.933846,6603.2118887999995,1.032,-12.287,180.07,1.0
13.5666,128.181848,37.933805,6602.2234224,1.035,-12.302,180.07,1.0
13.5833,128.181848,37.933764,6601.233432,1.038,-12.318,180.071,1.0
13.6,128.181848,37.933723,6600.2425272,1.042,-12.334,180.071,1.0
13.6166,128.181848,37.933682,6599.2500984,1.045,-12.349,180.071,1.0
13.6333,128.181848,37.933641,6598.2564504,1.048,-12.365,180.071,1.0
13.65,128.181848,37.9336,6597.261888000001,1.051,-12.38,180.071,1.0
13.6666,128.181848,37.933559,6596.2658016000005,1.055,-12.396,180.071,1.0
13.6833,128.181847,37.933518,6595.268496000001,1.058,-12.411,180.072,1.0
13.7,128.181847,37.933477,6594.270276,1.061,-12.427,180.072,1.0
13.7166,128.181847,37.933436,6593.2705320000005,1.065,-12.443,180.072,1.0
13.7333,128.181847,37.933395,6592.2698736,1.068,-12.458,180.072,1.0
13.75,128.181847,37.933354,6591.267691200001,1.071,-12.474,180.072,1.0
13.7666,128.181847,37.933313,6590.2642896,1.074,-12.489,180.072,1.0
13.7833,128.181847,37.933272,6589.2599736,1.078,-12.505,180.073,1.0
13.8,128.181847,37.933231,6588.2541336,1.081,-12.52,180.073,1.0
13.8166,128.181847,37.93319,6587.247074400001,1.084,-12.536,180.073,1.0
13.8333,128.181847,37.933149,6586.2391008,1.088,-12.552,180.073,1.0
13.85,128.181846,37.933108,6585.2296032,1.091,-12.567,180.073,1.0
13.8666,128.181846,37.933067,6584.219191200001,1.095,-12.583,180.073,1.0
13.8833,128.181846,37.933026,6583.207255200001,1.098,-12.598,180.074,1.0
13.9,128.181846,37.932985,6582.1944048000005,1.101,-12.614,180.074,1.0
13.9166,128.181846,37.932944,6581.1800304,1.105,-12.629,180.074,1.0
13.9333,128.181846,37.932903,6580.164436800001,1.108,-12.645,180.074,1.0
13.95,128.181846,37.932862,6579.147928800001,1.112,-12.66,180.074,1.0
13.9666,128.181846,37.932821,6578.129896800001,1.115,-12.676,180.074,1.0
13.9833,128.181846,37.93278,6577.110950400001,1.119,-12.691,180.075,1.0
14.0,128.181845,37.932739,6576.09048,1.122,-12.707,180.075,1.0
14.0166,128.181845,37.932699,6575.0690952,1.125,-12.723,180.075,1.0
14.0333,128.181845,37.932658,6574.0461864,1.129,-12.738,180.075,1.0
14.05,128.181845,37.932617,6573.022363200001,1.132,-12.754,180.075,1.0
14.0666,128.181845,37.932576,6571.997015999999,1.136,-12.769,180.075,1.0
14.0833,128.181845,37.932535,6570.9707544,1.139,-12.785,180.076,1.0
14.1,128.181845,37.932494,6569.942968800001,1.143,-12.8,180.076,1.0
14.1166,128.181845,37.932453,6568.9142688,1.146,-12.816,180.076,1.0
14.1333,128.181845,37.932412,6567.8840448,1.15,-12.831,180.076,1.0
14.15,128.181844,37.932371,6566.8529064,1.153,-12.847,180.076,1.0
14.1666,128.181844,37.93233,6565.820244,1.157,-12.862,180.076,1.0
14.1833,128.181844,37.932289,6564.7866672,1.161,-12.878,180.077,1.0
14.2,128.181844,37.932248,6563.7515664,1.164,-12.893,180.077,1.0
14.2166,128.181844,37.932208,6562.715551200001,1.168,-12.909,180.077,1.0
14.2333,128.181844,37.932167,6561.6783168,1.171,-12.924,180.077,1.0
14.25,128.181844,37.932126,6560.6395584,1.175,-12.94,180.077,1.0
14.2666,128.181844,37.932085,6559.599885600001,1.179,-12.956,180.078,1.0
14.2833,128.181844,37.932044,6558.5586888,1.182,-12.971,180.078,1.0
14.3,128.181843,37.932003,6557.5165776,1.186,-12.987,180.078,1.0
14.3166,128.181843,37.931962,6556.4732472000005,1.189,-13.002,180.078,1.0
14.3333,128.181843,37.931921,6555.428697600001,1.193,-13.018,180.078,1.0
14.35,128.181843,37.93188,6554.382624000001,1.197,-13.033,180.078,1.0
14.3666,128.181843,37.93184,6553.335636,1.2,-13.049,180.079,1.0
14.3833,128.181843,37.931799,6552.2874288,1.204,-13.064,180.079,1.0
14.4,128.181843,37.931758,6551.2376976000005,1.208,-13.08,180.079,1.0
14.4166,128.181843,37.931717,6550.187052000001,1.211,-13.095,180.079,1.0
14.4333,128.181843,37.931676,6549.1351872000005,1.215,-13.111,180.079,1.0
14.45,128.181842,37.931635,6548.0821032,1.219,-13.126,180.08,1.0
14.4666,128.181842,37.931594,6547.027800000001,1.223,-13.142,180.08,1.0
14.4833,128.181842,37.931553,6545.9719728,1.226,-13.157,180.08,1.0
14.5,128.181842,37.931513,6544.915231200001,1.23,-13.173,180.08,1.0
14.5166,128.181842,37.931472,6543.857270400001,1.234,-13.188,180.08,1.0
14.5333,128.181842,37.931431,6542.798090400001,1.238,-13.204,180.08,1.0
14.55,128.181842,37.93139,6541.7376912,1.241,-13.219,180.081,1.0
14.5666,128.181842,37.931349,6540.6760728,1.245,-13.235,180.081,1.0
14.5833,128.181841,37.931308,6539.6132352,1.249,-13.25,180.081,1.0
14.6,128.181841,37.931268,6538.5491784000005,1.253,-13.265,180.081,1.0
14.6166,128.181841,37.931227,6537.483902399999,1.257,-13.281,180.081,1.0
14.6333,128.181841,37.931186,6536.4174072,1.26,-13.296,180.082,1.0
14.65,128.181841,37.931145,6535.3496928,1.264,-13.312,180.082,1.0
14.6666,128.181841,37.931104,6534.2807592,1.268,-13.327,180.082,1.0
14.6833,128.181841,37.931063,6533.210606400001,1.272,-13.343,180.082,1.0
14.7,128.181841,37.931023,6532.1392344,1.276,-13.358,180.082,1.0
14.7166,128.181841,37.930982,6531.066948,1.28,-13.374,180.082,1.0
14.7333,128.18184,37.930941,6529.9931376,1.284,-13.389,180.083,1.0
14.75,128.18184,37.9309,6528.918108,1.287,-13.405,180.083,1.0
14.7666,128.18184,37.930859,6527.841859200001,1.291,-13.42,180.083,1.0
14.7833,128.18184,37.930818,6526.7643912,1.295,-13.436,180.083,1.0
14.8,128.18184,37.930778,6525.6860088,1.299,-13.451,180.083,1.0
14.8166,128.18184,37.930737,6524.6061024,1.303,-13.467,180.084,1.0
14.8333,128.18184,37.930696,6523.5249768,1.307,-13.482,180.084,1.0
14.85,128.18184,37.930655,6522.4429368,1.311,-13.497,180.084,1.0
14.8666,128.181839,37.930614,6521.3593728000005,1.315,-13.513,180.084,1.0
