Time,Longitude,Latitude,Altitude,Roll (deg),Pitch (deg),Yaw (deg),Health
0.0,128.181877,37.923646,7000.146528,4.0,-0.003,357.999,1.0
0.0166,128.181875,37.923691,7000.1605488000005,4.0,-0.012,357.999,1.0
0.0333,128.181873,37.923736,7000.1733504,4.0,-0.028,358.0,1.0
0.05,128.181871,37.92378,7000.186152000001,3.989,-0.046,358.004,1.0
0.0666,128.181869,37.923825,7000.1980392,3.969,-0.064,358.008,1.0
0.0833,128.181867,37.92387,7000.2093168,3.941,-0.083,358.014,1.0
0.1,128.181865,37.923915,7000.2199848,3.907,-0.101,358.019,1.0
0.1166,128.181863,37.92396,7000.2294336,3.869,-0.12,358.025,1.0
0.1333,128.181861,37.924005,7000.2385776,3.828,-0.138,358.032,1.0
0.15,128.181859,37.92405,7000.2465024,3.783,-0.156,358.038,1.0
0.1666,128.181857,37.924095,7000.2538176,3.736,-0.174,358.044,1.0
0.1833,128.181855,37.92414,7000.2599136,3.687,-0.191,358.051,1.0
0.2,128.181853,37.924185,7000.2654,3.636,-0.209,358.057,1.0
0.2166,128.181851,37.924229,7000.269972,3.584,-0.226,358.064,1.0
0.2333,128.181849,37.924274,7000.273629599999,3.53,-0.242,358.07,1.0
0.25,128.181847,37.924319,7000.2763728,3.475,-0.259,358.077,1.0
0.2666,128.181845,37.924364,7000.2778968,3.42,-0.275,358.083,1.0
0.2833,128.181843,37.924409,7000.278811200001,3.363,-0.292,358.09,1.0
0.3,128.181841,37.924454,7000.278811200001,3.305,-0.308,358.097,1.0
0.3166,128.181839,37.924499,7000.277592,3.247,-0.324,358.103,1.0
0.3333,128.181837,37.924544,7000.2754584,3.188,-0.339,358.109,1.0
0.35,128.181835,37.924589,7000.272410400001,3.129,-0.355,358.116,1.0
0.3666,128.181833,37.924634,7000.268448,3.069,-0.37,358.122,1.0
0.3833,128.181832,37.924678,7000.2632664,3.008,-0.385,358.129,1.0
0.4,128.18183,37.924723,7000.257170400001,2.947,-0.4,358.135,1.0
0.4166,128.181828,37.924768,7000.2501600000005,2.885,-0.415,358.141,1.0
0.4333,128.181826,37.924813,7000.2419304000005,2.823,-0.43,358.148,1.0
0.45,128.181824,37.924858,7000.232786400001,2.76,-0.445,358.154,1.0
0.4666,128.181822,37.924903,7000.222728000001,2.697,-0.46,358.16,1.0
0.4833,128.18182,37.924948,7000.2114504,2.633,-0.474,358.166,1.0
0.5,128.181818,37.924993,7000.1992584,2.569,-0.488,358.172,1.0
0.5166,128.181816,37.925038,7000.186152000001,2.505,-0.503,358.178,1.0
0.5333,128.181814,37.925083,7000.1718264,2.44,-0.517,358.184,1.0
0.55,128.181812,37.925127,7000.1565864,2.375,-0.531,358.19,1.0
0.5666,128.18181,37.925172,7000.1401272,2.309,-0.545,358.196,1.0
0.5833,128.181808,37.925217,7000.1227536,2.243,-0.559,358.202,1.0
0.6,128.181806,37.925262,7000.1041608000005,2.176,-0.573,358.208,1.0
0.6166,128.181804,37.925307,7000.0846536,2.11,-0.587,358.214,1.0
0.6333,128.181802,37.925352,7000.063927200001,2.042,-0.601,358.22,1.0
0.65,128.1818,37.925397,7000.0422864,1.975,-0.615,358.226,1.0
0.6666,128.181799,37.925442,7000.0194264,1.907,-0.629,358.231,1.0
0.6833,128.181797,37.925487,6999.995347200001,1.838,-0.642,358.237,1.0
0.7,128.181795,37.925532,6999.9706584000005,1.77,-0.656,358.243,1.0
0.7166,128.181793,37.925577,6999.9444456,1.7,-0.669,358.248,1.0
0.7333,128.181791,37.925621,6999.9173184,1.631,-0.683,358.254,1.0
0.75,128.181789,37.925666,6999.888972,1.561,-0.696,358.259,1.0
0.7666,128.181787,37.925711,6999.859711200001,1.491,-0.71,358.265,1.0
0.7833,128.181785,37.925756,6999.829536,1.421,-0.723,358.27,1.0
0.8,128.181783,37.925801,6999.7978368,1.35,-0.737,358.276,1.0
0.8166,128.181781,37.925846,6999.7652232,1.278,-0.75,358.281,1.0
0.8333,128.181779,37.925891,6999.7316952,1.207,-0.763,358.287,1.0
0.85,128.181777,37.925936,6999.6966432,1.135,-0.777,358.292,1.0
0.8666,128.181775,37.925981,6999.6606768,1.063,-0.79,358.297,1.0
0.8833,128.181774,37.926026,6999.623796000001,0.99,-0.803,358.303,1.0
0.9,128.181772,37.926071,6999.585696,0.917,-0.816,358.308,1.0
0.9166,128.18177,37.926116,6999.5463768,0.844,-0.83,358.313,1.0
0.9333,128.181768,37.92616,6999.5061432,0.771,-0.843,358.318,1.0
0.95,128.181766,37.926205,6999.4643856,0.697,-0.856,358.324,1.0
0.9666,128.181764,37.92625,6999.4220184000005,0.623,-0.869,358.329,1.0
0.9833,128.181762,37.926295,6999.378127200001,0.548,-0.882,358.334,1.0
1.0,128.18176,37.92634,6999.3333216,0.473,-0.895,358.339,1.0
1.0166,128.181758,37.926385,6999.287296800001,0.398,-0.908,358.344,1.0
1.0333,128.181756,37.92643,6999.2400528,0.323,-0.921,358.349,1.0
1.05,128.181754,37.926475,6999.1918944,0.247,-0.934,358.354,1.0
1.0666,128.181753,37.92652,6999.1425168,0.171,-0.947,358.359,1.0
1.0833,128.181751,37.926565,6999.091920000001,0.095,-0.96,358.364,1.0
1.1,128.181749,37.92661,6999.0404088000005,0.018,-0.973,358.369,1.0
1.1166,128.181747,37.926655,6998.987678400001,-0.058,-0.986,358.374,1.0
1.1333,128.181745,37.9267,6998.933728800001,-0.135,-0.999,358.378,1.0
1.15,128.181743,37.926745,6998.878560000001,-0.212,-1.012,358.383,1.0
1.1666,128.181741,37.92679,6998.8224768,-0.29,-1.025,358.388,1.0
1.1833,128.181739,37.926834,6998.7651744,-0.368,-1.038,358.393,1.0
1.2,128.181737,37.926879,6998.7066528,-0.446,-1.051,358.398,1.0
1.2166,128.181736,37.926924,6998.6472168,-0.525,-1.063,358.402,1.0
1.2333,128.181734,37.926969,6998.586256800001,-0.604,-1.076,358.407,1.0
1.25,128.181732,37.927014,6998.524382400001,-0.683,-1.089,358.412,1.0
1.2666,128.18173,37.927059,6998.4612888,-0.763,-1.102,358.416,1.0
1.2833,128.181728,37.927104,6998.3972808,-0.842,-1.115,358.421,1.0
1.3,128.181726,37.927149,6998.3317488,-0.923,-1.128,358.425,1.0
1.3166,128.181724,37.927194,6998.2653024,-1.003,-1.141,358.43,1.0
1.3333,128.181722,37.927239,6998.1976368000005,-1.083,-1.153,358.434,1.0
1.35,128.18172,37.927284,6998.1287520000005,-1.164,-1.166,358.439,1.0
1.3666,128.181718,37.927329,6998.0589528,-1.246,-1.179,358.443,1.0
1.3833,128.181717,37.927374,6997.9876296,-1.327,-1.192,358.448,1.0
1.4,128.181715,37.927419,6997.915392000001,-1.409,-1.204,358.452,1.0
1.4166,128.181713,37.927464,6997.8419352,-1.491,-1.217,358.457,1.0
1.4333,128.181711,37.927509,6997.767564000001,-1.573,-1.23,358.461,1.0
1.45,128.181709,37.927554,6997.6916688,-1.656,-1.243,358.465,1.0
1.4666,128.181707,37.927599,6997.6148592,-1.739,-1.256,358.47,1.0
1.4833,128.181705,37.927644,6997.5365256,-1.822,-1.268,358.474,1.0
1.5,128.181703,37.927689,6997.4575824,-1.905,-1.281,358.478,1.0
1.5166,128.181702,37.927734,6997.377115200001,-1.989,-1.294,358.482,1.0
1.5333,128.1817,37.927779,6997.295428800001,-2.073,-1.307,358.487,1.0
1.55,128.181698,37.927824,6997.212828000001,-2.157,-1.319,358.491,1.0
1.5666,128.181696,37.927869,6997.1287032,-2.241,-1.332,358.495,1.0
1.5833,128.181694,37.927914,6997.043664000001,-2.326,-1.345,358.499,1.0
1.6,128.181692,37.927958,6996.957405600001,-2.411,-1.357,358.503,1.0
1.6166,128.18169,37.928003,6996.869928000001,-2.496,-1.37,358.507,1.0
1.6333,128.181688,37.928048,6996.781536,-2.582,-1.383,358.511,1.0
1.65,128.181686,37.928093,6996.6916200000005,-2.668,-1.396,358.516,1.0
1.6666,128.181685,37.928138,6996.6007896,-2.754,-1.408,358.52,1.0
1.6833,128.181683,37.928183,6996.50874,-2.84,-1.421,358.524,1.0
1.7,128.181681,37.928228,6996.4151664,-2.927,-1.434,358.528,1.0
1.7166,128.181679,37.928273,6996.3206784,-3.013,-1.446,358.532,1.0
1.7333,128.181677,37.928318,6996.225276,-3.101,-1.459,358.535,1.0
1.75,128.181675,37.928363,6996.128349600001,-3.188,-1.472,358.539,1.0
1.7666,128.181673,37.928408,6996.030204000001,-3.276,-1.484,358.543,1.0
1.7833,128.181671,37.928453,6995.931144,-3.364,-1.497,358.547,1.0
1.8,128.18167,37.928498,6995.8308648,-3.452,-1.51,358.551,1.0
1.8166,128.181668,37.928543,6995.7290616,-3.54,-1.522,358.555,1.0
1.8333,128.181666,37.928588,6995.626344,-3.629,-1.535,358.559,1.0
1.85,128.181664,37.928633,6995.5224072,-3.718,-1.548,358.562,1.0
1.8666,128.181662,37.928678,6995.417556,-3.807,-1.56,358.566,1.0
1.8833,128.18166,37.928723,6995.3111808,-3.897,-1.573,358.57,1.0
1.9,128.181658,37.928768,6995.2035864,-3.987,-1.586,358.574,1.0
1.9166,128.181656,37.928813,6995.095077600001,-4.077,-1.598,358.577,1.0
1.9333,128.181655,37.928858,6994.9850448,-4.167,-1.611,358.581,1.0
1.95,128.181653,37.928903,6994.874097600001,-4.258,-1.623,358.585,1.0
1.9666,128.181651,37.928949,6994.761931200001,-4.349,-1.636,358.588,1.0
1.9833,128.181649,37.928994,6994.6485456,-4.44,-1.649,358.592,1.0
2.0,128.181647,37.929039,6994.533636,-4.532,-1.661,358.596,1.0
2.0166,128.181645,37.929084,6994.417812,-4.623,-1.674,358.599,1.0
2.0333,128.181643,37.929129,6994.301073600001,-4.716,-1.686,358.603,1.0
2.05,128.181641,37.929174,6994.182811200001,-4.808,-1.699,358.606,1.0
2.0666,128.18164,37.929219,6994.0633296,-4.9,-1.711,358.61,1.0
2.0833,128.181638,37.929264,6993.9426288,-4.993,-1.724,358.613,1.0
2.1,128.181636,37.929309,6993.821013600001,-5.087,-1.737,358.617,1.0
2.1166,128.181634,37.929354,6993.697874400001,-5.18,-1.749,358.62,1.0
2.1333,128.181632,37.929399,6993.5738208,-5.274,-1.762,358.624,1.0
2.15,128.18163,37.929444,6993.4482431999995,-5.368,-1.774,358.627,1.0
2.1666,128.181628,37.929489,6993.321751200001,-5.462,-1.787,358.63,1.0
2.1833,128.181626,37.929534,6993.19404,-5.557,-1.799,358.634,1.0
2.2,128.181625,37.929579,6993.0651096,-5.651,-1.812,358.637,1.0
2.2166,128.181623,37.929624,6992.934655200001,-5.747,-1.824,358.64,1.0
2.2333,128.181621,37.929669,6992.803286400001,-5.842,-1.837,358.644,1.0
2.25,128.181619,37.929714,6992.6706984,-5.938,-1.849,358.647,1.0
2.2666,128.181617,37.929759,6992.5368912,-6.034,-1.862,358.65,1.0
2.2833,128.181615,37.929804,6992.401864800001,-6.13,-1.874,358.654,1.0
2.3,128.181613,37.929849,6992.2656192,-6.226,-1.887,358.657,1.0
2.3166,128.181611,37.929895,6992.1281544,-6.323,-1.899,358.66,1.0
2.3333,128.18161,37.92994,6991.9897752,-6.42,-1.911,358.663,1.0
2.35,128.181608,37.929985,6991.849872,-6.518,-1.924,358.666,1.0
2.3666,128.181606,37.93003,6991.7087496,-6.615,-1.936,358.67,1.0
2.3833,128.181604,37.930075,6991.566408,-6.713,-1.949,358.673,1.0
2.4,128.181602,37.93012,6991.4228472,-6.812,-1.961,358.676,1.0
2.4166,128.1816,37.930165,6991.278372,-6.91,-1.974,358.679,1.0
2.4333,128.181598,37.93021,6991.132372800001,-7.009,-1.986,358.682,1.0
2.45,128.181596,37.930255,6990.9851544,-7.108,-1.999,358.685,1.0
2.4666,128.181594,37.9303,6990.8370216,-7.207,-2.011,358.688,1.0
2.4833,128.181593,37.930345,6990.687364800001,-7.307,-2.023,358.691,1.0
2.5,128.181591,37.93039,6990.5364887999995,-7.407,-2.036,358.694,1.0
2.5166,128.181589,37.930436,6990.3846984,-7.507,-2.048,358.697,1.0
2.5333,128.181587,37.930481,6990.231384000001,-7.608,-2.061,358.7,1.0
2.55,128.181585,37.930526,6990.076850400001,-7.709,-2.073,358.703,1.0
2.5666,128.181583,37.930571,6989.921097600001,-7.81,-2.085,358.706,1.0
2.5833,128.181581,37.930616,6989.7644304,-7.911,-2.098,358.709,1.0
2.6,128.181579,37.930661,6989.6062392,-8.013,-2.11,358.712,1.0
2.6166,128.181578,37.930706,6989.446828800001,-8.115,-2.123,358.714,1.0
2.6333,128.181576,37.930751,6989.286504000001,-8.217,-2.135,358.717,1.0
2.65,128.181574,37.930797,6989.1246552,-8.32,-2.147,358.72,1.0
2.6666,128.181572,37.930842,6988.9615872,-8.422,-2.16,358.723,1.0
2.6833,128.18157,37.930887,6988.7973,-8.526,-2.172,358.726,1.0
2.7,128.181568,37.930932,6988.6317936,-8.629,-2.185,358.728,1.0
2.7166,128.181566,37.930977,6988.4653728,-8.733,-2.197,358.731,1.0
2.7333,128.181564,37.931022,6988.297428000001,-8.837,-2.209,358.734,1.0
2.75,128.181562,37.931067,6988.128264000001,-8.941,-2.222,358.737,1.0
2.7666,128.18156,37.931112,6987.9578808,-9.046,-2.234,358.739,1.0
2.7833,128.181559,37.931158,6987.786278400001,-9.15,-2.246,358.742,1.0
2.8,128.181557,37.931203,6987.613456800001,-9.256,-2.259,358.745,1.0
2.8166,128.181555,37.931248,6987.439111200001,-9.361,-2.271,358.747,1.0
2.8333,128.181553,37.931293,6987.2638512,-9.467,-2.284,358.75,1.0
2.85,128.181551,37.931338,6987.087372,-9.573,-2.296,358.753,1.0
2.8666,128.181549,37.931383,6986.9096736,-9.679,-2.308,358.755,1.0
2.8833,128.181547,37.931429,6986.730451200001,-9.786,-2.321,358.758,1.0
2.9,128.181545,37.931474,6986.5503144,-9.893,-2.333,358.76,1.0
2.9166,128.181543,37.931519,6986.3686536000005,-10.0,-2.345,358.763,1.0
2.9333,128.181542,37.931564,6986.186078400001,-10.107,-2.358,358.765,1.0
2.95,128.18154,37.931609,6986.001979200001,-10.215,-2.37,358.768,1.0
2.9666,128.181538,37.931654,6985.816660800001,-10.323,-2.382,358.77,1.0
2.9833,128.181536,37.9317,6985.6301232000005,-10.431,-2.395,358.773,1.0
3.0,128.181534,37.931745,6985.4423664,-10.54,-2.407,358.775,1.0
3.0166,128.181532,37.93179,6985.2533904,-10.649,-2.419,358.778,1.0
3.0333,128.18153,37.931835,6985.0631952,-10.758,-2.432,358.78,1.0
3.05,128.181528,37.93188,6984.8717808,-10.868,-2.444,358.782,1.0
3.0666,128.181526,37.931926,6984.6791472,-10.977,-2.456,358.785,1.0
3.0833,128.181524,37.931971,6984.4849896,-11.087,-2.469,358.787,1.0
3.1,128.181522,37.932016,6984.2899176,-11.198,-2.481,358.789,1.0
3.1166,128.18152,37.932061,6984.0933216,-11.308,-2.493,358.792,1.0
3.1333,128.181519,37.932107,6983.895506400001,-11.419,-2.506,358.794,1.0
3.15,128.181517,37.932152,6983.6964720000005,-11.53,-2.518,358.796,1.0
3.1666,128.181515,37.932197,6983.4962184000005,-11.642,-2.53,358.798,1.0
3.1833,128.181513,37.932242,6983.2947456,-11.753,-2.542,358.801,1.0
3.2,128.181511,37.932287,6983.0908344,-11.845,-2.554,358.804,1.0
3.2166,128.181509,37.932333,6982.8847896,-11.916,-2.566,358.808,1.0
3.2333,128.181507,37.932378,6982.6772208,-11.97,-2.577,358.814,1.0
3.25,128.181505,37.932423,6982.468128,-12.007,-2.588,358.819,1.0
3.2666,128.181503,37.932468,6982.2572064000005,-12.031,-2.6,358.823,1.0
3.2833,128.181501,37.932514,6982.0444560000005,-12.043,-2.611,358.828,1.0
3.3,128.181499,37.932559,6981.8304864,-12.045,-2.623,358.832,1.0
3.3166,128.181497,37.932604,6981.614688000001,-12.039,-2.635,358.836,1.0
3.3333,128.181495,37.932649,6981.397670400001,-12.027,-2.647,358.839,1.0
3.35,128.181494,37.932695,6981.1788240000005,-12.01,-2.659,358.842,1.0
3.3666,128.181492,37.93274,6980.9587584,-11.988,-2.672,358.844,1.0
3.3833,128.18149,37.932785,6980.7374736,-11.963,-2.684,358.847,1.0
3.4,128.181488,37.932831,6980.51436,-11.935,-2.697,358.849,1.0
3.4166,128.181486,37.932876,6980.290027200001,-11.905,-2.71,358.851,1.0
3.4333,128.181484,37.932921,6980.064170400001,-11.873,-2.723,358.853,1.0
3.45,128.181482,37.932966,6979.8370944,-11.84,-2.737,358.855,1.0
3.4666,128.18148,37.933012,6979.6084944,-11.806,-2.75,358.857,1.0
3.4833,128.181478,37.933057,6979.3786752,-11.772,-2.764,358.859,1.0
3.5,128.181476,37.933102,6979.1473320000005,-11.736,-2.778,358.861,1.0
3.5166,128.181474,37.933148,6978.914769600001,-11.7,-2.791,358.862,1.0
3.5333,128.181472,37.933193,6978.680683200001,-11.663,-2.805,358.864,1.0
3.55,128.18147,37.933238,6978.4453776,-11.627,-2.819,358.865,1.0
3.5666,128.181468,37.933284,6978.208548,-11.59,-2.833,358.867,1.0
3.5833,128.181466,37.933329,6977.9704992,-11.553,-2.848,358.868,1.0
3.6,128.181465,37.933374,6977.7309264000005,-11.516,-2.862,358.87,1.0
3.6166,128.181463,37.93342,6977.4901344,-11.478,-2.876,358.871,1.0
3.6333,128.181461,37.933465,6977.2478184,-11.441,-2.891,358.872,1.0
3.65,128.181459,37.93351,6977.004283200001,-11.404,-2.905,358.874,1.0
3.6666,128.181457,37.933556,6976.759224,-11.366,-2.92,358.875,1.0
3.6833,128.181455,37.933601,6976.5129456,-11.329,-2.934,358.876,1.0
3.7,128.181453,37.933646,6976.265448,-11.291,-2.949,358.877,1.0
3.7166,128.181451,37.933692,6976.0164264000005,-11.254,-2.964,358.879,1.0
3.7333,128.181449,37.933737,6975.7661856,-11.217,-2.979,358.88,1.0
3.75,128.181447,37.933783,6975.5144208,-11.179,-2.994,358.881,1.0
3.7666,128.181445,37.933828,6975.2611320000005,-11.142,-3.008,358.882,1.0
3.7833,128.181443,37.933873,6975.0069288,-11.105,-3.023,358.883,1.0
3.8,128.181441,37.933919,6974.750896800001,-11.068,-3.038,358.884,1.0
3.8166,128.181439,37.933964,6974.4939504,-11.03,-3.054,358.885,1.0
3.8333,128.181437,37.934009,6974.23548,-10.993,-3.069,358.886,1.0
3.85,128.181435,37.934055,6973.9754856,-10.956,-3.084,358.887,1.0
3.8666,128.181433,37.9341,6973.714272,-10.919,-3.099,358.888,1.0
3.8833,128.181431,37.934146,6973.4518392,-10.882,-3.114,358.889,1.0
3.9,128.181429,37.934191,6973.1878824000005,-10.845,-3.13,358.89,1.0
3.9166,128.181427,37.934237,6972.922706400001,-10.809,-3.145,358.891,1.0
3.9333,128.181425,37.934282,6972.6560064000005,-10.772,-3.16,358.892,1.0
3.95,128.181423,37.934327,6972.388087200001,-10.735,-3.176,358.893,1.0
3.9666,128.181422,37.934373,6972.118644,-10.699,-3.191,358.894,1.0
3.9833,128.18142,37.934418,6971.8479816,-10.663,-3.207,358.894,1.0
4.0,128.181418,37.934464,6971.5757952,-10.627,-3.222,358.895,1.0
4.0166,128.181416,37.934509,6971.3023896,-10.59,-3.238,358.896,1.0
4.0333,128.181414,37.934555,6971.027764800001,-10.555,-3.254,358.897,1.0
4.05,128.181412,37.9346,6970.751616,-10.519,-3.269,358.898,1.0
4.0666,128.18141,37.934646,6970.4739432,-10.483,-3.285,358.898,1.0
4.0833,128.181408,37.934691,6970.195356000001,-10.447,-3.301,358.899,1.0
4.1,128.181406,37.934736,6969.914940000001,-10.412,-3.317,358.9,1.0
4.1166,128.181404,37.934782,6969.6336096,-10.377,-3.332,358.9,1.0
4.1333,128.181402,37.934827,6969.3504504,-10.341,-3.348,358.901,1.0
4.15,128.1814,37.934873,6969.0663768,-10.306,-3.364,358.902,1.0
4.1666,128.181398,37.934918,6968.780779200001,-10.272,-3.38,358.902,1.0
4.1833,128.181396,37.934964,6968.4936576,-10.237,-3.396,358.903,1.0
4.2,128.181394,37.935009,6968.2053168,-10.203,-3.412,358.904,1.0
4.2166,128.181392,37.935055,6967.915452000001,-10.168,-3.429,358.904,1.0
4.2333,128.18139,37.9351,6967.624368000001,-10.134,-3.445,358.905,1.0
4.25,128.181388,37.935146,6967.332064800001,-10.1,-3.461,358.906,1.0
4.2666,128.181386,37.935191,6967.038237600001,-10.067,-3.478,358.906,1.0
4.2833,128.181384,37.935237,6966.7431912,-10.033,-3.494,358.907,1.0
4.3,128.181382,37.935283,6966.446620799999,-10.0,-3.51,358.907,1.0
4.3166,128.18138,37.935328,6966.1485264,-9.967,-3.527,358.908,1.0
4.3333,128.181378,37.935374,6965.8492128,-9.935,-3.543,358.908,1.0
4.35,128.181376,37.935419,6965.54868,-9.902,-3.56,358.909,1.0
4.3666,128.181374,37.935465,6965.246623200001,-9.87,-3.577,358.909,1.0
4.3833,128.181372,37.93551,6964.943347200001,-9.838,-3.593,358.91,1.0
4.4,128.18137,37.935556,6964.638547200001,-9.805,-3.61,358.91,1.0
4.4166,128.181368,37.935601,6964.3322232,-9.774,-3.627,358.911,1.0
4.4333,128.181366,37.935647,6964.0246799999995,-9.742,-3.644,358.912,1.0
4.45,128.181364,37.935693,6963.7159176000005,-9.71,-3.66,358.912,1.0
4.4666,128.181362,37.935738,6963.4056312,-9.679,-3.677,358.913,1.0
4.4833,128.18136,37.935784,6963.0938208,-9.648,-3.694,358.913,1.0
4.5,128.181358,37.935829,6962.780791200001,-9.617,-3.711,358.914,1.0
4.5166,128.181356,37.935875,6962.4665424,-9.585,-3.728,358.914,1.0
4.5333,128.181354,37.935921,6962.150464800001,-9.555,-3.745,358.914,1.0
4.55,128.181353,37.935966,6961.8334728,-9.524,-3.762,358.915,1.0
4.5666,128.181351,37.936012,6961.514652000001,-9.493,-3.779,358.915,1.0
4.5833,128.181349,37.936057,6961.194612,-9.463,-3.796,358.916,1.0
4.6,128.181347,37.936103,6960.8733528,-9.432,-3.814,358.916,1.0
4.6166,128.181345,37.936149,6960.550569600001,-9.402,-3.831,358.917,1.0
4.6333,128.181343,37.936194,6960.2262624,-9.373,-3.848,358.917,1.0
4.65,128.181341,37.93624,6959.9007360000005,-9.343,-3.865,358.918,1.0
4.6666,128.181339,37.936286,6959.5736856,-9.314,-3.883,358.918,1.0
4.6833,128.181337,37.936331,6959.245416,-9.285,-3.9,358.918,1.0
4.7,128.181335,37.936377,6958.9156224,-9.256,-3.918,358.919,1.0
4.7166,128.181333,37.936423,6958.584304800001,-9.227,-3.935,358.919,1.0
4.7333,128.181331,37.936468,6958.251768,-9.199,-3.953,358.92,1.0
4.75,128.181329,37.936514,6957.9177072,-9.17,-3.97,358.92,1.0
4.7666,128.181327,37.93656,6957.5824272,-9.143,-3.988,358.921,1.0
4.7833,128.181325,37.936605,6957.2456232,-9.115,-4.005,358.921,1.0
4.8,128.181323,37.936651,6956.907295200001,-9.088,-4.023,358.921,1.0
4.8166,128.181321,37.936697,6956.5674432,-9.061,-4.041,358.922,1.0
4.8333,128.181319,37.936742,6956.226372,-9.034,-4.058,358.922,1.0
4.85,128.181317,37.936788,6955.8840816,-9.007,-4.076,358.922,1.0
4.8666,128.181315,37.936834,6955.5399624,-8.981,-4.094,358.923,1.0
4.8833,128.181313,37.93688,6955.194624000001,-8.955,-4.112,358.923,1.0
4.9,128.181311,37.936925,6954.8480664,-8.929,-4.129,358.924,1.0
4.9166,128.181309,37.936971,6954.49968,-8.904,-4.147,358.924,1.0
4.9333,128.181307,37.937017,6954.1500744,-8.879,-4.165,358.924,1.0
4.95,128.181305,37.937063,6953.799249600001,-8.854,-4.183,358.925,1.0
4.9666,128.181303,37.937108,6953.446596000001,-8.829,-4.201,358.925,1.0
4.9833,128.181301,37.937154,6953.0927232,-8.805,-4.219,358.925,1.0
5.0,128.181299,37.9372,6952.7373264,-8.781,-4.237,358.926,1.0
5.0166,128.181297,37.937246,6952.380710400001,-8.758,-4.255,358.926,1.0
5.0333,128.181295,37.937291,6952.0222656000005,-8.734,-4.273,358.927,1.0
5.05,128.181293,37.937337,6951.662601600001,-8.711,-4.291,358.927,1.0
5.0666,128.181291,37.937383,6951.3014136,-8.689,-4.309,358.927,1.0
5.0833,128.181289,37.937429,6950.939006400001,-8.666,-4.327,358.928,1.0
5.1,128.181287,37.937475,6950.575075199999,-8.644,-4.345,358.928,1.0
5.1166,128.181285,37.93752,6950.2096200000005,-8.622,-4.363,358.928,1.0
5.1333,128.181283,37.937566,6949.8426408000005,-8.6,-4.381,358.929,1.0
5.15,128.181281,37.937612,6949.474137600001,-8.579,-4.399,358.929,1.0
5.1666,128.181279,37.937658,6949.1044152,-8.558,-4.417,358.929,1.0
5.1833,128.181277,37.937704,6948.7331688,-8.537,-4.435,358.93,1.0
5.2,128.181275,37.93775,6948.3603984,-8.517,-4.453,358.93,1.0
5.2166,128.181273,37.937795,6947.9861040000005,-8.497,-4.471,358.93,1.0
5.2333,128.181271,37.937841,6947.610590400001,-8.477,-4.489,358.931,1.0
5.25,128.181269,37.937887,6947.2335528,-8.457,-4.507,358.931,1.0
5.2666,128.181267,37.937933,6946.854991200001,-8.438,-4.525,358.931,1.0
5.2833,128.181265,37.937979,6946.474905600001,-8.419,-4.543,358.932,1.0
5.3,128.181263,37.938025,6946.093296000001,-8.4,-4.562,358.932,1.0
5.3166,128.181261,37.938071,6945.7101624,-8.382,-4.58,358.932,1.0
5.3333,128.181259,37.938116,6945.325809600001,-8.364,-4.598,358.933,1.0
5.35,128.181257,37.938162,6944.939932800001,-8.346,-4.616,358.933,1.0
5.3666,128.181255,37.938208,6944.552532000001,-8.328,-4.634,358.933,1.0
5.3833,128.181253,37.938254,6944.1636072,-8.311,-4.653,358.934,1.0
5.4,128.181251,37.9383,6943.7731584,-8.294,-4.671,358.934,1.0
5.4166,128.18125,37.938346,6943.3811856,-8.277,-4.689,358.935,1.0
5.4333,128.181248,37.938392,6942.9876888,-8.261,-4.707,358.935,1.0
5.45,128.181246,37.938438,6942.5929728,-8.244,-4.726,358.935,1.0
5.4666,128.181244,37.938484,6942.196732800001,-8.228,-4.744,358.936,1.0
5.4833,128.181242,37.93853,6941.798664000001,-8.212,-4.762,358.936,1.0
5.5,128.18124,37.938576,6941.399376,-8.196,-4.781,358.936,1.0
5.5166,128.181238,37.938622,6940.998564,-8.181,-4.799,358.937,1.0
5.5333,128.181236,37.938667,6940.596228,-8.165,-4.818,358.937,1.0
5.55,128.181234,37.938713,6940.192368,-8.15,-4.836,358.938,1.0
5.5666,128.181232,37.938759,6939.786984000001,-8.134,-4.854,358.938,1.0
5.5833,128.18123,37.938805,6939.380076,-8.119,-4.873,358.938,1.0
5.6,128.181228,37.938851,6938.971644,-8.105,-4.891,358.939,1.0
5.6166,128.181226,37.938897,6938.561992800001,-8.09,-4.91,358.939,1.0
5.6333,128.181224,37.938943,6938.1505128,-8.075,-4.928,358.94,1.0
5.65,128.181222,37.938989,6937.7375088,-8.061,-4.947,358.94,1.0
5.6666,128.18122,37.939035,6937.322980800001,-8.046,-4.965,358.941,1.0
5.6833,128.181218,37.939081,6936.907233600001,-8.032,-4.984,358.941,1.0
5.7,128.181216,37.939127,6936.4896576,-8.018,-5.002,358.941,1.0
5.7166,128.181214,37.939173,6936.0705576,-8.004,-5.02,358.942,1.0
5.7333,128.181212,37.939219,6935.6502384000005,-7.99,-5.039,358.942,1.0
5.75,128.18121,37.939265,6935.2280904,-7.976,-5.057,358.943,1.0
5.7666,128.181208,37.939311,6934.8044184,-7.962,-5.076,358.943,1.0
5.7833,128.181206,37.939357,6934.3792224,-7.949,-5.094,358.944,1.0
5.8,128.181204,37.939404,6933.9525023999995,-7.935,-5.113,358.944,1.0
5.8166,128.181202,37.93945,6933.524563200001,-7.922,-5.131,358.944,1.0
5.8333,128.1812,37.939496,6933.094795200001,-7.908,-5.149,358.945,1.0
5.85,128.181198,37.939542,6932.6635032,-7.895,-5.168,358.945,1.0
5.8666,128.181196,37.939588,6932.230687200001,-7.882,-5.186,358.946,1.0
5.8833,128.181194,37.939634,6931.796347200001,-7.869,-5.204,358.946,1.0
5.9,128.181192,37.93968,6931.360483200001,-7.856,-5.223,358.947,1.0
5.9166,128.18119,37.939726,6930.9227904,-7.843,-5.241,358.947,1.0
5.9333,128.181188,37.939772,6930.4838784,-7.83,-5.259,358.948,1.0
5.95,128.181186,37.939818,6930.0434424000005,-7.817,-5.278,358.948,1.0
5.9666,128.181184,37.939864,6929.6011776000005,-7.804,-5.296,358.948,1.0
5.9833,128.181182,37.93991,6929.1576936,-7.792,-5.314,358.949,1.0
6.0,128.18118,37.939957,6928.7123808,-7.779,-5.333,358.949,1.0
6.0166,128.181178,37.940003,6928.265544,-7.767,-5.351,358.95,1.0
6.0333,128.181177,37.940049,6927.817488000001,-7.754,-5.369,358.95,1.0
6.05,128.181175,37.940095,6927.3676032,-7.742,-5.388,358.951,1.0
6.0666,128.181173,37.940141,6926.9161944,-7.73,-5.406,358.951,1.0
6.0833,128.181171,37.940187,6926.462956800001,-7.718,-5.424,358.952,1.0
6.1,128.181169,37.940233,6926.0085,-7.706,-5.443,358.952,1.0
6.1166,128.181167,37.940279,6925.5525192000005,-7.694,-5.461,358.952,1.0
6.1333,128.181165,37.940326,6925.094709600001,-7.682,-5.479,358.953,1.0
6.15,128.181163,37.940372,6924.635376,-7.671,-5.498,358.953,1.0
6.1666,128.181161,37.940418,6924.174823200001,-7.659,-5.516,358.954,1.0
6.1833,128.181159,37.940464,6923.712441600001,-7.648,-5.535,358.954,1.0
6.2,128.181157,37.94051,6923.2482312,-7.636,-5.553,358.955,1.0
6.2166,128.181155,37.940557,6922.7828016,-7.625,-5.571,358.955,1.0
6.2333,128.181153,37.940603,6922.315848,-7.614,-5.59,358.956,1.0
6.25,128.181151,37.940649,6921.847065600001,-7.603,-5.608,358.956,1.0
6.2666,128.181149,37.940695,6921.3767592,-7.592,-5.626,358.957,1.0
6.2833,128.181147,37.940741,6920.904928800001,-7.582,-5.645,358.957,1.0
6.3,128.181145,37.940788,6920.4315744000005,-7.571,-5.663,358.958,1.0
6.3166,128.181143,37.940834,6919.956696,-7.56,-5.681,358.958,1.0
6.3333,128.181141,37.94088,6919.4802936,-7.55,-5.699,358.959,1.0
6.35,128.181139,37.940926,6919.0020624,-7.539,-5.717,358.959,1.0
6.3666,128.181137,37.940973,6918.5223072,-7.529,-5.736,358.96,1.0
6.3833,128.181135,37.941019,6918.041028000001,-7.518,-5.754,358.96,1.0
6.4,128.181133,37.941065,6917.558224800001,-7.508,-5.772,358.961,1.0
6.4166,128.181131,37.941111,6917.0735928,-7.497,-5.79,358.961,1.0
6.4333,128.18113,37.941158,6916.5877416,-7.487,-5.808,358.961,1.0
6.45,128.181128,37.941204,6916.1000616,-7.476,-5.826,358.962,1.0
6.4666,128.181126,37.94125,6915.6108576,-7.466,-5.844,358.962,1.0
6.4833,128.181124,37.941296,6915.119824800001,-7.455,-5.862,358.963,1.0
6.5,128.181122,37.941343,6914.6275728,-7.445,-5.88,358.963,1.0
6.5166,128.18112,37.941389,6914.133492000001,-7.434,-5.897,358.964,1.0
6.5333,128.181118,37.941435,6913.6378872000005,-7.424,-5.915,358.964,1.0
6.55,128.181116,37.941482,6913.1407584,-7.414,-5.933,358.965,1.0
6.5666,128.181114,37.941528,6912.642105600001,-7.404,-5.951,358.965,1.0
6.5833,128.181112,37.941574,6912.141624000001,-7.393,-5.968,358.966,1.0
6.6,128.18111,37.941621,6911.6396184000005,-7.383,-5.986,358.966,1.0
6.6166,128.181108,37.941667,6911.1360888,-7.373,-6.004,358.966,1.0
6.6333,128.181106,37.941713,6910.6310352,-7.363,-6.021,358.967,1.0
6.65,128.181104,37.94176,6910.1244576,-7.353,-6.039,358.967,1.0
6.6666,128.181102,37.941806,6909.616051200001,-7.343,-6.056,358.968,1.0
6.6833,128.1811,37.941852,6909.1061208,-7.333,-6.074,358.968,1.0
6.7,128.181098,37.941899,6908.5946664,-7.323,-6.091,358.969,1.0
6.7166,128.181096,37.941945,6908.081688000001,-7.313,-6.108,358.969,1.0
6.7333,128.181094,37.941991,6907.5668808,-7.304,-6.126,358.969,1.0
6.75,128.181093,37.942038,6907.0508544,-7.294,-6.143,358.97,1.0
6.7666,128.181091,37.942084,6906.5329992,-7.284,-6.16,358.97,1.0
6.7833,128.181089,37.942131,6906.013315200001,-7.275,-6.178,358.971,1.0
6.8,128.181087,37.942177,6905.492412,-7.265,-6.195,358.971,1.0
6.8166,128.181085,37.942223,6904.9699848,-7.256,-6.212,358.972,1.0
6.8333,128.181083,37.94227,6904.4457288,-7.246,-6.229,358.972,1.0
6.85,128.181081,37.942316,6903.9199488,-7.237,-6.247,358.972,1.0
6.8666,128.181079,37.942363,6903.3926448,-7.228,-6.264,358.973,1.0
6.8833,128.181077,37.942409,6902.863512,-7.218,-6.281,358.973,1.0
6.9,128.181075,37.942455,6902.33316,-7.209,-6.298,358.974,1.0
6.9166,128.181073,37.942502,6901.800979200001,-7.2,-6.315,358.974,1.0
6.9333,128.181071,37.942548,6901.267274400001,-7.19,-6.332,358.974,1.0
6.95,128.181069,37.942595,6900.732045600001,-7.181,-6.349,358.975,1.0
6.9666,128.181067,37.942641,6900.194988000001,-7.172,-6.366,358.975,1.0
6.9833,128.181065,37.942688,6899.656711200001,-7.163,-6.383,358.976,1.0
7.0,128.181063,37.942734,6899.1166056,-7.154,-6.4,358.976,1.0
7.0166,128.181062,37.942781,6898.574976,-7.145,-6.417,358.976,1.0
7.0333,128.18106,37.942827,6898.0318224,-7.136,-6.434,358.977,1.0
7.05,128.181058,37.942874,6897.4868400000005,-7.127,-6.451,358.977,1.0
7.0666,128.181056,37.94292,6896.940638400001,-7.118,-6.467,358.978,1.0
7.0833,128.181054,37.942967,6896.392608,-7.109,-6.484,358.978,1.0
7.1,128.181052,37.943013,6895.8430536000005,-7.1,-6.501,358.979,1.0
7.1166,128.18105,37.94306,6895.2919752,-7.091,-6.518,358.979,1.0
7.1333,128.181048,37.943106,6894.739372800001,-7.083,-6.534,358.979,1.0
7.15,128.181046,37.943153,6894.1849416000005,-7.074,-6.551,358.98,1.0
7.1666,128.181044,37.943199,6893.6289864,-7.065,-6.568,358.98,1.0
7.1833,128.181042,37.943246,6893.071812,-7.056,-6.585,358.981,1.0
7.2,128.18104,37.943292,6892.5128088,-7.048,-6.601,358.981,1.0
7.2166,128.181038,37.943339,6891.9519768,-7.039,-6.618,358.981,1.0
7.2333,128.181036,37.943385,6891.3899255999995,-7.03,-6.635,358.982,1.0
7.25,128.181035,37.943432,6890.8272648,-7.036,-6.65,358.981,1.0
7.2666,128.181033,37.943478,6890.26308,-7.056,-6.665,358.98,1.0
7.2833,128.181031,37.943525,6889.697980800001,-7.09,-6.678,358.979,1.0
7.3,128.181029,37.943572,6889.1313576,-7.134,-6.692,358.977,1.0
7.3166,128.181027,37.943618,6888.563210400001,-7.188,-6.705,358.976,1.0
7.3333,128.181025,37.943665,6887.9941488,-7.249,-6.718,358.975,1.0
7.35,128.181023,37.943711,6887.4235632,-7.317,-6.73,358.974,1.0
7.3666,128.181021,37.943758,6886.8514536,-7.39,-6.743,358.974,1.0
7.3833,128.181019,37.943804,6886.278124800001,-7.468,-6.756,358.974,1.0
7.4,128.181017,37.943851,6885.703272,-7.549,-6.768,358.973,1.0
7.4166,128.181015,37.943898,6885.1272,-7.632,-6.781,358.974,1.0
7.4333,128.181013,37.943944,6884.549604,-7.717,-6.794,358.974,1.0
7.45,128.181011,37.943991,6883.970484000001,-7.805,-6.806,358.974,1.0
7.4666,128.18101,37.944038,6883.38984,-7.893,-6.819,358.974,1.0
7.4833,128.181008,37.944084,6882.8079768,-7.983,-6.832,358.975,1.0
7.5,128.181006,37.944131,6882.2248944,-8.073,-6.845,358.976,1.0
7.5166,128.181004,37.944177,6881.639983200001,-8.165,-6.858,358.976,1.0
7.5333,128.181002,37.944224,6881.0538528,-8.256,-6.87,358.977,1.0
7.55,128.181,37.944271,6880.4661984,-8.349,-6.883,358.978,1.0
7.5666,128.180998,37.944317,6879.877020000001,-8.442,-6.896,358.978,1.0
7.5833,128.180996,37.944364,6879.2866224,-8.535,-6.909,358.979,1.0
7.6,128.180994,37.944411,6878.694700800001,-8.628,-6.922,358.98,1.0
7.6166,128.180992,37.944457,6878.101560000001,-8.722,-6.935,358.981,1.0
7.6333,128.18099,37.944504,6877.5065904,-8.816,-6.948,358.982,1.0
7.65,128.180988,37.944551,6876.910401600001,-8.91,-6.962,358.983,1.0
7.6666,128.180987,37.944597,6876.3129936,-9.005,-6.975,358.984,1.0
7.6833,128.180985,37.944644,6875.713756800001,-9.1,-6.988,358.985,1.0
7.7,128.180983,37.944691,6875.113300800001,-9.195,-7.001,358.986,1.0
7.7166,128.180981,37.944738,6874.5116256,-9.291,-7.015,358.987,1.0
7.7333,128.180979,37.944784,6873.9084264,-9.387,-7.028,358.988,1.0
7.75,128.180977,37.944831,6873.3037032,-9.484,-7.041,358.989,1.0
7.7666,128.180975,37.944878,6872.697456000001,-9.581,-7.055,358.99,1.0
7.7833,128.180973,37.944924,6872.0899896,-9.678,-7.068,358.991,1.0
7.8,128.180971,37.944971,6871.4809992,-9.776,-7.082,358.992,1.0
7.8166,128.180969,37.945018,6870.8707896,-9.875,-7.095,358.993,1.0
7.8333,128.180967,37.945065,6870.258751200001,-9.974,-7.109,358.994,1.0
7.85,128.180965,37.945111,6869.6457984,-10.075,-7.122,358.995,1.0
7.8666,128.180964,37.945158,6869.0313216,-10.176,-7.136,358.997,1.0
7.8833,128.180962,37.945205,6868.4153208,-10.278,-7.149,358.998,1.0
7.9,128.18096,37.945252,6867.797796000001,-10.381,-7.162,358.999,1.0
7.9166,128.180958,37.945298,6867.179052,-10.484,-7.176,359.0,1.0
7.9333,128.180956,37.945345,6866.558784000001,-10.588,-7.189,359.001,1.0
7.95,128.180954,37.945392,6865.937296800001,-10.693,-7.202,359.002,1.0
7.9666,128.180952,37.945439,6865.3142856,-10.798,-7.215,359.004,1.0
7.9833,128.18095,37.945486,6864.689750400001,-10.903,-7.229,359.005,1.0
8.0,128.180948,37.945532,6864.063996000001,-11.007,-7.241,359.006,1.0
8.0166,128.180946,37.945579,6863.4367176000005,-11.112,-7.254,359.007,1.0
8.0333,128.180944,37.945626,6862.807915200001,-11.216,-7.267,359.008,1.0
8.05,128.180942,37.945673,6862.1775888,-11.319,-7.279,359.01,1.0
8.0666,128.18094,37.94572,6861.5460432,-11.422,-7.291,359.011,1.0
8.0833,128.180939,37.945766,6860.9129736,-11.525,-7.303,359.012,1.0
8.1,128.180937,37.945813,6860.27838,-11.626,-7.315,359.013,1.0
8.1166,128.180935,37.94586,6859.6425672000005,-11.727,-7.327,359.014,1.0
8.1333,128.180933,37.945907,6859.0049256,-11.826,-7.339,359.016,1.0
8.15,128.180931,37.945954,6858.3660648000005,-11.923,-7.351,359.017,1.0
8.1666,128.180929,37.946001,6857.72568,-12.019,-7.363,359.018,1.0
8.1833,128.180927,37.946048,6857.084076,-12.112,-7.374,359.019,1.0
8.2,128.180925,37.946094,6856.4406432,-12.203,-7.386,359.021,1.0
8.2166,128.180923,37.946141,6855.795686400001,-12.291,-7.399,359.022,1.0
8.2333,128.180921,37.946188,6855.1495104000005,-12.377,-7.411,359.024,1.0
8.25,128.180919,37.946235,6854.501810400001,-12.462,-7.424,359.025,1.0
8.2666,128.180917,37.946282,6853.8525864,-12.544,-7.437,359.027,1.0
8.2833,128.180915,37.946329,6853.201838400001,-12.625,-7.45,359.029,1.0
8.3,128.180913,37.946376,6852.5495664,-12.704,-7.464,359.03,1.0
8.3166,128.180911,37.946423,6851.8960752,-12.781,-7.478,359.032,1.0
8.3333,128.18091,37.94647,6851.2407552,-12.856,-7.493,359.034,1.0
8.35,128.180908,37.946516,6850.584216,-12.929,-7.509,359.036,1.0
8.3666,128.180906,37.946563,6849.925848,-12.999,-7.525,359.039,1.0
8.3833,128.180904,37.94661,6849.266260800001,-13.067,-7.541,359.041,1.0
8.4,128.180902,37.946657,6848.6048448,-13.13,-7.559,359.044,1.0
8.4166,128.1809,37.946704,6847.9416,-13.19,-7.577,359.047,1.0
8.4333,128.180898,37.946751,6847.277136000001,-13.245,-7.595,359.05,1.0
8.45,128.180896,37.946798,6846.6108432,-13.296,-7.615,359.054,1.0
8.4666,128.180894,37.946845,6845.9427216,-13.342,-7.634,359.057,1.0
8.4833,128.180892,37.946892,6845.273076,-13.381,-7.655,359.061,1.0
8.5,128.18089,37.946939,6844.601906400001,-13.416,-7.675,359.065,1.0
8.5166,128.180888,37.946986,6843.9286032,-13.444,-7.696,359.069,1.0
8.5333,128.180886,37.947033,6843.2540808,-13.466,-7.717,359.074,1.0
8.55,128.180884,37.94708,6842.577424800001,-13.483,-7.737,359.078,1.0
8.5666,128.180882,37.947127,6841.8992448,-13.495,-7.758,359.082,1.0
8.5833,128.180881,37.947174,6841.219236,-13.501,-7.778,359.086,1.0
8.6,128.180879,37.947221,6840.5373984,-13.503,-7.799,359.089,1.0
8.6166,128.180877,37.947268,6839.8540368,-13.501,-7.819,359.093,1.0
8.6333,128.180875,37.947315,6839.168846400001,-13.494,-7.84,359.097,1.0
8.65,128.180873,37.947362,6838.4818272,-13.484,-7.86,359.101,1.0
8.6666,128.180871,37.947409,6837.793284000001,-13.47,-7.88,359.104,1.0
8.6833,128.180869,37.947456,6837.102912,-13.453,-7.901,359.107,1.0
8.7,128.180867,37.947503,6836.410711200001,-13.434,-7.921,359.111,1.0
8.7166,128.180865,37.94755,6835.716986400001,-13.412,-7.941,359.114,1.0
8.7333,128.180863,37.947597,6835.0214328,-13.388,-7.961,359.117,1.0
8.75,128.180861,37.947644,6834.3240504000005,-13.361,-7.981,359.12,1.0
8.7666,128.180859,37.947691,6833.6248392,-13.333,-8.001,359.123,1.0
8.7833,128.180857,37.947738,6832.924104000001,-13.303,-8.021,359.126,1.0
8.8,128.180855,37.947785,6832.2215400000005,-13.271,-8.041,359.129,1.0
8.8166,128.180853,37.947832,6831.517147200001,-13.238,-8.061,359.132,1.0
8.8333,128.180851,37.947879,6830.8112304,-13.204,-8.081,359.135,1.0
8.85,128.180849,37.947926,6830.10318,-13.168,-8.101,359.137,1.0
8.8666,128.180848,37.947973,6829.3936056,-13.132,-8.12,359.14,1.0
8.8833,128.180846,37.948021,6828.6825072,-13.094,-8.14,359.142,1.0
8.9,128.180844,37.948068,6827.9692752,-13.055,-8.16,359.145,1.0
8.9166,128.180842,37.948115,6827.254519200001,-13.015,-8.179,359.147,1.0
8.9333,128.18084,37.948162,6826.5379344,-12.974,-8.198,359.15,1.0
8.95,128.180838,37.948209,6825.8195208,-12.932,-8.218,359.152,1.0
8.9666,128.180836,37.948256,6825.099278400001,-12.89,-8.237,359.154,1.0
8.9833,128.180834,37.948303,6824.377512,-12.847,-8.256,359.156,1.0
9.0,128.180832,37.94835,6823.6539168,-12.803,-8.275,359.158,1.0
9.0166,128.18083,37.948397,6822.928492800001,-12.759,-8.294,359.16,1.0
9.0333,128.180828,37.948445,6822.20124,-12.714,-8.313,359.162,1.0
9.05,128.180826,37.948492,6821.472463200001,-12.668,-8.332,359.164,1.0
9.0666,128.180824,37.948539,6820.7418576,-12.622,-8.351,359.166,1.0
9.0833,128.180822,37.948586,6820.0094232,-12.576,-8.37,359.168,1.0
9.1,128.18082,37.948633,6819.27516,-12.529,-8.389,359.17,1.0
9.1166,128.180818,37.94868,6818.539068,-12.482,-8.407,359.172,1.0
9.1333,128.180817,37.948728,6817.801452000001,-12.435,-8.426,359.173,1.0
9.15,128.180815,37.948775,6817.061702399999,-12.387,-8.445,359.175,1.0
9.1666,128.180813,37.948822,6816.320428800001,-12.339,-8.463,359.177,1.0
9.1833,128.180811,37.948869,6815.5776312,-12.29,-8.482,359.178,1.0
9.2,128.180809,37.948916,6814.8327,-12.241,-8.501,359.18,1.0
9.2166,128.180807,37.948963,6814.0862448,-12.192,-8.519,359.182,1.0
9.2333,128.180805,37.949011,6813.3379608000005,-12.143,-8.538,359.183,1.0
9.25,128.180803,37.949058,6812.587848,-12.094,-8.557,359.185,1.0
9.2666,128.180801,37.949105,6811.835906400001,-12.044,-8.575,359.186,1.0
9.2833,128.180799,37.949152,6811.082136,-11.994,-8.594,359.188,1.0
9.3,128.180797,37.9492,6810.3268416,-11.944,-8.613,359.189,1.0
9.3166,128.180795,37.949247,6809.5697184,-11.894,-8.631,359.19,1.0
9.3333,128.180793,37.949294,6808.8107664,-11.843,-8.65,359.192,1.0
9.35,128.180791,37.949341,6808.0502904,-11.792,-8.668,359.193,1.0
9.3666,128.180789,37.949388,6807.2876808,-11.742,-8.687,359.194,1.0
9.3833,128.180788,37.949436,6806.5235472,-11.691,-8.705,359.196,1.0
9.4,128.180786,37.949483,6805.7575848,-11.639,-8.724,359.197,1.0
9.4166,128.180784,37.94953,6804.9897936,-11.588,-8.743,359.198,1.0
9.4333,128.180782,37.949577,6804.2204784000005,-11.537,-8.761,359.199,1.0
9.45,128.18078,37.949625,6803.449029599999,-11.485,-8.78,359.201,1.0
9.4666,128.180778,37.949672,6802.676056800001,-11.434,-8.798,359.202,1.0
9.4833,128.180776,37.949719,6801.9012552,-11.382,-8.817,359.203,1.0
9.5,128.180774,37.949767,6801.1249296,-11.33,-8.836,359.204,1.0
9.5166,128.180772,37.949814,6800.346470400001,-11.278,-8.854,359.205,1.0
9.5333,128.18077,37.949861,6799.566487200001,-11.226,-8.873,359.206,1.0
9.55,128.180768,37.949909,6798.7846752,-11.174,-8.892,359.207,1.0
9.5666,128.180766,37.949956,6798.0010344,-11.121,-8.91,359.208,1.0
9.5833,128.180764,37.950003,6797.215869600001,-11.069,-8.929,359.209,1.0
9.6,128.180763,37.95005,6796.428876,-11.017,-8.947,359.21,1.0
9.6166,128.180761,37.950098,6795.6397488,-10.964,-8.966,359.211,1.0
9.6333,128.180759,37.950145,6794.8494024,-10.911,-8.985,359.212,1.0
9.65,128.180757,37.950192,6794.0569224,-10.859,-9.003,359.213,1.0
9.6666,128.180755,37.95024,6793.262918400001,-10.806,-9.022,359.214,1.0
9.6833,128.180753,37.950287,6792.4667808,-10.753,-9.041,359.215,1.0
9.7,128.180751,37.950334,6791.669424000001,-10.7,-9.059,359.216,1.0
9.7166,128.180749,37.950382,6790.869933600001,-10.647,-9.078,359.217,1.0
9.7333,128.180747,37.950429,6790.0686144,-10.593,-9.097,359.218,1.0
9.75,128.180745,37.950477,6789.2657712,-10.54,-9.115,359.219,1.0
9.7666,128.180743,37.950524,6788.4610992,-10.487,-9.134,359.22,1.0
9.7833,128.180741,37.950571,6787.6545984,-10.433,-9.153,359.221,1.0
9.8,128.18074,37.950619,6786.846573600001,-10.38,-9.171,359.221,1.0
9.8166,128.180738,37.950666,6786.036720000001,-10.326,-9.19,359.222,1.0
9.8333,128.180736,37.950713,6785.225037600001,-10.272,-9.209,359.223,1.0
9.85,128.180734,37.950761,6784.4115264,-10.219,-9.227,359.224,1.0
9.8666,128.180732,37.950808,6783.5961864,-10.165,-9.246,359.225,1.0
9.8833,128.18073,37.950856,6782.779322400001,-10.111,-9.265,359.225,1.0
9.9,128.180728,37.950903,6781.9606296,-10.057,-9.283,359.226,1.0
9.9166,128.180726,37.950951,6781.1401080000005,-10.002,-9.302,359.227,1.0
9.9333,128.180724,37.950998,6780.3180624,-9.948,-9.321,359.228,1.0
9.95,128.180722,37.951045,6779.493883200001,-9.894,-9.339,359.228,1.0
9.9666,128.180721,37.951093,6778.66818,-9.839,-9.358,359.229,1.0
9.9833,128.180719,37.95114,6777.840647999999,-9.785,-9.377,359.23,1.0
10.0,128.180717,37.951188,6777.011592000001,-9.73,-9.395,359.23,1.0
10.0166,128.180715,37.951235,6776.180402399999,-9.675,-9.414,359.231,1.0
10.0333,128.180713,37.951283,6775.3476888,-9.621,-9.433,359.232,1.0
10.05,128.180711,37.95133,6774.513146400001,-9.566,-9.451,359.233,1.0
10.0666,128.180709,37.951378,6773.6770799999995,-9.511,-9.47,359.233,1.0
10.0833,128.180707,37.951425,6772.8391848,-9.455,-9.489,359.234,1.0
10.1,128.180705,37.951473,6771.999156000001,-9.4,-9.507,359.234,1.0
10.1166,128.180703,37.95152,6771.157908,-9.345,-9.526,359.235,1.0
10.1333,128.180702,37.951568,6770.3145264,-9.29,-9.545,359.236,1.0
10.15,128.1807,37.951615,6769.4696208,-9.234,-9.564,359.236,1.0
10.1666,128.180698,37.951663,6768.6228864,-9.178,-9.582,359.237,1.0
10.1833,128.180696,37.95171,6767.7743232,-9.123,-9.601,359.238,1.0
10.2,128.180694,37.951758,6766.9239312,-9.067,-9.62,359.238,1.0
10.2166,128.180692,37.951805,6766.0717104000005,-9.009,-9.638,359.239,1.0
10.2333,128.18069,37.951853,6765.217965600001,-8.949,-9.657,359.239,1.0
10.25,128.180688,37.9519,6764.3620872,-8.888,-9.675,359.24,1.0
10.2666,128.180687,37.951948,6763.5046848,-8.825,-9.693,359.241,1.0
10.2833,128.180685,37.951995,6762.6454536,-8.76,-9.711,359.242,1.0
10.3,128.180683,37.952043,6761.7843936,-8.695,-9.73,359.242,1.0
10.3166,128.180681,37.95209,6760.921504800001,-8.629,-9.748,359.243,1.0
10.3333,128.180679,37.952138,6760.057092000001,-8.562,-9.766,359.243,1.0
10.35,128.180677,37.952185,6759.1905456,-8.494,-9.784,359.244,1.0
10.3666,128.180675,37.952233,6758.3224752,-8.426,-9.803,359.244,1.0
10.3833,128.180673,37.952281,6757.4528808000005,-8.358,-9.821,359.245,1.0
10.4,128.180672,37.952328,6756.5811527999995,-8.289,-9.84,359.245,1.0
10.4166,128.18067,37.952376,6755.707900800001,-8.22,-9.858,359.245,1.0
10.4333,128.180668,37.952423,6754.8328200000005,-8.151,-9.877,359.246,1.0
10.45,128.180666,37.952471,6753.955910400001,-8.081,-9.895,359.246,1.0
10.4666,128.180664,37.952519,6753.0774768,-8.012,-9.914,359.247,1.0
10.4833,128.180662,37.952566,6752.1969096,-7.942,-9.932,359.247,1.0
10.5,128.18066,37.952614,6751.3148184,-7.872,-9.951,359.247,1.0
10.5166,128.180658,37.952661,6750.4312032,-7.802,-9.969,359.248,1.0
10.5333,128.180657,37.952709,6749.5454544,-7.731,-9.988,359.248,1.0
10.55,128.180655,37.952757,6748.658181600001,-7.661,-10.006,359.248,1.0
10.5666,128.180653,37.952804,6747.76908,-7.59,-10.025,359.249,1.0
10.5833,128.180651,37.952852,6746.8784544,-7.52,-10.044,359.249,1.0
10.6,128.180649,37.9529,6745.986000000001,-7.449,-10.062,359.249,1.0
10.6166,128.180647,37.952947,6745.0917168,-7.378,-10.081,359.25,1.0
10.6333,128.180646,37.952995,6744.1956048,-7.307,-10.1,359.25,1.0
10.65,128.180644,37.953042,6743.297664000001,-7.236,-10.118,359.25,1.0
10.6666,128.180642,37.95309,6742.3981992,-7.164,-10.137,359.25,1.0
10.6833,128.18064,37.953138,6741.496905600001,-7.093,-10.156,359.251,1.0
10.7,128.180638,37.953185,6740.594088000001,-7.021,-10.174,359.251,1.0
10.7166,128.180636,37.953233,6739.6894416000005,-6.95,-10.193,359.251,1.0
10.7333,128.180634,37.953281,6738.7829664,-6.878,-10.212,359.252,1.0
10.75,128.180633,37.953329,6737.8746624000005,-6.806,-10.23,359.252,1.0
10.7666,128.180631,37.953376,6736.9648344,-6.733,-10.249,359.252,1.0
10.7833,128.180629,37.953424,6736.053177600001,-6.661,-10.268,359.252,1.0
10.8,128.180627,37.953472,6735.139692000001,-6.589,-10.286,359.252,1.0
10.8166,128.180625,37.953519,6734.2243776000005,-6.516,-10.305,359.253,1.0
10.8333,128.180623,37.953567,6733.3075392,-6.443,-10.324,359.253,1.0
10.85,128.180622,37.953615,6732.388872,-6.371,-10.343,359.253,1.0
10.8666,128.18062,37.953663,6731.4686808,-6.297,-10.361,359.253,1.0
10.8833,128.180618,37.95371,6730.546356000001,-6.224,-10.38,359.254,1.0
10.9,128.180616,37.953758,6729.6225072,-6.151,-10.399,359.254,1.0
10.9166,128.180614,37.953806,6728.6968296,-6.077,-10.418,359.254,1.0
10.9333,128.180612,37.953854,6727.769628000001,-6.004,-10.436,359.254,1.0
10.95,128.180611,37.953901,6726.840597600001,-5.93,-10.455,359.254,1.0
10.9666,128.180609,37.953949,6725.909738400001,-5.856,-10.474,359.254,1.0
10.9833,128.180607,37.953997,6724.977355200001,-5.782,-10.492,359.255,1.0
11.0,128.180605,37.954045,6724.042838400001,-5.708,-10.511,359.255,1.0
11.0166,128.180603,37.954092,6723.106797600001,-5.633,-10.53,359.255,1.0
11.0333,128.180602,37.95414,6722.169232800001,-5.559,-10.549,359.255,1.0
11.05,128.1806,37.954188,6721.2295343999995,-5.484,-10.567,359.255,1.0
11.0666,128.180598,37.954236,6720.288312,-5.409,-10.586,359.255,1.0
11.0833,128.180596,37.954284,6719.345565600001,-5.334,-10.605,359.256,1.0
11.1,128.180594,37.954331,6718.4006856000005,-5.258,-10.624,359.256,1.0
11.1166,128.180593,37.954379,6717.4542816,-5.183,-10.642,359.256,1.0
11.1333,128.180591,37.954427,6716.5060488,-5.107,-10.661,359.256,1.0
11.15,128.180589,37.954475,6715.556292,-5.032,-10.68,359.256,1.0
11.1666,128.180587,37.954523,6714.6047064,-4.956,-10.698,359.256,1.0
11.1833,128.180585,37.95457,6713.6512920000005,-4.88,-10.717,359.256,1.0
11.2,128.180584,37.954618,6712.6960488,-4.803,-10.736,359.256,1.0
11.2166,128.180582,37.954666,6711.7392816,-4.727,-10.755,359.257,1.0
11.2333,128.18058,37.954714,6710.7806856,-4.65,-10.773,359.257,1.0
11.25,128.180578,37.954762,6709.820260800001,-4.573,-10.792,359.257,1.0
11.2666,128.180576,37.95481,6708.8580071999995,-4.496,-10.811,359.257,1.0
11.2833,128.180575,37.954858,6707.8942296,-4.419,-10.829,359.257,1.0
11.3,128.180573,37.954905,6706.9286232,-4.342,-10.848,359.257,1.0
11.3166,128.180571,37.954953,6705.961492800001,-4.264,-10.867,359.257,1.0
11.3333,128.180569,37.955001,6704.992533600001,-4.187,-10.885,359.257,1.0
11.35,128.180568,37.955049,6704.0217456,-4.109,-10.904,359.257,1.0
11.3666,128.180566,37.955097,6703.0491288,-4.031,-10.923,359.257,1.0
11.3833,128.180564,37.955145,6702.074988,-3.952,-10.941,359.257,1.0
11.4,128.180562,37.955193,6701.0990184,-3.874,-10.96,359.257,1.0
11.4166,128.180561,37.955241,6700.121220000001,-3.795,-10.979,359.258,1.0
11.4333,128.180559,37.955289,6699.1418976,-3.717,-10.997,359.258,1.0
11.45,128.180557,37.955336,6698.160746400001,-3.638,-11.016,359.258,1.0
11.4666,128.180555,37.955384,6697.1777664,-3.558,-11.035,359.258,1.0
11.4833,128.180553,37.955432,6696.1929576,-3.479,-11.053,359.258,1.0
11.5,128.180552,37.95548,6695.206624800001,-3.399,-11.072,359.258,1.0
11.5166,128.18055,37.955528,6694.2184632,-3.32,-11.091,359.258,1.0
11.5333,128.180548,37.955576,6693.2287776,-3.24,-11.109,359.258,1.0
11.55,128.180546,37.955624,6692.2369584,-3.16,-11.128,359.258,1.0
11.5666,128.180545,37.955672,6691.243615200001,-3.079,-11.147,359.258,1.0
11.5833,128.180543,37.95572,6690.248748,-2.999,-11.165,359.258,1.0
11.6,128.180541,37.955768,6689.251747200001,-2.918,-11.184,359.258,1.0
11.6166,128.180539,37.955816,6688.253222400001,-2.837,-11.202,359.258,1.0
11.6333,128.180538,37.955864,6687.2528688,-2.756,-11.221,359.258,1.0
11.65,128.180536,37.955912,6686.2509912000005,-2.675,-11.24,359.258,1.0
11.6666,128.180534,37.95596,6685.2472848,-2.593,-11.258,359.258,1.0
11.6833,128.180533,37.956008,6684.2417496,-2.511,-11.277,359.258,1.0
11.7,128.180531,37.956056,6683.2343856,-2.43,-11.295,359.258,1.0
11.7166,128.180529,37.956104,6682.225497600001,-2.348,-11.314,359.258,1.0
11.7333,128.180527,37.956152,6681.2147808,-2.265,-11.333,359.258,1.0
11.75,128.180526,37.9562,6680.2022352,-2.183,-11.351,359.258,1.0
11.7666,128.180524,37.956248,6679.1881656000005,-2.1,-11.37,359.258,1.0
11.7833,128.180522,37.956296,6678.1722672000005,-2.017,-11.388,359.258,1.0
11.8,128.180521,37.956344,6677.15454,-1.934,-11.407,359.258,1.0
11.8166,128.180519,37.956392,6676.1352888,-1.851,-11.425,359.258,1.0
11.8333,128.180517,37.95644,6675.113904,-1.768,-11.444,359.258,1.0
11.85,128.180515,37.956488,6674.0913,-1.684,-11.462,359.258,1.0
11.8666,128.180514,37.956536,6673.0665624,-1.6,-11.481,359.258,1.0
11.8833,128.180512,37.956584,6672.0403008,-1.516,-11.499,359.258,1.0
11.9,128.18051,37.956632,6671.012210400001,-1.432,-11.518,359.258,1.0
11.9166,128.180509,37.95668,6669.9822912,-1.348,-11.536,359.258,1.0
11.9333,128.180507,37.956728,6668.9508479999995,-1.263,-11.555,359.258,1.0
11.95,128.180505,37.956776,6667.917576,-1.178,-11.573,359.258,1.0
11.9666,128.180504,37.956825,6666.8824752,-1.093,-11.592,359.258,1.0
11.9833,128.180502,37.956873,6665.8455456,-1.008,-11.61,359.258,1.0
12.0,128.1805,37.956921,6664.807092000001,-0.922,-11.629,359.258,1.0
12.0166,128.180498,37.956969,6663.766809600001,-0.837,-11.647,359.258,1.0
12.0333,128.180497,37.957017,6662.7250032,-0.751,-11.666,359.258,1.0
12.05,128.180495,37.957065,6661.681063200001,-0.665,-11.684,359.258,1.0
12.0666,128.180493,37.957113,6660.6355992,-0.579,-11.703,359.258,1.0
12.0833,128.180492,37.957161,6659.588611200001,-0.492,-11.721,359.258,1.0
12.1,128.18049,37.957209,6658.5394896,-0.406,-11.74,359.258,1.0
12.1166,128.180488,37.957258,6657.488844,-0.319,-11.758,359.258,1.0
12.1333,128.180487,37.957306,6656.436674400001,-0.232,-11.776,359.258,1.0
12.15,128.180485,37.957354,6655.3823712,-0.144,-11.795,359.258,1.0
12.1666,128.180483,37.957402,6654.326544,-0.057,-11.813,359.257,1.0
12.1833,128.180482,37.95745,6653.2688880000005,0.03,-11.832,359.257,1.0
12.2,128.18048,37.957498,6652.2094032,0.118,-11.85,359.257,1.0
12.2166,128.180479,37.957546,6651.1483944,0.206,-11.868,359.257,1.0
12.2333,128.180477,37.957595,6650.085556800001,0.294,-11.887,359.257,1.0
12.25,128.180475,37.957643,6649.0208904,0.383,-11.905,359.257,1.0
12.2666,128.180474,37.957691,6647.9547,0.471,-11.924,359.257,1.0
12.2833,128.180472,37.957739,6646.8866808,0.56,-11.942,359.257,1.0
12.3,128.18047,37.957787,6645.8168328,0.649,-11.96,359.257,1.0
12.3166,128.180469,37.957836,6644.745460800001,0.739,-11.979,359.257,1.0
12.3333,128.180467,37.957884,6643.6719552,0.828,-11.997,359.257,1.0
12.35,128.180465,37.957932,6642.5972304,0.918,-12.015,359.257,1.0
12.3666,128.180464,37.95798,6641.520372,1.008,-12.034,359.257,1.0
12.3833,128.180462,37.958028,6640.4419896,1.098,-12.052,359.257,1.0
12.4,128.180461,37.958077,6639.361778400001,1.189,-12.07,359.257,1.0
12.4166,128.180459,37.958125,6638.2797384000005,1.279,-12.088,359.257,1.0
12.4333,128.180457,37.958173,6637.195869600001,1.37,-12.107,359.256,1.0
12.45,128.180456,37.958221,6636.1104768000005,1.461,-12.125,359.256,1.0
12.4666,128.180454,37.958269,6635.023255200001,1.553,-12.143,359.256,1.0
12.4833,128.180452,37.958318,6633.934509600001,1.644,-12.162,359.256,1.0
12.5,128.180451,37.958366,6632.8439352000005,1.736,-12.18,359.256,1.0
12.5166,128.180449,37.958414,6631.751532,1.828,-12.198,359.256,1.0
12.5333,128.180448,37.958462,6630.657300000001,1.92,-12.216,359.256,1.0
12.55,128.180446,37.958511,6629.561544,2.013,-12.235,359.256,1.0
12.5666,128.180445,37.958559,6628.4639592,2.105,-12.253,359.256,1.0
12.5833,128.180443,37.958607,6627.3645456,2.198,-12.271,359.256,1.0
12.6,128.180441,37.958656,6626.2633032,2.291,-12.289,359.256,1.0
12.6166,128.18044,37.958704,6625.1605368,2.384,-12.308,359.256,1.0
12.6333,128.180438,37.958752,6624.055941600001,2.478,-12.326,359.256,1.0
12.65,128.180437,37.9588,6622.9498224,2.571,-12.344,359.255,1.0
12.6666,128.180435,37.958849,6621.841569600001,2.665,-12.362,359.255,1.0
12.6833,128.180433,37.958897,6620.731792800001,2.759,-12.38,359.255,1.0
12.7,128.180432,37.958945,6619.6201872,2.854,-12.398,359.255,1.0
12.7166,128.18043,37.958994,6618.5070576,2.948,-12.417,359.255,1.0
12.7333,128.180429,37.959042,6617.3920992,3.043,-12.435,359.255,1.0
12.75,128.180427,37.95909,6616.275312,3.138,-12.453,359.255,1.0
12.7666,128.180426,37.959139,6615.156696000001,3.233,-12.471,359.255,1.0
12.7833,128.180424,37.959187,6614.036556000001,3.329,-12.489,359.255,1.0
12.8,128.180423,37.959235,6612.914587200001,3.425,-12.507,359.255,1.0
12.8166,128.180421,37.959284,6611.7907896,3.52,-12.525,359.255,1.0
12.8333,128.18042,37.959332,6610.665468,3.617,-12.544,359.254,1.0
12.85,128.180418,37.95938,6609.5383176000005,3.713,-12.562,359.254,1.0
12.8666,128.180416,37.959429,6608.409338400001,3.809,-12.58,359.254,1.0
12.8833,128.180415,37.959477,6607.2785304,3.906,-12.598,359.254,1.0
12.9,128.180413,37.959525,6606.1461984,4.003,-12.616,359.254,1.0
12.9166,128.180412,37.959574,6605.0120376,4.101,-12.634,359.254,1.0
12.9333,128.18041,37.959622,6603.876048,4.198,-12.652,359.254,1.0
12.95,128.180409,37.959671,6602.7385343999995,4.296,-12.67,359.254,1.0
12.9666,128.180407,37.959719,6601.598887200001,4.394,-12.688,359.254,1.0
12.9833,128.180406,37.959767,6600.4580208,4.492,-12.706,359.254,1.0
13.0,128.180404,37.959816,6599.3150208,4.59,-12.724,359.253,1.0
13.0166,128.180403,37.959864,6598.1704968,4.689,-12.742,359.253,1.0
13.0333,128.180401,37.959913,6597.024144,4.788,-12.76,359.253,1.0
13.0499,128.1804,37.959961,6595.8759624,4.887,-12.778,359.253,1.0
13.0666,128.180398,37.960009,6594.725952000001,4.986,-12.796,359.253,1.0
13.0833,128.180397,37.960058,6593.5744176,5.085,-12.814,359.253,1.0
13.1,128.180395,37.960106,6592.421054400001,5.185,-12.832,359.253,1.0
13.1166,128.180394,37.960155,6591.2658624,5.285,-12.85,359.253,1.0
13.1333,128.180392,37.960203,6590.109146400001,5.385,-12.868,359.253,1.0
13.15,128.180391,37.960252,6588.9506016000005,5.486,-12.886,359.252,1.0
13.1666,128.180389,37.9603,6587.790228000001,5.587,-12.904,359.252,1.0
13.1833,128.180388,37.960349,6586.6280256,5.687,-12.922,359.252,1.0
13.2,128.180387,37.960397,6585.4642992,5.789,-12.94,359.252,1.0
13.2166,128.180385,37.960446,6584.298744,5.89,-12.958,359.252,1.0
13.2333,128.180384,37.960494,6583.13136,5.992,-12.976,359.252,1.0
13.25,128.180382,37.960542,6581.962452000001,6.093,-12.993,359.252,1.0
13.2666,128.180381,37.960591,6580.791715200001,6.195,-13.011,359.252,1.0
13.2833,128.180379,37.960639,6579.6191496,6.298,-13.029,359.252,1.0
13.3,128.180378,37.960688,6578.4447552,6.4,-13.047,359.251,1.0
13.3166,128.180376,37.960736,6577.268836800001,6.503,-13.065,359.251,1.0
13.3333,128.180375,37.960785,6576.0910896,6.606,-13.083,359.251,1.0
13.35,128.180374,37.960833,6574.9115136,6.709,-13.101,359.251,1.0
13.3666,128.180372,37.960882,6573.7301088,6.813,-13.118,359.251,1.0
13.3833,128.180371,37.96093,6572.54718,6.916,-13.136,359.251,1.0
13.4,128.180369,37.960979,6571.3624224000005,7.02,-13.154,359.251,1.0
13.4166,128.180368,37.961028,6570.175836,7.124,-13.172,359.251,1.0
13.4333,128.180366,37.961076,6568.9874208,7.229,-13.19,359.251,1.0
13.45,128.180365,37.961125,6567.7974816000005,7.333,-13.207,359.25,1.0
13.4666,128.180364,37.961173,6566.6057136,7.438,-13.225,359.25,1.0
13.4833,128.180362,37.961222,6565.4121168,7.543,-13.243,359.25,1.0
13.5,128.180361,37.96127,6564.216996,7.649,-13.261,359.25,1.0
13.5166,128.180359,37.961319,6563.020046400001,7.754,-13.278,359.25,1.0
13.5333,128.180358,37.961367,6561.821268000001,7.86,-13.296,359.25,1.0
13.55,128.180357,37.961416,6560.620660800001,7.966,-13.314,359.25,1.0
13.5666,128.180355,37.961465,6559.418224800001,8.072,-13.332,359.25,1.0
13.5833,128.180354,37.961513,6558.214264800001,8.179,-13.349,359.25,1.0
13.6,128.180352,37.961562,6557.008476,8.286,-13.367,359.249,1.0
13.6166,128.180351,37.96161,6555.8011632,8.393,-13.385,359.249,1.0
13.6333,128.18035,37.961659,6554.5917168,8.5,-13.402,359.249,1.0
13.65,128.180348,37.961707,6553.3807464,8.607,-13.42,359.249,1.0
13.6666,128.180347,37.961756,6552.1679472000005,8.715,-13.438,359.249,1.0
13.6833,128.180346,37.961805,6550.953319200001,8.823,-13.455,359.249,1.0
13.7,128.180344,37.961853,6549.7371672,8.931,-13.473,359.249,1.0
13.7166,128.180343,37.961902,6548.519186400001,9.04,-13.491,359.249,1.0
13.7333,128.180342,37.961951,6547.299376800001,9.148,-13.508,359.249,1.0
13.75,128.18034,37.961999,6546.077738400001,9.257,-13.526,359.248,1.0
13.7666,128.180339,37.962048,6544.8542712,9.366,-13.543,359.248,1.0
13.7833,128.180338,37.962096,6543.62928,9.476,-13.561,359.248,1.0
13.8,128.180336,37.962145,6542.40246,9.585,-13.579,359.248,1.0
13.8166,128.180335,37.962194,6541.174116,9.695,-13.596,359.248,1.0
13.8333,128.180334,37.962242,6539.943638400001,9.805,-13.614,359.248,1.0
13.85,128.180332,37.962291,6538.711636800001,9.916,-13.631,359.248,1.0
13.8666,128.180331,37.96234,6537.477806400001,10.026,-13.649,359.248,1.0
13.8833,128.18033,37.962388,6536.2421472000005,10.137,-13.666,359.248,1.0
13.9,128.180328,37.962437,6535.004659200001,10.248,-13.684,359.247,1.0
13.9166,128.180327,37.962486,6533.765647200001,10.36,-13.701,359.247,1.0
13.9333,128.180326,37.962534,6532.524806400001,10.471,-13.719,359.247,1.0
13.95,128.180325,37.962583,6531.2821368,10.583,-13.736,359.247,1.0
13.9666,128.180323,37.962632,6530.037638400001,10.695,-13.754,359.247,1.0
13.9833,128.180322,37.96268,6528.7916159999995,10.808,-13.771,359.247,1.0
14.0,128.180321,37.962729,6527.543764800001,10.92,-13.789,359.247,1.0
14.0166,128.180319,37.962778,6526.2940848,11.033,-13.806,359.247,1.0
14.0333,128.180318,37.962827,6525.042576,11.146,-13.824,359.247,1.0
14.05,128.180317,37.962875,6523.789238400001,11.259,-13.841,359.247,1.0
14.0666,128.180316,37.962924,6522.5343768,11.373,-13.859,359.246,1.0
14.0833,128.180314,37.962973,6521.277686400001,11.487,-13.876,359.246,1.0
14.1,128.180313,37.963021,6520.0191672,11.601,-13.893,359.246,1.0
14.1166,128.180312,37.96307,6518.759124000001,11.715,-13.911,359.246,1.0
14.1333,128.180311,37.963119,6517.496947200001,11.83,-13.928,359.246,1.0
14.15,128.180309,37.963168,6516.233246400001,11.945,-13.946,359.246,1.0
14.1666,128.180308,37.963216,6514.9677168,12.06,-13.963,359.246,1.0
14.1833,128.180307,37.963265,6513.7003584,12.175,-13.98,359.246,1.0
14.2,128.180306,37.963314,6512.431476,12.291,-13.998,359.246,1.0
14.2166,128.180304,37.963363,6511.160460000001,12.406,-14.015,359.246,1.0
14.2333,128.180303,37.963411,6509.887920000001,12.522,-14.032,359.245,1.0
14.25,128.180302,37.96346,6508.613551200001,12.639,-14.05,359.245,1.0
14.2666,128.180301,37.963509,6507.3373536,12.755,-14.067,359.245,1.0
14.2833,128.1803,37.963558,6506.059632,12.872,-14.084,359.245,1.0
14.3,128.180298,37.963607,6504.7797768,12.989,-14.101,359.245,1.0
14.3166,128.180297,37.963655,6503.498397600001,13.107,-14.119,359.245,1.0
14.3333,128.180296,37.963704,6502.2151896,13.224,-14.136,359.245,1.0
14.35,128.180295,37.963753,6500.9301528,13.342,-14.153,359.245,1.0
14.3666,128.180294,37.963802,6499.643592,13.46,-14.17,359.245,1.0
14.3833,128.180293,37.963851,6498.354897600001,13.579,-14.188,359.245,1.0
14.4,128.180291,37.963899,6497.064679200001,13.697,-14.205,359.245,1.0
14.4166,128.18029,37.963948,6495.772632,13.816,-14.222,359.245,1.0
14.4333,128.180289,37.963997,6494.478756,13.935,-14.239,359.244,1.0
14.45,128.180288,37.964046,6493.1833560000005,14.055,-14.256,359.244,1.0
14.4666,128.180287,37.964095,6491.8858224000005,14.174,-14.274,359.244,1.0
14.4833,128.180286,37.964144,6490.5867648,14.294,-14.291,359.244,1.0
14.5,128.180284,37.964192,6489.285878400001,14.414,-14.308,359.244,1.0
14.5166,128.180283,37.964241,6487.9831632000005,14.535,-14.325,359.244,1.0
14.5333,128.180282,37.96429,6486.678619200001,14.655,-14.342,359.244,1.0
14.55,128.180281,37.964339,6485.372551200001,14.776,-14.359,359.244,1.0
14.5666,128.18028,37.964388,6484.0643496,14.898,-14.376,359.244,1.0
14.5833,128.180279,37.964437,6482.754624000001,15.019,-14.393,359.244,1.0
14.6,128.180278,37.964486,6481.443069600001,15.141,-14.41,359.244,1.0
