Time,Longitude,Latitude,Altitude,Roll (deg),Pitch (deg),Yaw (deg),Health
0.0,128.181881,37.923646,7000.146528,0.0,-0.003,0.0,1.0
0.0166,128.181881,37.923691,7000.1605488000005,0.0,-0.012,0.0,1.0
0.0333,128.181881,37.923736,7000.173960000001,0.0,-0.025,0.0,1.0
0.05,128.181881,37.923781,7000.186152000001,0.0,-0.039,0.0,1.0
0.0666,128.181881,37.923826,7000.1977344,0.0,-0.055,0.0,1.0
0.0833,128.181881,37.923871,7000.2084024,0.0,-0.071,0.0,1.0
0.1,128.181881,37.923916,7000.218156000001,0.0,-0.086,0.0,1.0
0.1166,128.181881,37.923961,7000.226995200001,0.0,-0.1,0.0,1.0
0.1333,128.181881,37.924006,7000.235224800001,0.0,-0.113,0.0,1.0
0.15,128.181881,37.924051,7000.24254,0.0,-0.124,0.0,1.0
0.1666,128.181881,37.924096,7000.2489408,0.0,-0.134,0.0,1.0
0.1833,128.181881,37.924141,7000.2544272000005,0.0,-0.142,0.0,1.0
0.2,128.181881,37.924186,7000.2589992,0.0,-0.148,0.0,1.0
0.2166,128.181881,37.924231,7000.2629615999995,0.0,-0.154,0.0,1.0
0.2333,128.181881,37.924276,7000.266009600001,0.0,-0.157,0.0,1.0
0.25,128.181881,37.924321,7000.2681432,0.0,-0.16,0.0,1.0
0.2666,128.181881,37.924366,7000.2696672,0.0,-0.162,0.0,1.0
0.2833,128.181881,37.924411,7000.2702768,0.0,-0.163,0.0,1.0
0.3,128.181881,37.924456,7000.2702768,0.0,-0.164,0.0,1.0
0.3166,128.181881,37.924501,7000.2693624,0.0,-0.164,0.0,1.0
0.3333,128.181881,37.924546,7000.267533600001,0.0,-0.164,0.0,1.0
0.35,128.181881,37.924591,7000.2650952,0.0,-0.163,0.0,1.0
0.3666,128.181881,37.924636,7000.262047200001,0.001,-0.163,0.0,1.0
0.3833,128.181881,37.924682,7000.2583896,0.001,-0.163,0.0,1.0
0.4,128.181881,37.924727,7000.2538176,0.001,-0.162,0.0,1.0
0.4166,128.181881,37.924772,7000.2483312,0.001,-0.162,0.0,1.0
0.4333,128.181881,37.924817,7000.24254,0.001,-0.162,0.0,1.0
0.45,128.181881,37.924862,7000.2358343999995,0.001,-0.163,0.0,1.0
0.4666,128.181881,37.924907,7000.228519200001,0.001,-0.163,0.0,1.0
0.4833,128.181881,37.924952,7000.2205944,0.001,-0.164,0.0,1.0
0.5,128.181881,37.924998,7000.212060000001,0.002,-0.164,0.0,1.0
0.5166,128.181881,37.925043,7000.202611200001,0.002,-0.165,0.0,1.0
0.5333,128.181881,37.925088,7000.1928576,0.002,-0.166,0.0,1.0
0.55,128.181881,37.925133,7000.1821896,0.002,-0.168,0.0,1.0
0.5666,128.181881,37.925179,7000.1712168,0.002,-0.169,0.0,1.0
0.5833,128.181881,37.925224,7000.1593296,0.002,-0.17,0.0,1.0
0.6,128.181881,37.925269,7000.146832800001,0.003,-0.172,0.0,1.0
0.6166,128.181881,37.925314,7000.1340312,0.003,-0.173,0.0,1.0
0.6333,128.181881,37.92536,7000.120315200001,0.003,-0.174,0.0,1.0
0.65,128.181881,37.925405,7000.1062944000005,0.003,-0.176,0.0,1.0
0.6666,128.181881,37.92545,7000.0916640000005,0.003,-0.177,0.0,1.0
0.6833,128.181881,37.925495,7000.076424000001,0.004,-0.178,0.0,1.0
0.7,128.181881,37.925541,7000.0605744,0.004,-0.18,0.0,1.0
0.7166,128.181881,37.925586,7000.0441152,0.004,-0.181,0.0,1.0
0.7333,128.181881,37.925631,7000.0273512,0.004,-0.183,0.0,1.0
0.75,128.181881,37.925677,7000.009977600001,0.004,-0.184,0.0,1.0
0.7666,128.181881,37.925722,6999.9919944,0.005,-0.185,0.0,1.0
0.7833,128.181881,37.925767,6999.973401600001,0.005,-0.187,0.0,1.0
0.8,128.181881,37.925813,6999.954504,0.005,-0.188,0.001,1.0
0.8166,128.181881,37.925858,6999.934996800001,0.005,-0.189,0.001,1.0
0.8333,128.181881,37.925903,6999.91488,0.006,-0.191,0.001,1.0
0.85,128.181881,37.925949,6999.8941536,0.006,-0.192,0.001,1.0
0.8666,128.181881,37.925994,6999.8734272,0.006,-0.193,0.001,1.0
0.8833,128.181881,37.92604,6999.8517864000005,0.007,-0.195,0.001,1.0
0.9,128.181881,37.926085,6999.8298408,0.007,-0.196,0.001,1.0
0.9166,128.181881,37.92613,6999.8072856,0.007,-0.198,0.001,1.0
0.9333,128.181881,37.926176,6999.7844256,0.007,-0.199,0.001,1.0
0.95,128.181881,37.926221,6999.761260800001,0.008,-0.2,0.001,1.0
0.9666,128.181881,37.926267,6999.7371816,0.008,-0.202,0.001,1.0
0.9833,128.181881,37.926312,6999.7131024,0.008,-0.203,0.0,1.0
1.0,128.181881,37.926358,6999.688413600001,0.009,-0.205,0.0,1.0
1.0166,128.181881,37.926403,6999.663115200001,0.009,-0.206,0.0,1.0
1.0333,128.181881,37.926449,6999.637512,0.009,-0.208,0.0,1.0
1.05,128.181881,37.926494,6999.611604000001,0.01,-0.209,0.0,1.0
1.0666,128.181881,37.92654,6999.5850864,0.01,-0.21,0.0,1.0
1.0833,128.181881,37.926585,6999.558264,0.01,-0.212,0.0,1.0
1.1,128.181881,37.926631,6999.5311368,0.01,-0.213,0.0,1.0
1.1166,128.181881,37.926676,6999.5034000000005,0.011,-0.214,0.001,1.0
1.1333,128.181881,37.926722,6999.4756632,0.009,-0.216,0.0,1.0
1.15,128.181881,37.926767,6999.4473168,0.006,-0.219,359.999,1.0
1.1666,128.181881,37.926813,6999.418665600001,0.0,-0.221,359.998,1.0
1.1833,128.181881,37.926858,6999.3897096,-0.006,-0.225,359.997,1.0
1.2,128.181881,37.926904,6999.3604488,-0.015,-0.228,359.995,1.0
1.2166,128.181881,37.926949,6999.3308832,-0.025,-0.231,359.994,1.0
1.2333,128.181881,37.926995,6999.3010128000005,-0.035,-0.234,359.993,1.0
1.25,128.181881,37.927041,6999.2705328,-0.046,-0.237,359.992,1.0
1.2666,128.181881,37.927086,6999.239748,-0.056,-0.24,359.991,1.0
1.2833,128.181881,37.927132,6999.2083536,-0.066,-0.242,359.99,1.0
1.3,128.181881,37.927177,6999.1769592,-0.075,-0.244,359.99,1.0
1.3166,128.181881,37.927223,6999.1449552,-0.083,-0.245,359.989,1.0
1.3333,128.181881,37.927269,6999.112646400001,-0.091,-0.247,359.988,1.0
1.35,128.181881,37.927314,6999.0800328000005,-0.098,-0.248,359.988,1.0
1.3666,128.181881,37.92736,6999.0468096,-0.103,-0.249,359.987,1.0
1.3833,128.181881,37.927406,6999.0132816000005,-0.108,-0.25,359.987,1.0
1.4,128.181881,37.927451,6998.979753600001,-0.113,-0.251,359.986,1.0
1.4166,128.181881,37.927497,6998.945616,-0.116,-0.252,359.986,1.0
1.4333,128.181881,37.927543,6998.910868800001,-0.12,-0.253,359.985,1.0
1.45,128.181881,37.927589,6998.8761216,-0.122,-0.254,359.985,1.0
1.4666,128.181881,37.927634,6998.841069600001,-0.124,-0.255,359.984,1.0
1.4833,128.181881,37.92768,6998.805408,-0.126,-0.256,359.984,1.0
1.5,128.181881,37.927726,6998.7697464,-0.127,-0.258,359.984,1.0
1.5166,128.181881,37.927771,6998.7334752,-0.128,-0.259,359.983,1.0
1.5333,128.181881,37.927817,6998.697204,-0.128,-0.26,359.983,1.0
1.55,128.181881,37.927863,6998.660323200001,-0.129,-0.262,359.983,1.0
1.5666,128.181881,37.927909,6998.6231376000005,-0.129,-0.263,359.983,1.0
1.5833,128.181881,37.927955,6998.585952000001,-0.129,-0.265,359.983,1.0
1.6,128.181881,37.928,6998.5481568000005,-0.128,-0.266,359.983,1.0
1.6166,128.181881,37.928046,6998.5103616,-0.128,-0.268,359.983,1.0
1.6333,128.181881,37.928092,6998.471956800001,-0.127,-0.27,359.983,1.0
1.65,128.181881,37.928138,6998.433552,-0.126,-0.271,359.983,1.0
1.6666,128.181881,37.928184,6998.394537600001,-0.125,-0.273,359.983,1.0
1.6833,128.181881,37.92823,6998.355523200001,-0.124,-0.275,359.983,1.0
1.7,128.181881,37.928275,6998.316204000001,-0.123,-0.277,359.983,1.0
1.7166,128.181881,37.928321,6998.2762752,-0.122,-0.279,359.983,1.0
1.7333,128.181881,37.928367,6998.236346400001,-0.121,-0.282,359.983,1.0
1.75,128.181881,37.928413,6998.1961128,-0.119,-0.284,359.983,1.0
1.7666,128.181881,37.928459,6998.155574400001,-0.118,-0.286,359.983,1.0
1.7833,128.181881,37.928505,6998.115036,-0.117,-0.288,359.983,1.0
1.8,128.181881,37.928551,6998.073888000001,-0.115,-0.291,359.983,1.0
1.8166,128.181881,37.928597,6998.032740000001,-0.114,-0.293,359.983,1.0
1.8333,128.181881,37.928643,6997.990982400001,-0.113,-0.295,359.983,1.0
1.85,128.181881,37.928688,6997.949224800001,-0.111,-0.298,359.983,1.0
1.8666,128.181881,37.928734,6997.9071624,-0.11,-0.3,359.983,1.0
1.8833,128.181881,37.92878,6997.865404800001,-0.113,-0.303,359.982,1.0
1.9,128.181881,37.928826,6997.823037600001,-0.122,-0.307,359.981,1.0
1.9166,128.181881,37.928872,6997.7809752,-0.135,-0.312,359.979,1.0
1.9333,128.181881,37.928918,6997.7383032,-0.152,-0.318,359.978,1.0
1.95,128.181881,37.928964,6997.695936,-0.172,-0.323,359.976,1.0
1.9666,128.181881,37.92901,6997.652959200001,-0.194,-0.328,359.974,1.0
1.9833,128.181881,37.929056,6997.6096776,-0.217,-0.333,359.973,1.0
2.0,128.181881,37.929102,6997.566396,-0.239,-0.337,359.972,1.0
2.0166,128.181881,37.929148,6997.5225048,-0.261,-0.341,359.971,1.0
2.0333,128.181881,37.929194,6997.4786136,-0.281,-0.344,359.97,1.0
2.05,128.181881,37.92924,6997.434112800001,-0.3,-0.347,359.969,1.0
2.0666,128.181881,37.929287,6997.389612,-0.317,-0.35,359.969,1.0
2.0833,128.181881,37.929333,6997.3445016000005,-0.333,-0.352,359.968,1.0
2.1,128.181881,37.929379,6997.2993912,-0.346,-0.355,359.968,1.0
2.1166,128.181881,37.929425,6997.253976,-0.358,-0.357,359.967,1.0
2.1333,128.181881,37.929471,6997.207951200001,-0.369,-0.36,359.967,1.0
2.15,128.181881,37.929517,6997.1619264,-0.379,-0.362,359.966,1.0
2.1666,128.181881,37.929563,6997.1155968,-0.387,-0.365,359.966,1.0
2.1833,128.181881,37.929609,6997.0689624,-0.394,-0.368,359.966,1.0
2.2,128.181881,37.929655,6997.0220232,-0.4,-0.371,359.965,1.0
2.2166,128.181881,37.929702,6996.974779200001,-0.406,-0.375,359.965,1.0
2.2333,128.181881,37.929748,6996.92784,-0.419,-0.38,359.963,1.0
2.25,128.181881,37.929794,6996.880900800001,-0.44,-0.386,359.961,1.0
2.2666,128.181881,37.92984,6996.833656800001,-0.468,-0.393,359.959,1.0
2.2833,128.181881,37.929886,6996.7864128,-0.501,-0.4,359.956,1.0
2.3,128.181881,37.929932,6996.738864000001,-0.537,-0.407,359.953,1.0
2.3166,128.181881,37.929979,6996.691315200001,-0.576,-0.415,359.951,1.0
2.3333,128.181881,37.930025,6996.643156800001,-0.613,-0.421,359.95,1.0
2.35,128.181881,37.930071,6996.5943888,-0.649,-0.427,359.949,1.0
2.3666,128.181881,37.930117,6996.5456208,-0.682,-0.433,359.948,1.0
2.3833,128.181881,37.930164,6996.496548,-0.712,-0.438,359.947,1.0
2.4,128.181881,37.93021,6996.446865600001,-0.738,-0.442,359.947,1.0
2.4166,128.181881,37.930256,6996.396878400001,-0.762,-0.446,359.947,1.0
2.4333,128.181881,37.930302,6996.3465864,-0.783,-0.45,359.946,1.0
2.45,128.181881,37.930349,6996.2959896,-0.801,-0.453,359.946,1.0
2.4666,128.181881,37.930395,6996.245088000001,-0.817,-0.457,359.946,1.0
2.4833,128.181881,37.930441,6996.1938816,-0.832,-0.46,359.945,1.0
2.5,128.181881,37.930488,6996.142370400001,-0.845,-0.464,359.945,1.0
2.5166,128.181881,37.930534,6996.0902496,-0.856,-0.468,359.945,1.0
2.5333,128.181881,37.93058,6996.038433600001,-0.869,-0.473,359.944,1.0
2.55,128.181881,37.930627,6995.986008,-0.884,-0.48,359.942,1.0
2.5666,128.181881,37.930673,6995.933582400001,-0.9,-0.488,359.94,1.0
2.5833,128.181881,37.930719,6995.8805472,-0.918,-0.496,359.938,1.0
2.6,128.181881,37.930766,6995.827512,-0.937,-0.505,359.936,1.0
2.6166,128.181881,37.930812,6995.7747816,-0.963,-0.513,359.934,1.0
2.6333,128.181881,37.930859,6995.721441600001,-0.995,-0.521,359.931,1.0
2.65,128.181881,37.930905,6995.668101600001,-1.031,-0.529,359.929,1.0
2.6666,128.181881,37.930951,6995.614152000001,-1.069,-0.535,359.927,1.0
2.6833,128.181881,37.930998,6995.559897600001,-1.106,-0.542,359.925,1.0
2.7,128.181881,37.931044,6995.505338400001,-1.143,-0.547,359.924,1.0
2.7166,128.181881,37.931091,6995.4504744000005,-1.177,-0.552,359.923,1.0
2.7333,128.181881,37.931137,6995.3950008,-1.208,-0.556,359.922,1.0
2.75,128.181881,37.931184,6995.3392224,-1.237,-0.56,359.921,1.0
2.7666,128.181881,37.93123,6995.2831392,-1.263,-0.564,359.921,1.0
2.7833,128.181881,37.931277,6995.226446400001,-1.286,-0.568,359.92,1.0
2.8,128.181881,37.931323,6995.1697536,-1.307,-0.572,359.92,1.0
2.8166,128.181881,37.93137,6995.112451200001,-1.326,-0.576,359.92,1.0
2.8333,128.181881,37.931416,6995.054844,-1.346,-0.581,359.918,1.0
2.85,128.181881,37.931463,6994.997236800001,-1.367,-0.588,359.917,1.0
2.8666,128.181881,37.931509,6994.939324800001,-1.391,-0.597,359.915,1.0
2.8833,128.181881,37.931556,6994.8808032,-1.417,-0.606,359.912,1.0
2.9,128.181881,37.931602,6994.822281600001,-1.444,-0.615,359.91,1.0
2.9166,128.181881,37.931649,6994.7631504,-1.472,-0.625,359.908,1.0
2.9333,128.181881,37.931696,6994.7037144000005,-1.5,-0.634,359.906,1.0
2.95,128.181881,37.931742,6994.6439736,-1.527,-0.643,359.905,1.0
2.9666,128.181881,37.931789,6994.584232800001,-1.559,-0.651,359.903,1.0
2.9833,128.181881,37.931835,6994.524187200001,-1.595,-0.659,359.901,1.0
3.0,128.181881,37.931882,6994.463532000001,-1.633,-0.665,359.899,1.0
3.0166,128.181881,37.931929,6994.402572,-1.673,-0.672,359.897,1.0
3.0333,128.181881,37.931975,6994.3413072,-1.712,-0.677,359.896,1.0
3.05,128.181881,37.932022,6994.279737600001,-1.751,-0.682,359.895,1.0
3.0666,128.181881,37.932069,6994.217558400001,-1.787,-0.687,359.894,1.0
3.0833,128.181881,37.932115,6994.155074400001,-1.824,-0.693,359.892,1.0
3.1,128.181881,37.932162,6994.0922856,-1.862,-0.7,359.89,1.0
3.1166,128.181881,37.932209,6994.029192000001,-1.901,-0.708,359.888,1.0
3.1333,128.181881,37.932255,6993.9657936,-1.941,-0.716,359.886,1.0
3.15,128.181881,37.932302,6993.9020904,-1.982,-0.725,359.884,1.0
3.1666,128.181881,37.932349,6993.837777600001,-2.022,-0.734,359.881,1.0
3.1833,128.181881,37.932396,6993.772855200001,-2.062,-0.743,359.879,1.0
3.2,128.181881,37.932442,6993.707932800001,-2.1,-0.752,359.877,1.0
3.2166,128.181881,37.932489,6993.6420960000005,-2.137,-0.76,359.876,1.0
3.2333,128.181881,37.932536,6993.576564000001,-2.18,-0.768,359.873,1.0
3.25,128.181881,37.932583,6993.5107272000005,-2.227,-0.777,359.87,1.0
3.2666,128.181881,37.932629,6993.4442808,-2.279,-0.786,359.867,1.0
3.2833,128.18188,37.932676,6993.3778344,-2.334,-0.796,359.864,1.0
3.3,128.18188,37.932723,6993.3107784,-2.391,-0.805,359.86,1.0
3.3166,128.18188,37.93277,6993.2431128,-2.449,-0.814,359.857,1.0
3.3333,128.18188,37.932817,6993.1751424,-2.507,-0.822,359.855,1.0
3.35,128.18188,37.932864,6993.1065624,-2.562,-0.83,359.852,1.0
3.3666,128.18188,37.93291,6993.038287200001,-2.624,-0.838,359.849,1.0
3.3833,128.18188,37.932957,6992.9694024,-2.691,-0.846,359.845,1.0
3.4,128.18188,37.933004,6992.9002128,-2.763,-0.855,359.841,1.0
3.4166,128.18188,37.933051,6992.8307184000005,-2.837,-0.864,359.837,1.0
3.4333,128.18188,37.933098,6992.7606144,-2.914,-0.873,359.833,1.0
3.45,128.18188,37.933145,6992.690205600001,-2.991,-0.881,359.83,1.0
3.4666,128.18188,37.933192,6992.619187200001,-3.067,-0.89,359.826,1.0
3.4833,128.18188,37.933239,6992.548473600001,-3.15,-0.898,359.823,1.0
3.5,128.18188,37.933286,6992.4771504,-3.24,-0.908,359.818,1.0
3.5166,128.18188,37.933333,6992.4055224,-3.334,-0.917,359.814,1.0
3.5333,128.18188,37.93338,6992.3335896,-3.432,-0.927,359.809,1.0
3.55,128.18188,37.933427,6992.261047200001,-3.532,-0.936,359.805,1.0
3.5666,128.18188,37.933474,6992.187895200001,-3.632,-0.946,359.801,1.0
3.5833,128.18188,37.933521,6992.114133600001,-3.729,-0.955,359.797,1.0
3.6,128.181879,37.933568,6992.0409816,-3.835,-0.964,359.793,1.0
3.6166,128.181879,37.933615,6991.966915200001,-3.946,-0.974,359.789,1.0
3.6333,128.181879,37.933662,6991.892544,-4.062,-0.984,359.784,1.0
3.65,128.181879,37.933709,6991.817868,-4.182,-0.994,359.779,1.0
3.6666,128.181879,37.933756,6991.7425824,-4.303,-1.004,359.774,1.0
3.6833,128.181879,37.933803,6991.666992,-4.423,-1.013,359.77,1.0
3.7,128.181879,37.93385,6991.590487200001,-4.541,-1.023,359.767,1.0
3.7166,128.181879,37.933897,6991.514287200001,-4.667,-1.033,359.763,1.0
3.7333,128.181879,37.933944,6991.4377824,-4.799,-1.043,359.758,1.0
3.75,128.181879,37.933991,6991.360668,-4.937,-1.054,359.753,1.0
3.7666,128.181879,37.934038,6991.2832488,-5.079,-1.064,359.748,1.0
3.7833,128.181879,37.934085,6991.205220000001,-5.223,-1.075,359.743,1.0
3.8,128.181878,37.934132,6991.1265816000005,-5.367,-1.086,359.739,1.0
3.8166,128.181878,37.93418,6991.0473336000005,-5.509,-1.096,359.735,1.0
3.8333,128.181878,37.934227,6990.9683904,-5.659,-1.107,359.73,1.0
3.85,128.181878,37.934274,6990.8888376,-5.817,-1.118,359.725,1.0
3.8666,128.181878,37.934321,6990.80898,-5.981,-1.129,359.72,1.0
3.8833,128.181878,37.934368,6990.7285128,-6.148,-1.141,359.715,1.0
3.9,128.181878,37.934415,6990.6477408,-6.317,-1.152,359.71,1.0
3.9166,128.181878,37.934463,6990.5660544,-6.486,-1.164,359.706,1.0
3.9333,128.181878,37.93451,6990.483758400001,-6.653,-1.175,359.702,1.0
3.95,128.181877,37.934557,6990.402072,-6.829,-1.186,359.697,1.0
3.9666,128.181877,37.934604,6990.3194712,-7.013,-1.197,359.692,1.0
3.9833,128.181877,37.934652,6990.236565600001,-7.202,-1.209,359.686,1.0
4.0,128.181877,37.934699,6990.152136000001,-7.384,-1.22,359.682,1.0
4.0166,128.181877,37.934746,6990.0670968,-7.556,-1.231,359.679,1.0
4.0333,128.181877,37.934793,6989.9811432,-7.718,-1.241,359.678,1.0
4.05,128.181877,37.934841,6989.8942752,-7.869,-1.251,359.677,1.0
4.0666,128.181876,37.934888,6989.807712,-8.022,-1.262,359.675,1.0
4.0833,128.181876,37.934935,6989.7202344,-8.18,-1.274,359.672,1.0
4.1,128.181876,37.934983,6989.632452000001,-8.342,-1.286,359.669,1.0
4.1166,128.181876,37.93503,6989.54406,-8.51,-1.299,359.665,1.0
4.1333,128.181876,37.935077,6989.455363200001,-8.683,-1.312,359.66,1.0
4.15,128.181876,37.935125,6989.365752000001,-8.859,-1.326,359.656,1.0
4.1666,128.181875,37.935172,6989.275836000001,-9.039,-1.34,359.653,1.0
4.1833,128.181875,37.935219,6989.186224800001,-9.232,-1.354,359.648,1.0
4.2,128.181875,37.935267,6989.0956992,-9.436,-1.368,359.643,1.0
4.2166,128.181875,37.935314,6989.0051736000005,-9.651,-1.382,359.637,1.0
4.2333,128.181875,37.935362,6988.9137336,-9.873,-1.395,359.632,1.0
4.25,128.181875,37.935409,6988.821988799999,-10.099,-1.409,359.627,1.0
4.2666,128.181874,37.935456,6988.7293296,-10.329,-1.422,359.622,1.0
4.2833,128.181874,37.935504,6988.6360608,-10.559,-1.435,359.618,1.0
4.3,128.181874,37.935551,6988.543096800001,-10.801,-1.448,359.614,1.0
4.3166,128.181874,37.935599,6988.4492184,-11.053,-1.46,359.608,1.0
4.3333,128.181873,37.935646,6988.3550352,-11.314,-1.473,359.603,1.0
4.35,128.181873,37.935694,6988.260242400001,-11.582,-1.486,359.598,1.0
4.3666,128.181873,37.935741,6988.16484,-11.855,-1.499,359.593,1.0
4.3833,128.181873,37.935789,6988.0685232000005,-12.132,-1.512,359.589,1.0
4.4,128.181873,37.935836,6987.971901600001,-12.409,-1.526,359.585,1.0
4.4166,128.181872,37.935884,6987.87528,-12.7,-1.539,359.581,1.0
4.4333,128.181872,37.935931,6987.7783536,-13.004,-1.553,359.576,1.0
4.45,128.181872,37.935979,6987.6795984,-13.263,-1.566,359.574,1.0
4.4666,128.181871,37.936027,6987.579928800001,-13.475,-1.578,359.576,1.0
4.4833,128.181871,37.936074,6987.4784304,-13.646,-1.591,359.579,1.0
4.5,128.181871,37.936122,6987.3747984,-13.779,-1.603,359.583,1.0
4.5166,128.181871,37.936169,6987.2696424000005,-13.879,-1.616,359.586,1.0
4.5333,128.18187,37.936217,6987.1632672000005,-13.951,-1.629,359.588,1.0
4.55,128.18187,37.936265,6987.055368,-13.998,-1.642,359.589,1.0
4.5666,128.18187,37.936312,6986.946249600001,-14.026,-1.656,359.59,1.0
4.5833,128.181869,37.93636,6986.8356072,-14.037,-1.669,359.589,1.0
4.6,128.181869,37.936407,6986.7237456,-14.035,-1.683,359.588,1.0
4.6166,128.181869,37.936455,6986.610360000001,-14.02,-1.697,359.587,1.0
4.6333,128.181869,37.936503,6986.49606,-13.994,-1.71,359.585,1.0
4.65,128.181868,37.936551,6986.380236,-13.96,-1.724,359.583,1.0
4.6666,128.181868,37.936598,6986.263192800001,-13.917,-1.739,359.581,1.0
4.6833,128.181868,37.936646,6986.1452352,-13.868,-1.753,359.578,1.0
4.7,128.181867,37.936694,6986.0257536,-13.811,-1.767,359.575,1.0
4.7166,128.181867,37.936741,6985.9050528,-13.747,-1.781,359.572,1.0
4.7333,128.181867,37.936789,6985.782828,-13.676,-1.795,359.569,1.0
4.75,128.181866,37.936837,6985.6596887999995,-13.601,-1.809,359.566,1.0
4.7666,128.181866,37.936885,6985.5353304,-13.521,-1.823,359.562,1.0
4.7833,128.181866,37.936933,6985.4097528,-13.437,-1.837,359.558,1.0
4.8,128.181865,37.93698,6985.282956000001,-13.349,-1.851,359.554,1.0
4.8166,128.181865,37.937028,6985.15494,-13.255,-1.865,359.55,1.0
4.8333,128.181864,37.937076,6985.0254,-13.156,-1.879,359.546,1.0
4.85,128.181864,37.937124,6984.8946408,-13.051,-1.893,359.542,1.0
4.8666,128.181864,37.937172,6984.7626624,-12.942,-1.907,359.538,1.0
4.8833,128.181863,37.93722,6984.629769600001,-12.828,-1.921,359.534,1.0
4.9,128.181863,37.937267,6984.495048,-12.707,-1.935,359.529,1.0
4.9166,128.181863,37.937315,6984.3588024,-12.579,-1.949,359.525,1.0
4.9333,128.181862,37.937363,6984.221642400001,-12.445,-1.963,359.52,1.0
4.95,128.181862,37.937411,6984.0829584,-12.305,-1.977,359.516,1.0
4.9666,128.181861,37.937459,6983.9430552,-12.159,-1.991,359.511,1.0
4.9833,128.181861,37.937507,6983.801932800001,-12.008,-2.004,359.506,1.0
5.0,128.181861,37.937555,6983.6592864,-11.849,-2.018,359.501,1.0
5.0166,128.18186,37.937603,6983.515420799999,-11.686,-2.032,359.496,1.0
5.0333,128.18186,37.937651,6983.370336,-11.519,-2.046,359.491,1.0
5.05,128.181859,37.937699,6983.2237272,-11.349,-2.06,359.486,1.0
5.0666,128.181859,37.937747,6983.0758992,-11.175,-2.074,359.48,1.0
5.0833,128.181858,37.937795,6982.9268520000005,-10.999,-2.088,359.475,1.0
5.1,128.181858,37.937843,6982.7762808,-10.814,-2.101,359.469,1.0
5.1166,128.181858,37.937891,6982.624185600001,-10.621,-2.115,359.464,1.0
5.1333,128.181857,37.937939,6982.4708712,-10.421,-2.129,359.459,1.0
5.15,128.181857,37.937987,6982.3160328,-10.214,-2.143,359.453,1.0
5.1666,128.181856,37.938035,6982.159670400001,-10.0,-2.157,359.448,1.0
5.1833,128.181856,37.938083,6982.0020888,-9.78,-2.17,359.442,1.0
5.2,128.181855,37.938131,6981.8426784,-9.547,-2.184,359.437,1.0
5.2166,128.181855,37.93818,6981.681744,-9.304,-2.198,359.432,1.0
5.2333,128.181854,37.938228,6981.5195904,-9.049,-2.212,359.426,1.0
5.25,128.181854,37.938276,6981.355608,-8.785,-2.226,359.421,1.0
5.2666,128.181853,37.938324,6981.190101600001,-8.51,-2.24,359.416,1.0
5.2833,128.181853,37.938372,6981.023376,-8.227,-2.254,359.41,1.0
5.3,128.181852,37.93842,6980.854212,-7.928,-2.268,359.404,1.0
5.3166,128.181852,37.938469,6980.683828800001,-7.615,-2.282,359.399,1.0
5.3333,128.181852,37.938517,6980.5119216,-7.289,-2.296,359.394,1.0
5.35,128.181851,37.938565,6980.3381856000005,-6.949,-2.311,359.388,1.0
5.3666,128.181851,37.938613,6980.1629256,-6.597,-2.325,359.383,1.0
5.3833,128.18185,37.938661,6979.985532000001,-6.227,-2.339,359.377,1.0
5.4,128.18185,37.93871,6979.8063096000005,-5.839,-2.354,359.372,1.0
5.4166,128.181849,37.938758,6979.6255632,-5.434,-2.368,359.367,1.0
5.4333,128.181849,37.938806,6979.442988000001,-5.014,-2.383,359.361,1.0
5.45,128.181848,37.938855,6979.2588888,-4.58,-2.398,359.355,1.0
5.4666,128.181848,37.938903,6979.0720464000005,-4.124,-2.413,359.35,1.0
5.4833,128.181847,37.938951,6978.88368,-3.647,-2.428,359.344,1.0
5.5,128.181847,37.939,6978.6934848,-3.152,-2.443,359.339,1.0
5.5166,128.181846,37.939048,6978.501460800001,-2.639,-2.458,359.333,1.0
5.5333,128.181846,37.939096,6978.307608,-2.111,-2.473,359.327,1.0
5.55,128.181845,37.939145,6978.1113168,-1.561,-2.489,359.321,1.0
5.5666,128.181845,37.939193,6977.914111200001,-0.999,-2.504,359.314,1.0
5.5833,128.181844,37.939242,6977.7150768,-0.428,-2.52,359.307,1.0
5.6,128.181844,37.93929,6977.5142136,0.147,-2.535,359.299,1.0
5.6166,128.181843,37.939338,6977.3115216,0.735,-2.55,359.291,1.0
5.6333,128.181843,37.939387,6977.1076104,1.33,-2.566,359.282,1.0
5.65,128.181842,37.939435,6976.901870400001,1.932,-2.581,359.274,1.0
5.6666,128.181842,37.939484,6976.6943016000005,2.538,-2.596,359.265,1.0
5.6833,128.181841,37.939532,6976.485208800001,3.153,-2.611,359.255,1.0
5.7,128.18184,37.939581,6976.274287200001,3.774,-2.626,359.246,1.0
5.7166,128.18184,37.939629,6976.061841600001,4.399,-2.641,359.237,1.0
5.7333,128.181839,37.939678,6975.8475672,5.034,-2.656,359.228,1.0
5.75,128.181839,37.939726,6975.631768800001,5.675,-2.67,359.218,1.0
5.7666,128.181838,37.939775,6975.414446400001,6.32,-2.685,359.208,1.0
5.7833,128.181838,37.939824,6975.1956,6.967,-2.699,359.198,1.0
5.8,128.181837,37.939872,6974.974620000001,7.62,-2.713,359.188,1.0
5.8166,128.181837,37.939921,6974.7524207999995,8.277,-2.727,359.178,1.0
5.8333,128.181836,37.939969,6974.528392800001,8.935,-2.741,359.167,1.0
5.85,128.181836,37.940018,6974.3028408,9.599,-2.754,359.157,1.0
5.8666,128.181835,37.940067,6974.075460000001,10.266,-2.768,359.146,1.0
5.8833,128.181835,37.940115,6973.846860000001,10.934,-2.781,359.135,1.0
5.9,128.181834,37.940164,6973.6164312,11.607,-2.794,359.125,1.0
5.9166,128.181834,37.940213,6973.3841736,12.283,-2.806,359.114,1.0
5.9333,128.181833,37.940261,6973.151001600001,12.957,-2.819,359.103,1.0
5.95,128.181833,37.94031,6972.9153912,13.635,-2.831,359.092,1.0
5.9666,128.181832,37.940359,6972.6788664,14.314,-2.843,359.081,1.0
5.9833,128.181832,37.940407,6972.440817600001,14.991,-2.855,359.069,1.0
6.0,128.181831,37.940456,6972.2012448000005,15.661,-2.866,359.057,1.0
6.0166,128.181831,37.940505,6971.9598432,16.331,-2.877,359.046,1.0
6.0333,128.18183,37.940554,6971.7175272,16.996,-2.887,359.034,1.0
6.05,128.18183,37.940602,6971.474296800001,17.646,-2.898,359.022,1.0
6.0666,128.181829,37.940651,6971.2295424,18.285,-2.907,359.009,1.0
6.0833,128.181829,37.9407,6970.9835688,18.912,-2.916,358.997,1.0
6.1,128.181828,37.940749,6970.7360712,19.532,-2.926,358.985,1.0
6.1166,128.181828,37.940798,6970.4873544,20.142,-2.934,358.973,1.0
6.1333,128.181827,37.940846,6970.2374184,20.74,-2.943,358.961,1.0
6.15,128.181827,37.940895,6969.9859584000005,21.33,-2.951,358.95,1.0
6.1666,128.181826,37.940944,6969.7335840000005,21.911,-2.959,358.939,1.0
6.1833,128.181826,37.940993,6969.4799904,22.477,-2.966,358.928,1.0
6.2,128.181825,37.941042,6969.2248728,23.036,-2.974,358.917,1.0
6.2166,128.181825,37.941091,6968.968536,23.585,-2.98,358.906,1.0
6.2333,128.181824,37.94114,6968.7112848,24.118,-2.987,358.895,1.0
6.25,128.181824,37.941189,6968.452509600001,24.643,-2.993,358.885,1.0
6.2666,128.181823,37.941238,6968.191600800001,25.267,-3.003,358.882,1.0
6.2833,128.181823,37.941287,6967.9285584,25.988,-3.015,358.886,1.0
6.3,128.181822,37.941335,6967.6630776,26.807,-3.03,358.893,1.0
6.3166,128.181822,37.941384,6967.394244,27.725,-3.046,358.901,1.0
6.3333,128.181822,37.941433,6967.1223624,28.74,-3.062,358.909,1.0
6.35,128.181821,37.941482,6966.8468232000005,29.848,-3.078,358.916,1.0
6.3666,128.181821,37.941531,6966.5676264,31.045,-3.094,358.922,1.0
6.3833,128.18182,37.941581,6966.2844672,32.317,-3.11,358.926,1.0
6.4,128.18182,37.94163,6965.99826,33.648,-3.126,358.927,1.0
6.4166,128.181819,37.941679,6965.709309600001,35.029,-3.14,358.927,1.0
6.4333,128.181818,37.941728,6965.417311200001,36.447,-3.154,358.925,1.0
6.45,128.181818,37.941777,6965.1222648,37.896,-3.168,358.922,1.0
6.4666,128.181817,37.941826,6964.8250848,39.368,-3.181,358.917,1.0
6.4833,128.181817,37.941875,6964.524856800001,40.857,-3.194,358.912,1.0
6.5,128.181816,37.941924,6964.222495200001,42.36,-3.207,358.907,1.0
6.5166,128.181816,37.941973,6963.9173904,43.87,-3.221,358.903,1.0
6.5333,128.181815,37.942023,6963.610456800001,45.381,-3.239,358.902,1.0
6.55,128.181815,37.942072,6963.30078,46.892,-3.26,358.904,1.0
6.5666,128.181814,37.942121,6962.98836,48.405,-3.283,358.909,1.0
6.5833,128.181814,37.94217,6962.674111200001,49.779,-3.299,358.908,1.0
6.6,128.181813,37.942219,6962.357728800001,51.022,-3.308,358.903,1.0
6.6166,128.181813,37.942269,6962.0401272,52.162,-3.315,358.896,1.0
6.6333,128.181812,37.942318,6961.721306400001,53.224,-3.324,358.891,1.0
6.65,128.181812,37.942367,6961.4012664,54.228,-3.337,358.89,1.0
6.6666,128.181811,37.942416,6961.079092800001,55.198,-3.354,358.893,1.0
6.6833,128.181811,37.942466,6960.7547856,56.155,-3.375,358.899,1.0
6.7,128.18181,37.942515,6960.42804,57.111,-3.399,358.907,1.0
6.7166,128.18181,37.942564,6960.0988560000005,58.078,-3.425,358.917,1.0
6.7333,128.181809,37.942614,6959.7672336000005,59.062,-3.452,358.927,1.0
6.75,128.181809,37.942663,6959.433172800001,60.069,-3.48,358.937,1.0
6.7666,128.181808,37.942712,6959.096064,61.105,-3.508,358.948,1.0
6.7833,128.181808,37.942762,6958.7565168,62.169,-3.537,358.958,1.0
6.8,128.181807,37.942811,6958.4139216,63.265,-3.565,358.968,1.0
6.8166,128.181807,37.942861,6958.068583200001,64.397,-3.594,358.977,1.0
6.8333,128.181806,37.94291,6957.720501600001,65.562,-3.624,358.986,1.0
6.85,128.181806,37.942959,6957.3696768,66.764,-3.654,358.995,1.0
6.8666,128.181805,37.943009,6957.015804000001,68.007,-3.684,359.002,1.0
6.8833,128.181805,37.943058,6956.6591880000005,69.288,-3.715,359.009,1.0
6.9,128.181804,37.943108,6956.299524000001,70.612,-3.746,359.015,1.0
6.9166,128.181804,37.943157,6955.9371168,71.976,-3.777,359.021,1.0
6.9333,128.181803,37.943207,6955.5716616,73.385,-3.809,359.025,1.0
6.95,128.181803,37.943256,6955.203158400001,74.841,-3.841,359.029,1.0
6.9666,128.181802,37.943306,6954.831912,76.344,-3.873,359.031,1.0
6.9833,128.181802,37.943355,6954.4576176,77.897,-3.906,359.033,1.0
7.0,128.181801,37.943405,6954.0802752,79.503,-3.939,359.034,1.0
7.0166,128.1818,37.943455,6953.7001896,81.161,-3.973,359.033,1.0
7.0333,128.1818,37.943504,6953.317360800001,82.873,-4.006,359.031,1.0
7.05,128.181799,37.943554,6952.931484000001,84.644,-4.04,359.028,1.0
7.0666,128.181798,37.943603,6952.5425592,86.475,-4.075,359.024,1.0
7.0833,128.181798,37.943653,6952.151196000001,88.363,-4.109,359.019,1.0
7.1,128.181797,37.943703,6951.7570896,90.306,-4.143,359.012,1.0
7.1166,128.181796,37.943753,6951.36024,92.303,-4.176,359.003,1.0
7.1333,128.181795,37.943802,6950.9606472000005,94.35,-4.208,358.994,1.0
7.15,128.181795,37.943852,6950.558616,96.444,-4.239,358.983,1.0
7.1666,128.181794,37.943902,6950.1541464,98.582,-4.27,358.971,1.0
7.1833,128.181793,37.943951,6949.747238400001,100.763,-4.299,358.957,1.0
7.2,128.181792,37.944001,6949.3378920000005,102.985,-4.328,358.943,1.0
7.2166,128.181791,37.944051,6948.9261072,105.248,-4.355,358.927,1.0
7.2333,128.18179,37.944101,6948.512188799999,107.549,-4.382,358.91,1.0
7.25,128.18179,37.944151,6948.095832,109.886,-4.408,358.892,1.0
7.2666,128.181789,37.944201,6947.6776464,112.259,-4.433,358.873,1.0
7.2833,128.181788,37.94425,6947.2570224,114.666,-4.456,358.853,1.0
7.3,128.181787,37.9443,6946.834569600001,117.104,-4.479,358.832,1.0
7.3166,128.181786,37.94435,6946.409983200001,119.573,-4.5,358.81,1.0
7.3333,128.181785,37.9444,6945.9838728,122.071,-4.52,358.788,1.0
7.35,128.181784,37.94445,6945.555628800001,124.597,-4.538,358.765,1.0
7.3666,128.181783,37.9445,6945.125251200001,127.149,-4.556,358.742,1.0
7.3833,128.181782,37.94455,6944.6936544,129.726,-4.572,358.718,1.0
7.4,128.181781,37.9446,6944.259924000001,132.326,-4.587,358.693,1.0
7.4166,128.18178,37.94465,6943.824669600001,134.949,-4.6,358.668,1.0
7.4333,128.181779,37.9447,6943.3878912,137.594,-4.612,358.643,1.0
7.45,128.181778,37.94475,6942.9495888,140.258,-4.623,358.617,1.0
7.4666,128.181777,37.9448,6942.5097624,142.942,-4.632,358.592,1.0
7.4833,128.181776,37.94485,6942.0681072,145.644,-4.64,358.566,1.0
7.5,128.181775,37.9449,6941.625232800001,148.363,-4.647,358.54,1.0
7.5166,128.181773,37.944951,6941.1811392,151.098,-4.652,358.514,1.0
7.5333,128.181772,37.945001,6940.7355216,153.848,-4.655,358.488,1.0
7.55,128.181771,37.945051,6940.28838,156.612,-4.658,358.463,1.0
7.5666,128.18177,37.945101,6939.840019200001,159.39,-4.658,358.437,1.0
7.5833,128.181769,37.945151,6939.3904391999995,162.18,-4.658,358.412,1.0
7.6,128.181768,37.945201,6938.9393352,164.981,-4.661,358.389,1.0
7.6166,128.181767,37.945252,6938.4864024,167.792,-4.677,358.37,1.0
7.6333,128.181766,37.945302,6938.031945600001,170.614,-4.709,358.354,1.0
7.65,128.181764,37.945352,6937.57566,173.444,-4.76,358.341,1.0
7.6666,128.181763,37.945402,6937.1172408,176.281,-4.831,358.329,1.0
7.6833,128.181762,37.945453,6936.656688000001,179.123,-4.922,358.317,1.0
7.7,128.181761,37.945503,6936.1927824,-178.042,-5.032,358.302,1.0
7.7166,128.18176,37.945553,6935.7252192000005,-175.226,-5.163,358.285,1.0
7.7333,128.181759,37.945604,6935.2533888,-172.439,-5.312,358.263,1.0
7.75,128.181758,37.945654,6934.7769864,-169.69,-5.478,358.234,1.0
7.7666,128.181756,37.945704,6934.2954024,-166.991,-5.66,358.196,1.0
7.7833,128.181755,37.945755,6933.8077224,-164.349,-5.858,358.148,1.0
7.8,128.181754,37.945805,6933.3139464000005,-161.774,-6.07,358.089,1.0
7.8166,128.181753,37.945856,6932.812855200001,-159.272,-6.294,358.017,1.0
7.8333,128.181752,37.945906,6932.3044488000005,-156.851,-6.53,357.93,1.0
7.85,128.18175,37.945956,6931.7878128,-154.518,-6.777,357.829,1.0
7.8666,128.181749,37.946007,6931.262642400001,-152.279,-7.035,357.712,1.0
7.8833,128.181748,37.946057,6930.728632800001,-150.138,-7.301,357.578,1.0
7.9,128.181747,37.946108,6930.184869600001,-148.101,-7.574,357.428,1.0
7.9166,128.181745,37.946158,6929.6316576,-146.169,-7.853,357.261,1.0
7.9333,128.181744,37.946208,6929.0677776,-144.347,-8.138,357.078,1.0
7.95,128.181742,37.946259,6928.4935344,-142.637,-8.427,356.877,1.0
7.9666,128.181741,37.946309,6927.9083184,-141.04,-8.72,356.66,1.0
7.9833,128.181739,37.946359,6927.311520000001,-139.557,-9.016,356.427,1.0
8.0,128.181737,37.94641,6926.7037488,-138.187,-9.312,356.178,1.0
8.0166,128.181736,37.94646,6926.084090400001,-136.929,-9.61,355.914,1.0
8.0333,128.181734,37.946511,6925.4522400000005,-135.781,-9.904,355.641,1.0
8.05,128.181732,37.946561,6924.8088072,-134.741,-10.189,355.363,1.0
8.0666,128.18173,37.946611,6924.1534872,-133.805,-10.46,355.086,1.0
8.0833,128.181728,37.946661,6923.4859752,-132.969,-10.717,354.812,1.0
8.1,128.181725,37.946712,6922.806576,-132.226,-10.959,354.543,1.0
8.1166,128.181723,37.946762,6922.1152896,-131.491,-11.181,354.276,1.0
8.1333,128.18172,37.946812,6921.4124208,-130.773,-11.386,354.011,1.0
8.15,128.181718,37.946863,6920.6985792000005,-130.086,-11.577,353.752,1.0
8.1666,128.181715,37.946913,6919.972545600001,-129.445,-11.759,353.501,1.0
8.1833,128.181712,37.946963,6919.2349296,-128.857,-11.932,353.257,1.0
8.2,128.181709,37.947013,6918.4848168,-128.328,-12.099,353.021,1.0
8.2166,128.181706,37.947063,6917.7231216,-127.86,-12.258,352.792,1.0
8.2333,128.181703,37.947114,6916.9492344,-127.451,-12.411,352.568,1.0
8.25,128.1817,37.947164,6916.163155200001,-127.1,-12.557,352.349,1.0
8.2666,128.181696,37.947214,6915.3654936,-126.8,-12.696,352.135,1.0
8.2833,128.181693,37.947264,6914.5556400000005,-126.545,-12.83,351.924,1.0
8.3,128.181689,37.947314,6913.7345088,-126.326,-12.958,351.717,1.0
8.3166,128.181685,37.947364,6912.9014904000005,-126.137,-13.083,351.514,1.0
8.3333,128.181681,37.947414,6912.0571944,-125.972,-13.204,351.314,1.0
8.35,128.181677,37.947464,6911.201011200001,-125.828,-13.322,351.118,1.0
8.3666,128.181673,37.947514,6910.333550400001,-125.703,-13.438,350.926,1.0
8.3833,128.181668,37.947564,6909.4545072,-125.594,-13.553,350.738,1.0
8.4,128.181664,37.947614,6908.5638816,-125.503,-13.666,350.553,1.0
8.4166,128.181659,37.947664,6907.6616736000005,-125.423,-13.782,350.374,1.0
8.4333,128.181654,37.947714,6906.7481880000005,-125.355,-13.9,350.201,1.0
8.45,128.181649,37.947764,6905.822815200001,-125.3,-14.02,350.033,1.0
8.4666,128.181644,37.947814,6904.88586,-125.262,-14.141,349.869,1.0
8.4833,128.181639,37.947863,6903.9373224,-125.245,-14.263,349.709,1.0
8.5,128.181634,37.947913,6902.9768976000005,-125.249,-14.384,349.55,1.0
8.5166,128.181628,37.947963,6902.004585600001,-125.274,-14.505,349.394,1.0
8.5333,128.181623,37.948013,6901.0206912,-125.322,-14.626,349.239,1.0
8.55,128.181617,37.948062,6900.024604800001,-125.389,-14.747,349.086,1.0
8.5666,128.181611,37.948112,6899.016936,-125.477,-14.867,348.935,1.0
8.5833,128.181605,37.948162,6897.99738,-125.585,-14.988,348.785,1.0
8.6,128.181599,37.948211,6896.9659368,-125.712,-15.109,348.637,1.0
8.6166,128.181592,37.948261,6895.9223016000005,-125.856,-15.23,348.491,1.0
8.6333,128.181586,37.94831,6894.867084,-126.017,-15.351,348.345,1.0
8.65,128.181579,37.94836,6893.799674400001,-126.193,-15.473,348.201,1.0
8.6666,128.181573,37.948409,6892.7206824,-126.383,-15.595,348.058,1.0
8.6833,128.181566,37.948459,6891.6291936,-126.587,-15.717,347.917,1.0
8.7,128.181559,37.948508,6890.5261224000005,-126.802,-15.84,347.776,1.0
8.7166,128.181552,37.948557,6889.4108592,-127.026,-15.964,347.637,1.0
8.7333,128.181544,37.948607,6888.283708800001,-127.258,-16.087,347.498,1.0
8.75,128.181537,37.948656,6887.1443664,-127.498,-16.212,347.361,1.0
8.7666,128.181529,37.948705,6885.992832000001,-127.743,-16.336,347.225,1.0
8.7833,128.181522,37.948755,6884.829410400001,-127.993,-16.461,347.089,1.0
8.8,128.181514,37.948804,6883.653492,-128.247,-16.587,346.955,1.0
8.8166,128.181506,37.948853,6882.465991200001,-128.502,-16.713,346.821,1.0
8.8333,128.181498,37.948902,6881.2659936,-128.76,-16.84,346.689,1.0
8.85,128.18149,37.948951,6880.053804,-129.017,-16.967,346.558,1.0
8.8666,128.181482,37.949,6878.8291176,-129.274,-17.095,346.427,1.0
8.8833,128.181473,37.949049,6877.592544,-129.531,-17.224,346.298,1.0
8.9,128.181464,37.949098,6876.343473600001,-129.785,-17.353,346.169,1.0
8.9166,128.181456,37.949147,6875.0825159999995,-130.035,-17.483,346.041,1.0
8.9333,128.181447,37.949196,6873.8090616,-130.28,-17.614,345.915,1.0
8.95,128.181438,37.949245,6872.5231104,-130.518,-17.744,345.788,1.0
8.9666,128.181429,37.949294,6871.225272000001,-130.746,-17.876,345.663,1.0
8.9833,128.18142,37.949342,6869.914936800001,-130.965,-18.007,345.538,1.0
9.0,128.18141,37.949391,6868.592409600001,-131.173,-18.139,345.414,1.0
9.0166,128.181401,37.94944,6867.2573856,-131.37,-18.271,345.29,1.0
9.0333,128.181391,37.949488,6865.910169600001,-131.555,-18.403,345.167,1.0
9.05,128.181382,37.949537,6864.550456800001,-131.728,-18.536,345.044,1.0
9.0666,128.181372,37.949586,6863.1782472,-131.891,-18.669,344.922,1.0
9.0833,128.181362,37.949634,6861.7938456,-132.043,-18.802,344.801,1.0
9.1,128.181352,37.949683,6860.396947200001,-132.184,-18.936,344.68,1.0
9.1166,128.181342,37.949731,6858.9875520000005,-132.316,-19.07,344.559,1.0
9.1333,128.181332,37.94978,6857.56566,-132.439,-19.204,344.439,1.0
9.15,128.181321,37.949828,6856.1312712,-132.553,-19.338,344.32,1.0
9.1666,128.181311,37.949876,6854.6843856000005,-132.659,-19.472,344.2,1.0
9.1833,128.1813,37.949924,6853.2246984,-132.757,-19.607,344.081,1.0
9.2,128.18129,37.949973,6851.752819200001,-132.847,-19.742,343.963,1.0
9.2166,128.181279,37.950021,6850.268138400001,-132.931,-19.876,343.844,1.0
9.2333,128.181268,37.950069,6848.770656000001,-133.009,-20.011,343.726,1.0
9.25,128.181257,37.950117,6847.2609816,-133.081,-20.146,343.608,1.0
9.2666,128.181245,37.950165,6845.7382008,-133.148,-20.281,343.49,1.0
9.2833,128.181234,37.950213,6844.203228,-133.209,-20.417,343.372,1.0
9.3,128.181223,37.950261,6842.6554536,-133.266,-20.552,343.254,1.0
9.3166,128.181211,37.950309,6841.0948776000005,-133.318,-20.687,343.136,1.0
9.3333,128.1812,37.950357,6839.521804800001,-133.367,-20.822,343.018,1.0
9.35,128.181188,37.950405,6837.9359304,-133.411,-20.958,342.9,1.0
9.3666,128.181176,37.950452,6836.3375592,-133.452,-21.093,342.782,1.0
9.3833,128.181164,37.9505,6834.726386400001,-133.49,-21.229,342.664,1.0
9.4,128.181152,37.950548,6833.102412,-133.525,-21.364,342.546,1.0
9.4166,128.18114,37.950595,6831.465940800001,-133.556,-21.499,342.429,1.0
9.4333,128.181127,37.950643,6829.816668,-133.585,-21.635,342.31,1.0
9.45,128.181115,37.95069,6828.1545936,-133.612,-21.77,342.192,1.0
9.4666,128.181102,37.950738,6826.4800224,-133.636,-21.906,342.074,1.0
9.4833,128.18109,37.950785,6824.7926496,-133.658,-22.042,341.956,1.0
9.5,128.181077,37.950833,6823.0924752,-133.677,-22.177,341.837,1.0
9.5166,128.181064,37.95088,6821.379804,-133.695,-22.313,341.719,1.0
9.5333,128.181051,37.950927,6819.6543312,-133.711,-22.448,341.6,1.0
9.55,128.181038,37.950974,6817.916056800001,-133.725,-22.584,341.482,1.0
9.5666,128.181025,37.951022,6816.1649808,-133.737,-22.719,341.363,1.0
9.5833,128.181011,37.951069,6814.401408,-133.747,-22.855,341.244,1.0
9.6,128.180998,37.951116,6812.625033600001,-133.757,-22.99,341.124,1.0
9.6166,128.180985,37.951163,6810.8358576,-133.764,-23.126,341.005,1.0
9.6333,128.180971,37.95121,6809.0341848,-133.77,-23.261,340.886,1.0
9.65,128.180957,37.951256,6807.219710400001,-133.775,-23.397,340.766,1.0
9.6666,128.180943,37.951303,6805.3924344,-133.778,-23.532,340.646,1.0
9.6833,128.180929,37.95135,6803.5526616,-133.78,-23.667,340.526,1.0
9.7,128.180915,37.951397,6801.700087200001,-133.781,-23.803,340.406,1.0
9.7166,128.180901,37.951443,6799.834711200001,-133.781,-23.938,340.285,1.0
9.7333,128.180887,37.95149,6797.956838400001,-133.78,-24.074,340.165,1.0
9.75,128.180872,37.951536,6796.066164000001,-133.778,-24.209,340.044,1.0
9.7666,128.180858,37.951583,6794.162992800001,-133.774,-24.344,339.923,1.0
9.7833,128.180843,37.951629,6792.246715200001,-133.77,-24.48,339.802,1.0
9.8,128.180828,37.951676,6790.3182456,-133.765,-24.615,339.681,1.0
9.8166,128.180814,37.951722,6788.3766696,-133.758,-24.75,339.559,1.0
9.8333,128.180799,37.951768,6786.422596800001,-133.751,-24.885,339.437,1.0
9.85,128.180784,37.951814,6784.4560272,-133.742,-25.02,339.315,1.0
9.8666,128.180768,37.95186,6782.476656000001,-133.733,-25.155,339.193,1.0
9.8833,128.180753,37.951906,6780.484483200001,-133.723,-25.29,339.071,1.0
9.9,128.180738,37.951952,6778.4798136,-133.712,-25.425,338.948,1.0
9.9166,128.180722,37.951998,6776.462647200001,-133.7,-25.56,338.825,1.0
9.9333,128.180707,37.952044,6774.432679200001,-133.688,-25.695,338.702,1.0
9.95,128.180691,37.95209,6772.3902144,-133.674,-25.83,338.579,1.0
9.9666,128.180675,37.952136,6770.334948,-133.66,-25.965,338.455,1.0
9.9833,128.180659,37.952181,6768.26688,-133.645,-26.099,338.332,1.0
10.0,128.180643,37.952227,6766.18662,-133.629,-26.234,338.208,1.0
10.0166,128.180627,37.952272,6764.0935584,-133.613,-26.369,338.083,1.0
10.0333,128.180611,37.952318,6761.9876952,-133.596,-26.503,337.959,1.0
10.05,128.180595,37.952363,6759.86964,-133.578,-26.638,337.834,1.0
10.0666,128.180578,37.952409,6757.7387832,-133.559,-26.773,337.709,1.0
10.0833,128.180562,37.952454,6755.5954296,-133.54,-26.907,337.584,1.0
10.1,128.180545,37.952499,6753.439274400001,-133.52,-27.041,337.458,1.0
10.1166,128.180528,37.952544,6751.2706224,-133.499,-27.176,337.333,1.0
10.1333,128.180511,37.952589,6749.089473600001,-133.478,-27.31,337.207,1.0
10.15,128.180495,37.952634,6746.895828000001,-133.456,-27.444,337.08,1.0
10.1666,128.180477,37.952679,6744.6896856,-133.433,-27.579,336.954,1.0
10.1833,128.18046,37.952724,6742.4707416,-133.41,-27.713,336.827,1.0
10.2,128.180443,37.952769,6740.239605600001,-133.386,-27.847,336.7,1.0
10.2166,128.180426,37.952813,6737.9956680000005,-133.361,-27.981,336.572,1.0
10.2333,128.180408,37.952858,6735.739233600001,-133.336,-28.115,336.445,1.0
10.25,128.180391,37.952903,6733.4703024,-133.311,-28.249,336.317,1.0
10.2666,128.180373,37.952947,6731.189179200001,-133.284,-28.383,336.188,1.0
10.2833,128.180355,37.952992,6728.8952544,-133.257,-28.516,336.06,1.0
10.3,128.180337,37.953036,6726.588832800001,-133.229,-28.65,335.931,1.0
10.3166,128.180319,37.95308,6724.270219200001,-133.201,-28.784,335.802,1.0
10.3333,128.180301,37.953125,6721.938804,-133.172,-28.917,335.673,1.0
10.35,128.180283,37.953169,6719.595196800001,-133.143,-29.051,335.543,1.0
10.3666,128.180265,37.953213,6717.2390928,-133.113,-29.184,335.413,1.0
10.3833,128.180247,37.953257,6714.870492000001,-133.082,-29.318,335.283,1.0
10.4,128.180228,37.953301,6712.4893944000005,-133.051,-29.451,335.152,1.0
10.4166,128.180209,37.953345,6710.0958,-133.019,-29.584,335.021,1.0
10.4333,128.180191,37.953388,6707.6900136,-132.986,-29.717,334.89,1.0
10.45,128.180172,37.953432,6705.2717304,-132.953,-29.851,334.758,1.0
10.4666,128.180153,37.953476,6702.841255200001,-132.92,-29.984,334.626,1.0
10.4833,128.180134,37.953519,6700.398283200001,-132.886,-30.116,334.494,1.0
10.5,128.180115,37.953563,6697.9428144,-132.851,-30.249,334.361,1.0
10.5166,128.180096,37.953606,6695.4751536,-132.816,-30.382,334.228,1.0
10.5333,128.180077,37.953649,6692.994996,-132.781,-30.514,334.094,1.0
10.55,128.180057,37.953693,6690.5026464,-132.745,-30.646,333.96,1.0
10.5666,128.180038,37.953736,6687.9978,-132.709,-30.778,333.826,1.0
10.5833,128.180018,37.953779,6685.4807616,-132.672,-30.909,333.69,1.0
10.6,128.179999,37.953822,6682.9512264,-132.635,-31.041,333.555,1.0
10.6166,128.179979,37.953865,6680.4094992,-132.597,-31.172,333.419,1.0
10.6333,128.179959,37.953908,6677.8555799999995,-132.559,-31.303,333.282,1.0
10.65,128.179939,37.95395,6675.289468800001,-132.52,-31.434,333.145,1.0
10.6666,128.179919,37.953993,6672.710860800001,-132.48,-31.564,333.007,1.0
10.6833,128.179899,37.954036,6670.120365600001,-132.44,-31.694,332.869,1.0
10.7,128.179879,37.954078,6667.517373600001,-132.399,-31.824,332.73,1.0
10.7166,128.179858,37.954121,6664.9021896,-132.358,-31.954,332.591,1.0
10.7333,128.179838,37.954163,6662.2748136,-132.316,-32.084,332.452,1.0
10.75,128.179817,37.954205,6659.6352456,-132.274,-32.213,332.311,1.0
10.7666,128.179797,37.954247,6656.9834856,-132.231,-32.342,332.171,1.0
10.7833,128.179776,37.95429,6654.319533600001,-132.187,-32.471,332.029,1.0
10.8,128.179755,37.954332,6651.6433896,-132.143,-32.6,331.888,1.0
10.8166,128.179734,37.954374,6648.9550536,-132.098,-32.728,331.745,1.0
10.8333,128.179713,37.954415,6646.2548304,-132.053,-32.857,331.603,1.0
10.85,128.179692,37.954457,6643.542110400001,-132.007,-32.985,331.459,1.0
10.8666,128.179671,37.954499,6640.8175032,-131.961,-33.113,331.316,1.0
10.8833,128.17965,37.95454,6638.0810088,-131.914,-33.24,331.172,1.0
10.9,128.179628,37.954582,6635.3320176,-131.867,-33.368,331.027,1.0
10.9166,128.179607,37.954623,6632.5711392,-131.819,-33.495,330.881,1.0
10.9333,128.179585,37.954665,6629.798373600001,-131.77,-33.622,330.735,1.0
10.95,128.179564,37.954706,6627.013416,-131.722,-33.748,330.589,1.0
10.9666,128.179542,37.954747,6624.2165712,-131.672,-33.875,330.442,1.0
10.9833,128.17952,37.954788,6621.4075344,-131.622,-34.001,330.294,1.0
11.0,128.179498,37.954829,6618.586610400001,-131.572,-34.127,330.146,1.0
11.0166,128.179476,37.95487,6615.7537992,-131.521,-34.253,329.998,1.0
11.0333,128.179454,37.954911,6612.908796000001,-131.47,-34.379,329.849,1.0
11.05,128.179432,37.954952,6610.0519056,-131.418,-34.504,329.699,1.0
11.0666,128.179409,37.954992,6607.183128000001,-131.366,-34.629,329.549,1.0
11.0833,128.179387,37.955033,6604.302463200001,-131.313,-34.754,329.398,1.0
11.1,128.179364,37.955073,6601.409911200001,-131.26,-34.879,329.247,1.0
11.1166,128.179342,37.955114,6598.505472,-131.206,-35.003,329.095,1.0
11.1333,128.179319,37.955154,6595.5891456,-131.152,-35.127,328.943,1.0
11.15,128.179296,37.955194,6592.661236800001,-131.098,-35.251,328.79,1.0
11.1666,128.179274,37.955234,6589.721136,-131.043,-35.375,328.636,1.0
11.1833,128.179251,37.955274,6586.769147999999,-130.987,-35.499,328.482,1.0
11.2,128.179228,37.955314,6583.8055776,-130.931,-35.622,328.328,1.0
11.2166,128.179204,37.955354,6580.8301200000005,-130.874,-35.745,328.172,1.0
11.2333,128.179181,37.955394,6577.84308,-130.818,-35.868,328.017,1.0
11.25,128.179158,37.955433,6574.8441528,-130.76,-35.99,327.86,1.0
11.2666,128.179134,37.955473,6571.833338400001,-130.702,-36.113,327.703,1.0
11.2833,128.179111,37.955512,6568.810941600001,-130.644,-36.235,327.546,1.0
11.3,128.179087,37.955552,6565.7769624,-130.585,-36.357,327.388,1.0
11.3166,128.179064,37.955591,6562.731096,-130.526,-36.478,327.229,1.0
11.3333,128.17904,37.95563,6559.673647200001,-130.466,-36.6,327.07,1.0
11.35,128.179016,37.955669,6556.604311200001,-130.406,-36.721,326.91,1.0
11.3666,128.178992,37.955708,6553.523697600001,-130.345,-36.842,326.749,1.0
11.3833,128.178968,37.955747,6550.431196800001,-130.284,-36.962,326.588,1.0
11.4,128.178944,37.955786,6547.3274184,-130.222,-37.083,326.426,1.0
11.4166,128.17892,37.955824,6544.2117528,-130.159,-37.203,326.264,1.0
11.4333,128.178896,37.955863,6541.084809600001,-130.097,-37.323,326.101,1.0
11.45,128.178871,37.955901,6537.945979200001,-130.033,-37.442,325.938,1.0
11.4666,128.178847,37.95594,6534.7958712,-129.969,-37.562,325.773,1.0
11.4833,128.178822,37.955978,6531.6341808,-129.905,-37.681,325.609,1.0
11.5,128.178798,37.956016,6528.460908,-129.84,-37.799,325.443,1.0
11.5166,128.178773,37.956054,6525.2763576,-129.775,-37.918,325.277,1.0
11.5333,128.178748,37.956092,6522.080224800001,-129.709,-38.036,325.111,1.0
11.55,128.178723,37.95613,6518.872814400001,-129.642,-38.154,324.943,1.0
11.5666,128.178698,37.956168,6515.6538216,-129.575,-38.272,324.776,1.0
11.5833,128.178673,37.956205,6512.4235512000005,-129.507,-38.39,324.608,1.0
11.6,128.178648,37.956243,6509.1816984,-129.438,-38.508,324.439,1.0
11.6166,128.178623,37.95628,6505.9288728,-129.368,-38.626,324.271,1.0
11.6333,128.178598,37.956318,6502.664464800001,-129.297,-38.744,324.101,1.0
11.65,128.178572,37.956355,6499.3887792000005,-129.226,-38.862,323.932,1.0
11.6666,128.178547,37.956392,6496.101815999999,-129.155,-38.98,323.762,1.0
11.6833,128.178521,37.956429,6492.8035752,-129.083,-39.097,323.591,1.0
11.7,128.178496,37.956466,6489.494056800001,-129.01,-39.215,323.42,1.0
11.7166,128.17847,37.956503,6486.173260800001,-128.937,-39.332,323.249,1.0
11.7333,128.178444,37.95654,6482.841187200001,-128.863,-39.45,323.077,1.0
11.75,128.178418,37.956576,6479.4981408,-128.788,-39.567,322.904,1.0
11.7666,128.178392,37.956613,6476.1438168,-128.713,-39.684,322.731,1.0
11.7833,128.178366,37.956649,6472.778215200001,-128.637,-39.801,322.558,1.0
11.8,128.17834,37.956685,6469.401640800001,-128.561,-39.918,322.384,1.0
11.8166,128.178314,37.956722,6466.0140936,-128.484,-40.035,322.21,1.0
11.8333,128.178288,37.956758,6462.6152688,-128.407,-40.152,322.035,1.0
11.85,128.178261,37.956794,6459.2051664,-128.328,-40.269,321.86,1.0
11.8666,128.178235,37.956829,6455.784396,-128.249,-40.385,321.684,1.0
11.8833,128.178208,37.956865,6452.352347999999,-128.17,-40.502,321.508,1.0
11.9,128.178182,37.956901,6448.9093272,-128.09,-40.618,321.331,1.0
11.9166,128.178155,37.956936,6445.455333600001,-128.009,-40.735,321.153,1.0
11.9333,128.178128,37.956972,6441.9903672,-127.927,-40.851,320.975,1.0
11.95,128.178102,37.957007,6438.514428,-127.845,-40.967,320.797,1.0
11.9666,128.178075,37.957042,6435.0278208,-127.761,-41.083,320.618,1.0
11.9833,128.178048,37.957077,6431.529936,-127.678,-41.198,320.439,1.0
12.0,128.178021,37.957112,6428.021383200001,-127.593,-41.314,320.259,1.0
12.0166,128.177993,37.957147,6424.5018576,-127.507,-41.429,320.078,1.0
12.0333,128.177966,37.957182,6420.971664000001,-127.421,-41.545,319.897,1.0
12.05,128.177939,37.957217,6417.430497600001,-127.334,-41.66,319.715,1.0
12.0666,128.177911,37.957251,6413.8786632,-127.246,-41.775,319.533,1.0
12.0833,128.177884,37.957286,6410.315856000001,-127.157,-41.89,319.35,1.0
12.1,128.177856,37.95732,6406.7423808,-127.067,-42.004,319.167,1.0
12.1166,128.177829,37.957354,6403.158237600001,-126.977,-42.119,318.983,1.0
12.1333,128.177801,37.957388,6399.5634264,-126.885,-42.233,318.798,1.0
12.15,128.177773,37.957422,6395.957642400001,-126.793,-42.347,318.613,1.0
12.1666,128.177746,37.957456,6392.3414952,-126.7,-42.461,318.427,1.0
12.1833,128.177718,37.95749,6388.71468,-126.605,-42.575,318.241,1.0
12.2,128.17769,37.957523,6385.077196800001,-126.51,-42.689,318.054,1.0
12.2166,128.177662,37.957557,6381.429045600001,-126.414,-42.802,317.866,1.0
12.2333,128.177633,37.95759,6377.7702264,-126.316,-42.915,317.678,1.0
12.25,128.177605,37.957623,6374.101044,-126.218,-43.028,317.489,1.0
12.2666,128.177577,37.957657,6370.4214984,-126.119,-43.141,317.3,1.0
12.2833,128.177549,37.95769,6366.7312848,-126.019,-43.253,317.11,1.0
12.3,128.17752,37.957722,6363.0304032,-125.917,-43.366,316.92,1.0
12.3166,128.177492,37.957755,6359.3194632,-125.815,-43.478,316.728,1.0
12.3333,128.177463,37.957788,6355.597855200001,-125.711,-43.59,316.537,1.0
12.35,128.177434,37.957821,6351.865884000001,-125.607,-43.702,316.344,1.0
12.3666,128.177406,37.957853,6348.1232448,-125.501,-43.813,316.151,1.0
12.3833,128.177377,37.957885,6344.370547200001,-125.395,-43.924,315.957,1.0
12.4,128.177348,37.957917,6340.6074864,-125.287,-44.035,315.763,1.0
12.4166,128.177319,37.95795,6336.8343672,-125.178,-44.146,315.568,1.0
12.4333,128.17729,37.957981,6333.05058,-125.068,-44.256,315.372,1.0
12.45,128.177261,37.958013,6329.2567344,-124.957,-44.367,315.176,1.0
12.4666,128.177232,37.958045,6325.4525256,-124.845,-44.477,314.978,1.0
12.4833,128.177203,37.958077,6321.6382584,-124.732,-44.586,314.781,1.0
12.5,128.177173,37.958108,6317.813628000001,-124.617,-44.696,314.582,1.0
12.5166,128.177144,37.958139,6313.9789392,-124.501,-44.805,314.383,1.0
12.5333,128.177115,37.958171,6310.134192,-124.384,-44.914,314.183,1.0
12.55,128.177085,37.958202,6306.2793864000005,-124.266,-45.023,313.982,1.0
12.5666,128.177056,37.958233,6302.4145224,-124.147,-45.131,313.781,1.0
12.5833,128.177026,37.958263,6298.5392952,-124.027,-45.239,313.579,1.0
12.6,128.176996,37.958294,6294.654314400001,-123.905,-45.347,313.376,1.0
12.6166,128.176966,37.958325,6290.7592752,-123.782,-45.454,313.173,1.0
12.6333,128.176937,37.958355,6286.8541776,-123.658,-45.562,312.968,1.0
12.65,128.176907,37.958386,6282.9393264,-123.533,-45.669,312.763,1.0
12.6666,128.176877,37.958416,6279.0144168,-123.407,-45.775,312.557,1.0
12.6833,128.176847,37.958446,6275.0797536,-123.279,-45.882,312.351,1.0
12.7,128.176817,37.958476,6271.135032,-123.15,-45.988,312.143,1.0
12.7166,128.176786,37.958506,6267.1808616,-123.019,-46.093,311.935,1.0
12.7333,128.176756,37.958535,6263.216328,-122.888,-46.199,311.726,1.0
12.75,128.176726,37.958565,6259.242345600001,-122.755,-46.304,311.517,1.0
12.7666,128.176696,37.958594,6255.2586096,-122.621,-46.409,311.306,1.0
12.7833,128.176665,37.958624,6251.265120000001,-122.486,-46.513,311.095,1.0
12.8,128.176635,37.958653,6247.2621816,-122.349,-46.617,310.883,1.0
12.8166,128.176604,37.958682,6243.2491848,-122.211,-46.721,310.67,1.0
12.8333,128.176574,37.958711,6239.2267392,-122.072,-46.825,310.456,1.0
12.85,128.176543,37.95874,6235.1948448,-121.932,-46.928,310.242,1.0
12.8666,128.176512,37.958768,6231.153196800001,-121.79,-47.03,310.026,1.0
12.8833,128.176481,37.958797,6227.1017952,-121.647,-47.133,309.81,1.0
12.9,128.17645,37.958825,6223.0412496,-121.503,-47.235,309.593,1.0
12.9166,128.17642,37.958854,6218.9709504,-121.358,-47.336,309.375,1.0
12.9333,128.176389,37.958882,6214.8915072,-121.211,-47.438,309.157,1.0
12.95,128.176357,37.95891,6210.8023104,-121.063,-47.539,308.937,1.0
12.9666,128.176326,37.958938,6206.703969600001,-120.913,-47.639,308.717,1.0
12.9833,128.176295,37.958965,6202.59618,-120.763,-47.739,308.496,1.0
13.0,128.176264,37.958993,6198.4789416,-120.611,-47.839,308.273,1.0
13.0166,128.176233,37.959021,6194.3525592000005,-120.457,-47.939,308.05,1.0
13.0333,128.176201,37.959048,6190.2170328,-120.303,-48.038,307.827,1.0
13.0499,128.17617,37.959075,6186.0720576,-120.147,-48.136,307.602,1.0
13.0666,128.176138,37.959102,6181.917938400001,-119.989,-48.234,307.376,1.0
13.0833,128.176107,37.959129,6177.754370400001,-119.831,-48.332,307.15,1.0
13.1,128.176075,37.959156,6173.5819632,-119.671,-48.429,306.922,1.0
13.1166,128.176044,37.959183,6169.400412,-119.51,-48.526,306.694,1.0
13.1333,128.176012,37.959209,6165.2097168,-119.347,-48.623,306.465,1.0
13.15,128.17598,37.959236,6161.0101824,-119.184,-48.719,306.235,1.0
13.1666,128.175948,37.959262,6156.801504,-119.018,-48.815,306.004,1.0
13.1833,128.175916,37.959288,6152.5836816,-118.852,-48.91,305.772,1.0
13.2,128.175885,37.959314,6148.35702,-118.685,-49.005,305.539,1.0
13.2166,128.175853,37.95934,6144.121519200001,-118.516,-49.099,305.305,1.0
13.2333,128.175821,37.959365,6139.877179200001,-118.345,-49.193,305.071,1.0
13.25,128.175788,37.959391,6135.624000000001,-118.174,-49.286,304.835,1.0
13.2666,128.175756,37.959416,6131.3619816,-118.001,-49.379,304.599,1.0
13.2833,128.175724,37.959442,6127.0911240000005,-117.826,-49.472,304.361,1.0
13.3,128.175692,37.959467,6122.8114272,-117.651,-49.564,304.123,1.0
13.3166,128.175659,37.959492,6118.523196,-117.474,-49.655,303.883,1.0
13.3333,128.175627,37.959517,6114.2261256,-117.295,-49.746,303.643,1.0
13.35,128.175595,37.959542,6109.920520799999,-117.116,-49.837,303.402,1.0
13.3666,128.175562,37.959566,6105.6063816000005,-116.935,-49.927,303.16,1.0
13.3833,128.17553,37.959591,6101.2834032,-116.753,-50.017,302.917,1.0
13.4,128.175497,37.959615,6096.9521952000005,-116.569,-50.106,302.672,1.0
13.4166,128.175464,37.959639,6092.6124528,-116.384,-50.194,302.427,1.0
13.4333,128.175432,37.959663,6088.264176,-116.198,-50.282,302.181,1.0
13.45,128.175399,37.959687,6083.9073648,-116.01,-50.37,301.934,1.0
13.4666,128.175366,37.959711,6079.542324000001,-115.821,-50.457,301.686,1.0
13.4833,128.175333,37.959734,6075.1687488,-115.631,-50.543,301.437,1.0
13.5,128.1753,37.959758,6070.786944,-115.44,-50.629,301.188,1.0
13.5166,128.175267,37.959781,6066.3969096,-115.247,-50.715,300.937,1.0
13.5333,128.175234,37.959804,6061.998645600001,-115.053,-50.8,300.685,1.0
13.55,128.175201,37.959827,6057.592152000001,-114.857,-50.884,300.432,1.0
13.5666,128.175168,37.95985,6053.177428800001,-114.66,-50.968,300.178,1.0
13.5833,128.175135,37.959873,6048.754476,-114.462,-51.051,299.924,1.0
13.6,128.175102,37.959895,6044.3235984,-114.263,-51.134,299.668,1.0
13.6166,128.175068,37.959918,6039.884796,-114.062,-51.216,299.411,1.0
13.6333,128.175035,37.95994,6035.437764,-113.86,-51.297,299.153,1.0
13.65,128.175002,37.959962,6030.9828072,-113.657,-51.378,298.895,1.0
13.6666,128.174968,37.959984,6026.5199256,-113.452,-51.459,298.635,1.0
13.6833,128.174935,37.960006,6022.049119200001,-113.246,-51.538,298.374,1.0
13.7,128.174901,37.960028,6017.570388000001,-113.039,-51.618,298.113,1.0
13.7166,128.174868,37.96005,6013.083732,-112.831,-51.696,297.85,1.0
13.7333,128.174834,37.960071,6008.589456000001,-112.621,-51.774,297.586,1.0
13.75,128.174801,37.960092,6004.0872552,-112.41,-51.852,297.322,1.0
13.7666,128.174767,37.960113,5999.5777392,-112.198,-51.928,297.056,1.0
13.7833,128.174733,37.960134,5995.0602984,-111.984,-52.005,296.789,1.0
13.8,128.174699,37.960155,5990.535237600001,-111.769,-52.08,296.522,1.0
13.8166,128.174665,37.960176,5986.002556800001,-111.553,-52.155,296.253,1.0
13.8333,128.174632,37.960196,5981.462256000001,-111.335,-52.229,295.984,1.0
13.85,128.174598,37.960217,5976.9143352,-111.117,-52.303,295.713,1.0
13.8666,128.174564,37.960237,5972.359404,-110.897,-52.376,295.442,1.0
13.8833,128.17453,37.960257,5967.796548,-110.675,-52.448,295.169,1.0
13.9,128.174496,37.960277,5963.2266816,-110.453,-52.52,294.896,1.0
13.9166,128.174461,37.960297,5958.649195200001,-110.229,-52.591,294.621,1.0
13.9333,128.174427,37.960316,5954.0646983999995,-110.005,-52.661,294.346,1.0
13.95,128.174393,37.960336,5949.4725816,-109.779,-52.731,294.07,1.0
13.9666,128.174359,37.960355,5944.8734544,-109.551,-52.8,293.792,1.0
13.9833,128.174325,37.960374,5940.267012,-109.323,-52.869,293.514,1.0
14.0,128.17429,37.960393,5935.6535592,-109.093,-52.936,293.235,1.0
14.0166,128.174256,37.960412,5931.033096,-108.862,-53.003,292.954,1.0
14.0333,128.174221,37.960431,5926.4053176,-108.63,-53.07,292.673,1.0
14.05,128.174187,37.960449,5921.7708336000005,-108.397,-53.135,292.391,1.0
14.0666,128.174152,37.960468,5917.1290344,-108.162,-53.2,292.108,1.0
14.0833,128.174118,37.960486,5912.4805295999995,-107.927,-53.264,291.824,1.0
14.1,128.174083,37.960504,5907.8250144,-107.69,-53.328,291.539,1.0
14.1166,128.174049,37.960522,5903.1627935999995,-107.452,-53.391,291.253,1.0
14.1333,128.174014,37.96054,5898.4938672,-107.212,-53.453,290.966,1.0
14.15,128.173979,37.960557,5893.8179304,-106.972,-53.514,290.678,1.0
14.1666,128.173945,37.960575,5889.135288,-106.731,-53.575,290.389,1.0
14.1833,128.17391,37.960592,5884.4462448,-106.488,-53.634,290.1,1.0
14.2,128.173875,37.960609,5879.750191200001,-106.244,-53.694,289.809,1.0
14.2166,128.17384,37.960626,5875.0477368,-105.999,-53.752,289.518,1.0
14.2333,128.173805,37.960643,5870.338881600001,-105.753,-53.81,289.225,1.0
14.25,128.17377,37.96066,5865.6236256,-105.506,-53.866,288.932,1.0
14.2666,128.173735,37.960676,5860.901664,-105.258,-53.923,288.638,1.0
14.2833,128.1737,37.960692,5856.173301600001,-105.009,-53.978,288.343,1.0
14.3,128.173665,37.960709,5851.438538400001,-104.759,-54.032,288.047,1.0
14.3166,128.17363,37.960725,5846.6976792000005,-104.507,-54.086,287.75,1.0
14.3333,128.173595,37.96074,5841.9504192,-104.255,-54.139,287.452,1.0
14.35,128.17356,37.960756,5837.1970632,-104.002,-54.192,287.154,1.0
14.3666,128.173525,37.960772,5832.437611200001,-103.747,-54.243,286.854,1.0
14.3833,128.17349,37.960787,5827.6717584,-103.492,-54.294,286.554,1.0
14.4,128.173454,37.960802,5822.9001144,-103.235,-54.343,286.253,1.0
14.4166,128.173419,37.960817,5818.122069600001,-102.978,-54.392,285.951,1.0
14.4333,128.173384,37.960832,5813.3382336,-102.719,-54.441,285.649,1.0
14.45,128.173348,37.960847,5808.548606400001,-102.459,-54.488,285.345,1.0
