Time,Longitude,Latitude,Altitude,Roll (deg),Pitch (deg),Yaw (deg),Health
0.0,128.181861,37.923644,6999.6228816,-3.0,-3.003,350.0,1.0
0.0166,128.181851,37.923688,6999.374774400001,-3.0,-3.012,350.0,1.0
0.0333,128.181841,37.923733,6999.125448,-2.999,-3.028,350.004,1.0
0.05,128.181831,37.923777,6998.874292800001,-2.987,-3.044,350.011,1.0
0.0666,128.181821,37.923821,6998.6231376000005,-2.985,-3.062,350.019,1.0
0.0833,128.181812,37.923865,6998.3713728,-2.993,-3.08,350.027,1.0
0.1,128.181802,37.923909,6998.1189984,-3.008,-3.098,350.035,1.0
0.1166,128.181792,37.923954,6997.865709600001,-3.03,-3.116,350.043,1.0
0.1333,128.181782,37.923998,6997.611811200001,-3.058,-3.135,350.051,1.0
0.15,128.181772,37.924042,6997.3569984,-3.092,-3.153,350.058,1.0
0.1666,128.181762,37.924086,6997.1012712,-3.129,-3.171,350.066,1.0
0.1833,128.181752,37.92413,6996.8449344,-3.171,-3.189,350.074,1.0
0.2,128.181742,37.924175,6996.5876832,-3.217,-3.207,350.081,1.0
0.2166,128.181732,37.924219,6996.3295176,-3.265,-3.224,350.089,1.0
0.2333,128.181723,37.924263,6996.0704376,-3.316,-3.241,350.097,1.0
0.25,128.181713,37.924307,6995.8104432,-3.368,-3.258,350.105,1.0
0.2666,128.181703,37.924351,6995.5492296,-3.423,-3.275,350.112,1.0
0.2833,128.181693,37.924396,6995.287406400001,-3.48,-3.292,350.12,1.0
0.3,128.181683,37.92444,6995.024364000001,-3.538,-3.308,350.128,1.0
0.3166,128.181673,37.924484,6994.760712,-3.597,-3.324,350.135,1.0
0.3333,128.181663,37.924528,6994.4958408,-3.658,-3.34,350.143,1.0
0.35,128.181653,37.924572,6994.229750400001,-3.72,-3.355,350.15,1.0
0.3666,128.181643,37.924617,6993.963050400001,-3.783,-3.371,350.157,1.0
0.3833,128.181633,37.924661,6993.6951312,-3.847,-3.386,350.165,1.0
0.4,128.181624,37.924705,6993.425992800001,-3.911,-3.401,350.172,1.0
0.4166,128.181614,37.924749,6993.155940000001,-3.977,-3.416,350.179,1.0
0.4333,128.181604,37.924793,6992.8849728000005,-4.044,-3.431,350.186,1.0
0.45,128.181594,37.924838,6992.6127864,-4.111,-3.446,350.193,1.0
0.4666,128.181584,37.924882,6992.3396856,-4.179,-3.461,350.2,1.0
0.4833,128.181574,37.924926,6992.0653656,-4.248,-3.475,350.207,1.0
0.5,128.181564,37.92497,6991.7901312,-4.318,-3.489,350.213,1.0
0.5166,128.181554,37.925014,6991.513677600001,-4.388,-3.504,350.22,1.0
0.5333,128.181544,37.925059,6991.236309600001,-4.459,-3.518,350.226,1.0
0.55,128.181534,37.925103,6990.957417600001,-4.531,-3.532,350.233,1.0
0.5666,128.181524,37.925147,6990.677916,-4.603,-3.546,350.239,1.0
0.5833,128.181515,37.925191,6990.3971952,-4.676,-3.56,350.246,1.0
0.6,128.181505,37.925236,6990.1152552,-4.749,-3.574,350.252,1.0
0.6166,128.181495,37.92528,6989.832096,-4.824,-3.588,350.258,1.0
0.6333,128.181485,37.925324,6989.5480224,-4.899,-3.602,350.264,1.0
0.65,128.181475,37.925368,6989.2627296,-4.974,-3.615,350.27,1.0
0.6666,128.181465,37.925412,6988.9762176,-5.05,-3.629,350.276,1.0
0.6833,128.181455,37.925457,6988.6887912,-5.127,-3.642,350.282,1.0
0.7,128.181445,37.925501,6988.4001456000005,-5.204,-3.656,350.288,1.0
0.7166,128.181435,37.925545,6988.1102808000005,-5.282,-3.669,350.294,1.0
0.7333,128.181425,37.925589,6987.819196800001,-5.361,-3.683,350.3,1.0
0.75,128.181415,37.925634,6987.5271984,-5.44,-3.696,350.306,1.0
0.7666,128.181405,37.925678,6987.2339808,-5.519,-3.709,350.311,1.0
0.7833,128.181395,37.925722,6986.939544,-5.6,-3.723,350.317,1.0
0.8,128.181386,37.925766,6986.6438880000005,-5.68,-3.736,350.322,1.0
0.8166,128.181376,37.92581,6986.3470128,-5.762,-3.749,350.328,1.0
0.8333,128.181366,37.925855,6986.049223200001,-5.844,-3.762,350.333,1.0
0.85,128.181356,37.925899,6985.750214400001,-5.926,-3.776,350.338,1.0
0.8666,128.181346,37.925943,6985.4499864,-6.009,-3.789,350.344,1.0
0.8833,128.181336,37.925987,6985.147320000001,-6.07,-3.801,350.35,1.0
0.9,128.181326,37.926032,6984.842824800001,-6.109,-3.811,350.358,1.0
0.9166,128.181316,37.926076,6984.536500800001,-6.129,-3.822,350.367,1.0
0.9333,128.181306,37.92612,6984.2286527999995,-6.132,-3.831,350.375,1.0
0.95,128.181296,37.926164,6983.918976,-6.119,-3.841,350.383,1.0
0.9666,128.181286,37.926209,6983.6077752,-6.094,-3.851,350.391,1.0
0.9833,128.181276,37.926253,6983.295355200001,-6.058,-3.86,350.398,1.0
1.0,128.181266,37.926297,6982.9811064000005,-6.013,-3.87,350.404,1.0
1.0166,128.181256,37.926341,6982.665638400001,-5.961,-3.88,350.41,1.0
1.0333,128.181247,37.926386,6982.348646400001,-5.903,-3.89,350.416,1.0
1.05,128.181237,37.92643,6982.0301304,-5.84,-3.901,350.421,1.0
1.0666,128.181227,37.926474,6981.710395200001,-5.774,-3.911,350.426,1.0
1.0833,128.181217,37.926519,6981.389440800001,-5.705,-3.922,350.431,1.0
1.1,128.181207,37.926563,6981.0669624,-5.634,-3.934,350.436,1.0
1.1166,128.181197,37.926607,6980.7432648,-5.561,-3.945,350.44,1.0
1.1333,128.181187,37.926651,6980.418043199999,-5.486,-3.957,350.444,1.0
1.15,128.181177,37.926696,6980.0919072,-5.411,-3.968,350.449,1.0
1.1666,128.181167,37.92674,6979.764247200001,-5.334,-3.98,350.453,1.0
1.1833,128.181157,37.926784,6979.4350632000005,-5.258,-3.992,350.456,1.0
1.2,128.181147,37.926829,6979.104964800001,-5.181,-4.005,350.46,1.0
1.2166,128.181137,37.926873,6978.773342400001,-5.103,-4.017,350.464,1.0
1.2333,128.181127,37.926917,6978.4408056,-5.026,-4.029,350.467,1.0
1.25,128.181117,37.926961,6978.1067448,-4.948,-4.042,350.471,1.0
1.2666,128.181107,37.927006,6977.771464800001,-4.87,-4.055,350.474,1.0
1.2833,128.181097,37.92705,6977.4346608000005,-4.793,-4.068,350.478,1.0
1.3,128.181087,37.927094,6977.0969424,-4.715,-4.081,350.481,1.0
1.3166,128.181077,37.927139,6976.7577,-4.638,-4.094,350.484,1.0
1.3333,128.181068,37.927183,6976.417238400001,-4.561,-4.107,350.487,1.0
1.35,128.181058,37.927227,6976.0758624,-4.484,-4.12,350.49,1.0
1.3666,128.181048,37.927272,6975.7326576,-4.407,-4.133,350.493,1.0
1.3833,128.181038,37.927316,6975.3885384000005,-4.33,-4.147,350.496,1.0
1.4,128.181028,37.92736,6975.0432,-4.254,-4.16,350.499,1.0
1.4166,128.181018,37.927405,6974.6963376,-4.177,-4.174,350.502,1.0
1.4333,128.181008,37.927449,6974.348560800001,-4.101,-4.187,350.505,1.0
1.45,128.180998,37.927493,6973.9992600000005,-4.025,-4.201,350.508,1.0
1.4666,128.180988,37.927538,6973.6487400000005,-3.949,-4.215,350.511,1.0
1.4833,128.180978,37.927582,6973.2970008,-3.874,-4.229,350.513,1.0
1.5,128.180968,37.927626,6972.9440424,-3.798,-4.242,350.516,1.0
1.5166,128.180958,37.927671,6972.5898648,-3.723,-4.256,350.519,1.0
1.5333,128.180948,37.927715,6972.234468000001,-3.648,-4.27,350.521,1.0
1.55,128.180938,37.927759,6971.877547200001,-3.573,-4.284,350.524,1.0
1.5666,128.180928,37.927804,6971.519712,-3.498,-4.298,350.526,1.0
1.5833,128.180918,37.927848,6971.1603528,-3.423,-4.313,350.528,1.0
1.6,128.180908,37.927892,6970.7997744,-3.349,-4.327,350.531,1.0
1.6166,128.180898,37.927937,6970.4379768,-3.274,-4.341,350.533,1.0
1.6333,128.180888,37.927981,6970.074960000001,-3.2,-4.355,350.536,1.0
1.65,128.180878,37.928025,6969.710419200001,-3.126,-4.37,350.538,1.0
1.6666,128.180868,37.92807,6969.344964000001,-3.051,-4.384,350.54,1.0
1.6833,128.180859,37.928114,6968.9782896,-2.977,-4.398,350.542,1.0
1.7,128.180849,37.928158,6968.6100912,-2.903,-4.413,350.544,1.0
1.7166,128.180839,37.928203,6968.2406736,-2.829,-4.427,350.547,1.0
1.7333,128.180829,37.928247,6967.870036800001,-2.756,-4.442,350.549,1.0
1.75,128.180819,37.928292,6967.4981808,-2.682,-4.456,350.551,1.0
1.7666,128.180809,37.928336,6967.125105600001,-2.608,-4.471,350.553,1.0
1.7833,128.180799,37.92838,6966.7508112000005,-2.534,-4.486,350.555,1.0
1.8,128.180789,37.928425,6966.374992800001,-2.461,-4.5,350.557,1.0
1.8166,128.180779,37.928469,6965.9979552,-2.387,-4.515,350.559,1.0
1.8333,128.180769,37.928514,6965.6200032,-2.314,-4.53,350.56,1.0
1.85,128.180759,37.928558,6965.2405272000005,-2.24,-4.544,350.562,1.0
1.8666,128.180749,37.928602,6964.859832,-2.166,-4.559,350.564,1.0
1.8833,128.180739,37.928647,6964.4779176,-2.093,-4.574,350.566,1.0
1.9,128.180729,37.928691,6964.094479200001,-2.02,-4.589,350.568,1.0
1.9166,128.180719,37.928736,6963.7101264,-1.946,-4.604,350.569,1.0
1.9333,128.180709,37.92878,6963.3242496,-1.873,-4.618,350.571,1.0
1.95,128.180699,37.928824,6962.9371536,-1.799,-4.633,350.573,1.0
1.9666,128.180689,37.928869,6962.548838400001,-1.726,-4.648,350.574,1.0
1.9833,128.180679,37.928913,6962.159304,-1.652,-4.663,350.576,1.0
2.0,128.180669,37.928958,6961.7685504,-1.579,-4.678,350.578,1.0
2.0166,128.18066,37.929002,6961.3765776,-1.505,-4.693,350.579,1.0
2.0333,128.18065,37.929047,6960.9830808,-1.432,-4.708,350.581,1.0
2.05,128.18064,37.929091,6960.588364800001,-1.358,-4.723,350.582,1.0
2.0666,128.18063,37.929136,6960.1924296,-1.285,-4.738,350.584,1.0
2.0833,128.18062,37.92918,6959.7952752,-1.211,-4.753,350.585,1.0
2.1,128.18061,37.929224,6959.396901600001,-1.138,-4.768,350.587,1.0
2.1166,128.1806,37.929269,6958.997308800001,-1.064,-4.783,350.588,1.0
2.1333,128.18059,37.929313,6958.596192000001,-0.99,-4.799,350.59,1.0
2.15,128.18058,37.929358,6958.193856000001,-0.916,-4.814,350.591,1.0
2.1666,128.18057,37.929402,6957.7903008,-0.843,-4.829,350.593,1.0
2.1833,128.18056,37.929447,6957.3855264,-0.769,-4.844,350.594,1.0
2.2,128.18055,37.929491,6956.979532800001,-0.695,-4.859,350.595,1.0
2.2166,128.18054,37.929536,6956.572320000001,-0.621,-4.874,350.597,1.0
2.2333,128.18053,37.92958,6956.163583200001,-0.547,-4.89,350.598,1.0
2.25,128.18052,37.929625,6955.753627200001,-0.472,-4.905,350.599,1.0
2.2666,128.18051,37.929669,6955.342452000001,-0.398,-4.92,350.6,1.0
2.2833,128.1805,37.929714,6954.9300576,-0.324,-4.935,350.602,1.0
2.3,128.180491,37.929758,6954.516444,-0.249,-4.951,350.603,1.0
2.3166,128.180481,37.929803,6954.101306400001,-0.175,-4.966,350.604,1.0
2.3333,128.180471,37.929847,6953.6852544,-0.1,-4.981,350.605,1.0
2.35,128.180461,37.929892,6953.2676784000005,-0.026,-4.996,350.607,1.0
2.3666,128.180451,37.929936,6952.8488832,0.048,-5.012,350.608,1.0
2.3833,128.180441,37.929981,6952.428564000001,0.123,-5.027,350.609,1.0
2.4,128.180431,37.930025,6952.0073304,0.198,-5.042,350.61,1.0
2.4166,128.180421,37.93007,6951.5845728,0.273,-5.058,350.611,1.0
2.4333,128.180411,37.930114,6951.160596000001,0.349,-5.073,350.612,1.0
2.45,128.180401,37.930159,6950.7354000000005,0.424,-5.088,350.613,1.0
2.4666,128.180391,37.930203,6950.3089848,0.499,-5.104,350.614,1.0
2.4833,128.180381,37.930248,6949.8810456,0.575,-5.119,350.616,1.0
2.5,128.180371,37.930292,6949.451887200001,0.651,-5.135,350.617,1.0
2.5166,128.180361,37.930337,6949.0215096,0.727,-5.15,350.618,1.0
2.5333,128.180351,37.930381,6948.5899128,0.803,-5.165,350.619,1.0
2.55,128.180342,37.930426,6948.1570968000005,0.879,-5.181,350.62,1.0
2.5666,128.180332,37.930471,6947.722756800001,0.955,-5.196,350.621,1.0
2.5833,128.180322,37.930515,6947.287197600001,1.031,-5.212,350.622,1.0
2.6,128.180312,37.93056,6946.850419200001,1.108,-5.227,350.623,1.0
2.6166,128.180302,37.930604,6946.4124216,1.185,-5.242,350.624,1.0
2.6333,128.180292,37.930649,6945.9732048000005,1.262,-5.258,350.625,1.0
2.65,128.180282,37.930693,6945.532464000001,1.339,-5.273,350.626,1.0
2.6666,128.180272,37.930738,6945.090504,1.416,-5.289,350.627,1.0
2.6833,128.180262,37.930783,6944.647324800001,1.493,-5.304,350.628,1.0
2.7,128.180252,37.930827,6944.2026216,1.57,-5.32,350.628,1.0
2.7166,128.180242,37.930872,6943.757004,1.648,-5.335,350.629,1.0
2.7333,128.180232,37.930916,6943.3098624,1.726,-5.35,350.63,1.0
2.75,128.180223,37.930961,6942.8615016,1.804,-5.366,350.631,1.0
2.7666,128.180213,37.931006,6942.4116168,1.882,-5.381,350.632,1.0
2.7833,128.180203,37.93105,6941.9608176,1.96,-5.397,350.633,1.0
2.8,128.180193,37.931095,6941.5084944,2.039,-5.412,350.634,1.0
2.8166,128.180183,37.93114,6941.054952,2.117,-5.428,350.635,1.0
2.8333,128.180173,37.931184,6940.599885600001,2.196,-5.443,350.636,1.0
2.85,128.180163,37.931229,6940.1439048,2.275,-5.459,350.637,1.0
2.8666,128.180153,37.931273,6939.6864000000005,2.354,-5.474,350.637,1.0
2.8833,128.180143,37.931318,6939.227676,2.434,-5.49,350.638,1.0
2.9,128.180133,37.931363,6938.767732800001,2.513,-5.505,350.639,1.0
2.9166,128.180124,37.931407,6938.306265600001,2.593,-5.521,350.64,1.0
2.9333,128.180114,37.931452,6937.843579200001,2.673,-5.536,350.641,1.0
2.95,128.180104,37.931497,6937.3796736,2.753,-5.551,350.642,1.0
2.9666,128.180094,37.931541,6936.9145488,2.833,-5.567,350.643,1.0
2.9833,128.180084,37.931586,6936.4479,2.913,-5.582,350.643,1.0
3.0,128.180074,37.931631,6935.980032,2.994,-5.598,350.644,1.0
3.0166,128.180064,37.931675,6935.5109448,3.075,-5.613,350.645,1.0
3.0333,128.180054,37.93172,6935.040638400001,3.156,-5.629,350.646,1.0
3.05,128.180044,37.931765,6934.568808,3.237,-5.644,350.647,1.0
3.0666,128.180035,37.931809,6934.0957584,3.318,-5.66,350.647,1.0
3.0833,128.180025,37.931854,6933.6214896,3.4,-5.675,350.648,1.0
3.1,128.180015,37.931899,6933.146001600001,3.482,-5.691,350.649,1.0
3.1166,128.180005,37.931943,6932.6689896,3.564,-5.706,350.65,1.0
3.1333,128.179995,37.931988,6932.1907584,3.646,-5.722,350.651,1.0
3.15,128.179985,37.932033,6931.711308,3.728,-5.737,350.651,1.0
3.1666,128.179975,37.932078,6931.2303336,3.811,-5.752,350.652,1.0
3.1833,128.179965,37.932122,6930.74814,3.894,-5.768,350.653,1.0
3.2,128.179956,37.932167,6930.2647272,3.977,-5.783,350.654,1.0
3.2166,128.179946,37.932212,6929.780095200001,4.06,-5.799,350.655,1.0
3.2333,128.179936,37.932257,6929.2939392,4.144,-5.814,350.655,1.0
3.25,128.179926,37.932301,6928.806564,4.227,-5.83,350.656,1.0
3.2666,128.179916,37.932346,6928.317969600001,4.311,-5.845,350.657,1.0
3.2833,128.179906,37.932391,6927.827851200001,4.395,-5.861,350.658,1.0
3.3,128.179896,37.932436,6927.3365136,4.48,-5.876,350.659,1.0
3.3166,128.179886,37.93248,6926.843956800001,4.564,-5.891,350.659,1.0
3.3333,128.179877,37.932525,6926.3501808,4.649,-5.907,350.66,1.0
3.35,128.179867,37.93257,6925.8548808000005,4.734,-5.922,350.661,1.0
3.3666,128.179857,37.932615,6925.3583616,4.819,-5.938,350.662,1.0
3.3833,128.179847,37.932659,6924.8606232,4.905,-5.953,350.663,1.0
3.4,128.179837,37.932704,6924.3613608000005,4.99,-5.968,350.663,1.0
3.4166,128.179827,37.932749,6923.8608792,5.076,-5.984,350.664,1.0
3.4333,128.179818,37.932794,6923.359178400001,5.162,-5.999,350.665,1.0
3.45,128.179808,37.932839,6922.8562584,5.249,-6.015,350.666,1.0
3.4666,128.179798,37.932883,6922.351814400001,5.336,-6.03,350.666,1.0
3.4833,128.179788,37.932928,6921.8461512,5.423,-6.046,350.667,1.0
3.5,128.179778,37.932973,6921.3389640000005,5.51,-6.061,350.668,1.0
3.5166,128.179768,37.933018,6920.8308624,5.597,-6.076,350.669,1.0
3.5333,128.179758,37.933063,6920.3212368,5.685,-6.092,350.67,1.0
3.55,128.179749,37.933107,6919.8100872,5.773,-6.107,350.67,1.0
3.5666,128.179739,37.933152,6919.298023200001,5.861,-6.123,350.671,1.0
3.5833,128.179729,37.933197,6918.7844352,5.95,-6.138,350.672,1.0
3.6,128.179719,37.933242,6918.2693232,6.039,-6.154,350.673,1.0
3.6166,128.179709,37.933287,6917.752992000001,6.128,-6.169,350.674,1.0
3.6333,128.1797,37.933332,6917.235746400001,6.218,-6.185,350.674,1.0
3.65,128.17969,37.933377,6916.7166720000005,6.308,-6.2,350.675,1.0
3.6666,128.17968,37.933421,6916.196683200001,6.398,-6.215,350.676,1.0
3.6833,128.17967,37.933466,6915.675170400001,6.488,-6.231,350.677,1.0
3.7,128.17966,37.933511,6915.1521336000005,6.579,-6.246,350.678,1.0
3.7166,128.17965,37.933556,6914.628182400001,6.67,-6.262,350.678,1.0
3.7333,128.179641,37.933601,6914.1027072,6.761,-6.277,350.679,1.0
3.75,128.179631,37.933646,6913.575708,6.853,-6.292,350.68,1.0
3.7666,128.179621,37.933691,6913.0477944,6.944,-6.308,350.681,1.0
3.7833,128.179611,37.933736,6912.518356800001,7.037,-6.323,350.682,1.0
3.8,128.179601,37.933781,6911.987395200001,7.129,-6.338,350.683,1.0
3.8166,128.179592,37.933825,6911.455519200001,7.222,-6.354,350.683,1.0
3.8333,128.179582,37.93387,6910.9221192,7.315,-6.369,350.684,1.0
3.85,128.179572,37.933915,6910.3871952,7.408,-6.384,350.685,1.0
3.8666,128.179562,37.93396,6909.851052000001,7.501,-6.399,350.686,1.0
3.8833,128.179552,37.934005,6909.3136896,7.595,-6.415,350.687,1.0
3.9,128.179543,37.93405,6908.775108,7.689,-6.43,350.688,1.0
3.9166,128.179533,37.934095,6908.2350024,7.784,-6.445,350.689,1.0
3.9333,128.179523,37.93414,6907.6936776,7.878,-6.46,350.689,1.0
3.95,128.179513,37.934185,6907.151133600001,7.973,-6.476,350.69,1.0
3.9666,128.179504,37.93423,6906.607065600001,8.068,-6.491,350.691,1.0
3.9833,128.179494,37.934275,6906.061778400001,8.163,-6.506,350.692,1.0
4.0,128.179484,37.93432,6905.5149672,8.259,-6.522,350.693,1.0
4.0166,128.179474,37.934365,6904.9669368,8.355,-6.537,350.694,1.0
4.0333,128.179464,37.93441,6904.417687200001,8.451,-6.552,350.695,1.0
4.05,128.179455,37.934455,6903.866913600001,8.547,-6.567,350.695,1.0
4.0666,128.179445,37.9345,6903.3149207999995,8.644,-6.583,350.696,1.0
4.0833,128.179435,37.934545,6902.761708800001,8.741,-6.598,350.697,1.0
4.1,128.179425,37.93459,6902.206972800001,8.838,-6.613,350.698,1.0
4.1166,128.179416,37.934635,6901.6510176,8.935,-6.628,350.699,1.0
4.1333,128.179406,37.93468,6901.093843199999,9.033,-6.644,350.7,1.0
4.15,128.179396,37.934725,6900.5351448,9.131,-6.659,350.701,1.0
4.1666,128.179386,37.93477,6899.9752272000005,9.229,-6.674,350.702,1.0
4.1833,128.179377,37.934815,6899.4137856,9.327,-6.689,350.703,1.0
4.2,128.179367,37.93486,6898.8511248,9.426,-6.705,350.704,1.0
4.2166,128.179357,37.934905,6898.2872448,9.525,-6.72,350.705,1.0
4.2333,128.179347,37.93495,6897.7218408,9.624,-6.735,350.706,1.0
4.25,128.179338,37.934995,6897.1552176000005,9.724,-6.75,350.706,1.0
4.2666,128.179328,37.93504,6896.5873752,9.823,-6.766,350.707,1.0
4.2833,128.179318,37.935085,6896.018008800001,9.923,-6.781,350.708,1.0
4.3,128.179309,37.93513,6895.4474232,10.024,-6.796,350.709,1.0
4.3166,128.179299,37.935175,6894.8753136000005,10.124,-6.811,350.71,1.0
4.3333,128.179289,37.935221,6894.3019848,10.225,-6.827,350.711,1.0
4.35,128.179279,37.935266,6893.727436800001,10.326,-6.842,350.712,1.0
4.3666,128.17927,37.935311,6893.151364800001,10.428,-6.857,350.713,1.0
4.3833,128.17926,37.935356,6892.574073600001,10.529,-6.872,350.714,1.0
4.4,128.17925,37.935401,6891.9952584,10.631,-6.888,350.715,1.0
4.4166,128.179241,37.935446,6891.415224,10.733,-6.903,350.716,1.0
4.4333,128.179231,37.935491,6890.833970400001,10.836,-6.918,350.717,1.0
4.45,128.179221,37.935536,6890.251192800001,10.939,-6.933,350.718,1.0
4.4666,128.179211,37.935581,6889.6668912000005,11.042,-6.949,350.719,1.0
4.4833,128.179202,37.935627,6889.0816752,11.145,-6.964,350.72,1.0
4.5,128.179192,37.935672,6888.4949352,11.249,-6.979,350.721,1.0
4.5166,128.179182,37.935717,6887.9066712,11.353,-6.995,350.722,1.0
4.5333,128.179173,37.935762,6887.317188000001,11.457,-7.01,350.723,1.0
4.55,128.179163,37.935807,6886.727400000001,11.54,-7.027,350.723,1.0
4.5666,128.179153,37.935852,6886.1370024,11.603,-7.044,350.721,1.0
4.5833,128.179144,37.935898,6885.5453856,11.648,-7.063,350.718,1.0
4.6,128.179134,37.935943,6884.9528544,11.676,-7.083,350.716,1.0
4.6166,128.179124,37.935988,6884.3594088,11.691,-7.103,350.713,1.0
4.6333,128.179115,37.936033,6883.7650488,11.694,-7.123,350.711,1.0
4.65,128.179105,37.936078,6883.1694696,11.687,-7.142,350.71,1.0
4.6666,128.179095,37.936124,6882.5726712,11.672,-7.162,350.709,1.0
4.6833,128.179086,37.936169,6881.9746536,11.652,-7.182,350.708,1.0
4.7,128.179076,37.936214,6881.3754168,11.626,-7.201,350.707,1.0
4.7166,128.179066,37.936259,6880.7749608,11.597,-7.22,350.707,1.0
4.7333,128.179057,37.936304,6880.1732856,11.564,-7.239,350.708,1.0
4.75,128.179047,37.93635,6879.570391200001,11.529,-7.258,350.708,1.0
4.7666,128.179038,37.936395,6878.965972800001,11.492,-7.276,350.709,1.0
4.7833,128.179028,37.93644,6878.3603352,11.454,-7.295,350.71,1.0
4.8,128.179018,37.936485,6877.753478400001,11.415,-7.313,350.711,1.0
4.8166,128.179009,37.936531,6877.145097600001,11.375,-7.33,350.712,1.0
4.8333,128.178999,37.936576,6876.535497600001,11.334,-7.348,350.713,1.0
4.85,128.178989,37.936621,6875.924678400001,11.293,-7.365,350.714,1.0
4.8666,128.17898,37.936667,6875.3123352,11.252,-7.383,350.716,1.0
4.8833,128.17897,37.936712,6874.6984680000005,11.211,-7.4,350.718,1.0
4.9,128.178961,37.936757,6874.0833816,11.169,-7.417,350.719,1.0
4.9166,128.178951,37.936802,6873.467076,11.128,-7.434,350.721,1.0
4.9333,128.178941,37.936848,6872.849246400001,11.087,-7.45,350.723,1.0
4.95,128.178932,37.936893,6872.230197600001,11.046,-7.467,350.725,1.0
4.9666,128.178922,37.936938,6871.609624800001,11.005,-7.483,350.727,1.0
4.9833,128.178913,37.936984,6870.987528000001,10.964,-7.5,350.729,1.0
5.0,128.178903,37.937029,6870.3642119999995,10.923,-7.516,350.731,1.0
5.0166,128.178893,37.937074,6869.739372,10.883,-7.532,350.733,1.0
5.0333,128.178884,37.93712,6869.1133128,10.842,-7.548,350.735,1.0
5.05,128.178874,37.937165,6868.4857296,10.803,-7.564,350.738,1.0
5.0666,128.178865,37.93721,6867.8569272,10.763,-7.58,350.74,1.0
5.0833,128.178855,37.937256,6867.226600800001,10.723,-7.596,350.742,1.0
5.1,128.178846,37.937301,6866.5950552,10.684,-7.612,350.745,1.0
5.1166,128.178836,37.937346,6865.9619856,10.645,-7.627,350.747,1.0
5.1333,128.178826,37.937392,6865.327392000001,10.607,-7.643,350.75,1.0
5.15,128.178817,37.937437,6864.691579200001,10.568,-7.659,350.752,1.0
5.1666,128.178807,37.937483,6864.0542424000005,10.53,-7.674,350.755,1.0
5.1833,128.178798,37.937528,6863.415381600001,10.492,-7.689,350.757,1.0
5.2,128.178788,37.937573,6862.775301600001,10.454,-7.705,350.76,1.0
5.2166,128.178779,37.937619,6862.1340024,10.417,-7.72,350.763,1.0
5.2333,128.178769,37.937664,6861.4908744,10.38,-7.735,350.765,1.0
5.25,128.17876,37.93771,6860.846832,10.343,-7.751,350.768,1.0
5.2666,128.17875,37.937755,6860.200960800001,10.306,-7.766,350.771,1.0
5.2833,128.17874,37.9378,6859.553870400001,10.27,-7.781,350.774,1.0
5.3,128.178731,37.937846,6858.905256000001,10.234,-7.796,350.777,1.0
5.3166,128.178721,37.937891,6858.2554224000005,10.198,-7.811,350.78,1.0
5.3333,128.178712,37.937937,6857.604064800001,10.162,-7.826,350.783,1.0
5.35,128.178702,37.937982,6856.951488000001,10.127,-7.841,350.785,1.0
5.3666,128.178693,37.938028,6856.2973872,10.092,-7.856,350.788,1.0
5.3833,128.178683,37.938073,6855.6417624,10.057,-7.871,350.791,1.0
5.4,128.178674,37.938119,6854.9849184,10.022,-7.886,350.794,1.0
5.4166,128.178664,37.938164,6854.3265504,9.988,-7.9,350.798,1.0
5.4333,128.178655,37.93821,6853.6666584,9.953,-7.915,350.801,1.0
5.45,128.178645,37.938255,6853.0055472,9.919,-7.93,350.804,1.0
5.4666,128.178636,37.938301,6852.3432168,9.886,-7.945,350.807,1.0
5.4833,128.178626,37.938346,6851.6790576,9.852,-7.96,350.81,1.0
5.5,128.178617,37.938392,6851.013679200001,9.819,-7.974,350.813,1.0
5.5166,128.178607,37.938437,6850.3470816,9.786,-7.989,350.816,1.0
5.5333,128.178598,37.938483,6849.67896,9.753,-8.004,350.819,1.0
5.55,128.178588,37.938528,6849.0093144,9.72,-8.018,350.823,1.0
5.5666,128.178579,37.938574,6848.3384496,9.688,-8.033,350.826,1.0
5.5833,128.178569,37.938619,6847.666060800001,9.656,-8.048,350.829,1.0
5.6,128.17856,37.938665,6846.992148,9.624,-8.062,350.832,1.0
5.6166,128.17855,37.93871,6846.317016,9.592,-8.077,350.836,1.0
5.6333,128.178541,37.938756,6845.64036,9.561,-8.092,350.839,1.0
5.65,128.178531,37.938801,6844.9624848,9.529,-8.106,350.842,1.0
5.6666,128.178522,37.938847,6844.2830856,9.498,-8.121,350.846,1.0
5.6833,128.178512,37.938893,6843.6021624,9.468,-8.135,350.849,1.0
5.7,128.178503,37.938938,6842.9200200000005,9.437,-8.15,350.852,1.0
5.7166,128.178493,37.938984,6842.2363536,9.407,-8.165,350.856,1.0
5.7333,128.178484,37.939029,6841.551468000001,9.377,-8.179,350.859,1.0
5.75,128.178474,37.939075,6840.8650584,9.347,-8.194,350.862,1.0
5.7666,128.178465,37.93912,6840.1771248000005,9.317,-8.208,350.866,1.0
5.7833,128.178455,37.939166,6839.487972,9.288,-8.223,350.869,1.0
5.8,128.178446,37.939212,6838.7972952,9.258,-8.237,350.873,1.0
5.8166,128.178436,37.939257,6838.1053992,9.229,-8.252,350.876,1.0
5.8333,128.178427,37.939303,6837.411979200001,9.201,-8.266,350.879,1.0
5.85,128.178417,37.939349,6836.7170352,9.172,-8.281,350.883,1.0
5.8666,128.178408,37.939394,6836.020872,9.144,-8.295,350.886,1.0
5.8833,128.178398,37.93944,6835.3231848,9.116,-8.31,350.89,1.0
5.9,128.178389,37.939485,6834.624278400001,9.088,-8.324,350.893,1.0
5.9166,128.17838,37.939531,6833.923847999999,9.06,-8.339,350.897,1.0
5.9333,128.17837,37.939577,6833.2221984,9.033,-8.353,350.9,1.0
5.95,128.178361,37.939622,6832.518720000001,9.006,-8.368,350.904,1.0
5.9666,128.178351,37.939668,6831.814327200001,8.979,-8.382,350.907,1.0
5.9833,128.178342,37.939714,6831.1081056,8.953,-8.396,350.911,1.0
6.0,128.178332,37.939759,6830.4006648,8.926,-8.411,350.914,1.0
6.0166,128.178323,37.939805,6829.6920048,8.9,-8.425,350.918,1.0
6.0333,128.178313,37.939851,6828.9818208,8.874,-8.44,350.922,1.0
6.05,128.178304,37.939897,6828.2701128,8.848,-8.454,350.925,1.0
6.0666,128.178295,37.939942,6827.557185600001,8.823,-8.469,350.929,1.0
6.0833,128.178285,37.939988,6826.8427344,8.798,-8.483,350.932,1.0
6.1,128.178276,37.940034,6826.1267592,8.773,-8.497,350.936,1.0
6.1166,128.178266,37.940079,6825.4095648,8.748,-8.512,350.939,1.0
6.1333,128.178257,37.940125,6824.691151200001,8.724,-8.526,350.943,1.0
6.15,128.178247,37.940171,6823.9709088,8.7,-8.54,350.947,1.0
6.1666,128.178238,37.940217,6823.249447200001,8.676,-8.555,350.95,1.0
6.1833,128.178229,37.940262,6822.5267664,8.652,-8.569,350.954,1.0
6.2,128.178219,37.940308,6821.8025615999995,8.629,-8.584,350.957,1.0
6.2166,128.17821,37.940354,6821.0768328,8.605,-8.598,350.961,1.0
6.2333,128.1782,37.9404,6820.3498848,8.583,-8.612,350.965,1.0
6.25,128.178191,37.940445,6819.6214128,8.56,-8.627,350.968,1.0
6.2666,128.178182,37.940491,6818.8917216,8.537,-8.641,350.972,1.0
6.2833,128.178172,37.940537,6818.1605064000005,8.515,-8.656,350.975,1.0
6.3,128.178163,37.940583,6817.4277672,8.493,-8.67,350.979,1.0
6.3166,128.178153,37.940629,6816.693808800001,8.472,-8.684,350.983,1.0
6.3333,128.178144,37.940674,6815.9583264,8.45,-8.699,350.986,1.0
6.35,128.178134,37.94072,6815.2216248,8.429,-8.713,350.99,1.0
6.3666,128.178125,37.940766,6814.4833992,8.409,-8.728,350.993,1.0
6.3833,128.178116,37.940812,6813.7436496,8.388,-8.742,350.997,1.0
6.4,128.178106,37.940858,6813.0026808,8.368,-8.757,351.001,1.0
6.4166,128.178097,37.940903,6812.260188000001,8.349,-8.771,351.004,1.0
6.4333,128.178088,37.940949,6811.5161712,8.329,-8.786,351.008,1.0
6.45,128.178078,37.940995,6810.7709352,8.311,-8.8,351.012,1.0
6.4666,128.178069,37.941041,6810.02448,8.292,-8.815,351.015,1.0
6.4833,128.178059,37.941087,6809.276196000001,8.274,-8.83,351.019,1.0
6.5,128.17805,37.941133,6808.526692800001,8.257,-8.844,351.022,1.0
6.5166,128.178041,37.941179,6807.775970400001,8.239,-8.859,351.026,1.0
6.5333,128.178031,37.941224,6807.023724000001,8.222,-8.874,351.03,1.0
6.55,128.178022,37.94127,6806.2699536,8.206,-8.888,351.033,1.0
6.5666,128.178012,37.941316,6805.514964000001,8.19,-8.903,351.037,1.0
6.5833,128.178003,37.941362,6804.758450400001,8.174,-8.918,351.04,1.0
6.6,128.177994,37.941408,6804.0004128,8.159,-8.932,351.044,1.0
6.6166,128.177984,37.941454,6803.241156000001,8.144,-8.947,351.048,1.0
6.6333,128.177975,37.9415,6802.4803752,8.129,-8.962,351.051,1.0
6.65,128.177966,37.941546,6801.718070400001,8.115,-8.977,351.055,1.0
6.6666,128.177956,37.941592,6800.9545464,8.101,-8.991,351.058,1.0
6.6833,128.177947,37.941637,6800.1894984,8.087,-9.006,351.062,1.0
6.7,128.177938,37.941683,6799.4232312,8.074,-9.021,351.065,1.0
6.7166,128.177928,37.941729,6798.6551352,8.061,-9.036,351.069,1.0
6.7333,128.177919,37.941775,6797.886124800001,8.049,-9.051,351.073,1.0
6.75,128.177909,37.941821,6797.1152856,8.036,-9.066,351.076,1.0
6.7666,128.1779,37.941867,6796.3432272,8.025,-9.081,351.08,1.0
6.7833,128.177891,37.941913,6795.569949600001,8.013,-9.096,351.083,1.0
6.8,128.177881,37.941959,6794.794843199999,8.002,-9.111,351.087,1.0
6.8166,128.177872,37.942005,6794.0185176,7.991,-9.126,351.09,1.0
6.8333,128.177863,37.942051,6793.240668,7.98,-9.141,351.094,1.0
6.85,128.177853,37.942097,6792.4615992,7.97,-9.156,351.097,1.0
6.8666,128.177844,37.942143,6791.681006400001,7.96,-9.171,351.101,1.0
6.8833,128.177835,37.942189,6790.8988896,7.951,-9.186,351.104,1.0
6.9,128.177825,37.942235,6790.1155536,7.942,-9.201,351.108,1.0
6.9166,128.177816,37.942281,6789.3306936,7.933,-9.217,351.111,1.0
6.9333,128.177807,37.942327,6788.544309600001,7.925,-9.232,351.115,1.0
6.95,128.177797,37.942373,6787.7567064,7.917,-9.247,351.118,1.0
6.9666,128.177788,37.942419,6786.967274400001,7.909,-9.263,351.122,1.0
6.9833,128.177779,37.942465,6786.176623200001,7.902,-9.278,351.125,1.0
7.0,128.177769,37.942511,6785.3847528,7.896,-9.293,351.129,1.0
7.0166,128.17776,37.942557,6784.5910536,7.889,-9.309,351.132,1.0
7.0333,128.177751,37.942603,6783.7961352,7.884,-9.324,351.135,1.0
7.05,128.177741,37.942649,6782.999692800001,7.878,-9.34,351.139,1.0
7.0666,128.177732,37.942695,6782.2020312,7.873,-9.355,351.142,1.0
7.0833,128.177723,37.942741,6781.402845600001,7.869,-9.371,351.146,1.0
7.1,128.177714,37.942787,6780.602136,7.865,-9.386,351.149,1.0
7.1166,128.177704,37.942833,6779.7999024,7.861,-9.402,351.153,1.0
7.1333,128.177695,37.94288,6778.9961448,7.858,-9.418,351.156,1.0
7.15,128.177686,37.942926,6778.191168,7.855,-9.433,351.159,1.0
7.1666,128.177676,37.942972,6777.3846672,7.853,-9.449,351.163,1.0
7.1833,128.177667,37.943018,6776.5766424,7.851,-9.465,351.166,1.0
7.2,128.177658,37.943064,6775.7670935999995,7.85,-9.481,351.169,1.0
7.2166,128.177648,37.94311,6774.9563256,7.849,-9.496,351.173,1.0
7.2333,128.177639,37.943156,6774.143728800001,7.849,-9.512,351.176,1.0
7.25,128.17763,37.943202,6773.3299128,7.849,-9.528,351.18,1.0
7.2666,128.177621,37.943248,6772.514572800001,7.85,-9.544,351.183,1.0
7.2833,128.177611,37.943295,6771.6977088,7.852,-9.56,351.186,1.0
7.3,128.177602,37.943341,6770.8796256,7.854,-9.576,351.19,1.0
7.3166,128.177593,37.943387,6770.059713600001,7.857,-9.592,351.193,1.0
7.3333,128.177583,37.943433,6769.2385824,7.86,-9.608,351.196,1.0
7.35,128.177574,37.943479,6768.415927200001,7.864,-9.625,351.199,1.0
7.3666,128.177565,37.943525,6767.5914432,7.869,-9.641,351.203,1.0
7.3833,128.177556,37.943571,6766.76574,7.874,-9.657,351.206,1.0
7.4,128.177546,37.943618,6765.9385128,7.88,-9.673,351.209,1.0
7.4166,128.177537,37.943664,6765.1100664,7.887,-9.69,351.213,1.0
7.4333,128.177528,37.94371,6764.279791200001,7.895,-9.706,351.216,1.0
7.45,128.177518,37.943756,6763.447992,7.903,-9.722,351.219,1.0
7.4666,128.177509,37.943802,6762.614973600001,7.912,-9.739,351.222,1.0
7.4833,128.1775,37.943849,6761.7801264,7.922,-9.755,351.225,1.0
7.5,128.177491,37.943895,6760.944060000001,7.932,-9.772,351.229,1.0
7.5166,128.177481,37.943941,6760.1061648,7.944,-9.789,351.232,1.0
7.5333,128.177472,37.943987,6759.267050400001,7.956,-9.805,351.235,1.0
7.55,128.177463,37.944033,6758.4261072,7.969,-9.822,351.238,1.0
7.5666,128.177454,37.94408,6757.583944800001,7.983,-9.839,351.241,1.0
7.5833,128.177444,37.944126,6756.7399536,7.998,-9.855,351.245,1.0
7.6,128.177435,37.944172,6755.8947431999995,8.013,-9.872,351.248,1.0
7.6166,128.177426,37.944218,6755.0477040000005,8.03,-9.889,351.251,1.0
7.6333,128.177417,37.944265,6754.1994456,8.047,-9.906,351.254,1.0
7.65,128.177407,37.944311,6753.3493584,8.066,-9.923,351.257,1.0
7.6666,128.177398,37.944357,6752.498052000001,8.085,-9.94,351.26,1.0
7.6833,128.177389,37.944403,6751.6449168,8.105,-9.957,351.263,1.0
7.7,128.17738,37.94445,6750.7902576,8.126,-9.974,351.266,1.0
7.7166,128.17737,37.944496,6749.934074400001,8.149,-9.991,351.269,1.0
7.7333,128.177361,37.944542,6749.0763672,8.172,-10.008,351.272,1.0
7.75,128.177352,37.944589,6748.217136,8.197,-10.025,351.276,1.0
7.7666,128.177343,37.944635,6747.356076,8.222,-10.042,351.279,1.0
7.7833,128.177333,37.944681,6746.4937968,8.249,-10.059,351.282,1.0
7.8,128.177324,37.944727,6745.6296888,8.277,-10.076,351.285,1.0
7.8166,128.177315,37.944774,6744.764056800001,8.306,-10.093,351.288,1.0
7.8333,128.177306,37.94482,6743.8969008,8.336,-10.111,351.291,1.0
7.85,128.177296,37.944866,6743.0282208,8.368,-10.128,351.294,1.0
7.8666,128.177287,37.944913,6742.1580168,8.401,-10.145,351.297,1.0
7.8833,128.177278,37.944959,6741.285984000001,8.434,-10.162,351.3,1.0
7.9,128.177269,37.945005,6740.4124272,8.47,-10.18,351.303,1.0
7.9166,128.17726,37.945052,6739.5373464,8.506,-10.197,351.306,1.0
7.9333,128.17725,37.945098,6738.660741600001,8.544,-10.214,351.308,1.0
7.95,128.177241,37.945144,6737.782308,8.583,-10.232,351.311,1.0
7.9666,128.177232,37.945191,6736.902350400001,8.624,-10.249,351.314,1.0
7.9833,128.177223,37.945237,6736.0208688,8.665,-10.267,351.317,1.0
8.0,128.177213,37.945284,6735.1375584,8.708,-10.284,351.32,1.0
8.0166,128.177204,37.94533,6734.253028800001,8.752,-10.302,351.323,1.0
8.0333,128.177195,37.945376,6733.366670400001,8.798,-10.32,351.326,1.0
8.05,128.177186,37.945423,6732.4784832000005,8.844,-10.338,351.328,1.0
8.0666,128.177177,37.945469,6731.588772,8.892,-10.356,351.331,1.0
8.0833,128.177167,37.945516,6730.6975368,8.941,-10.373,351.334,1.0
8.1,128.177158,37.945562,6729.8047776,8.991,-10.391,351.336,1.0
8.1166,128.177149,37.945608,6728.9101896,9.042,-10.41,351.339,1.0
8.1333,128.17714,37.945655,6728.014077600001,9.095,-10.428,351.342,1.0
8.15,128.177131,37.945701,6727.1161368,9.148,-10.446,351.344,1.0
8.1666,128.177121,37.945748,6726.2166720000005,9.203,-10.464,351.347,1.0
8.1833,128.177112,37.945794,6725.3156832,9.259,-10.482,351.349,1.0
8.2,128.177103,37.945841,6724.412865600001,9.316,-10.5,351.352,1.0
8.2166,128.177094,37.945887,6723.508219200001,9.374,-10.519,351.354,1.0
8.2333,128.177085,37.945933,6722.6023536,9.434,-10.537,351.357,1.0
8.25,128.177076,37.94598,6721.6943544000005,9.495,-10.555,351.359,1.0
8.2666,128.177066,37.946026,6720.785136,9.557,-10.574,351.362,1.0
8.2833,128.177057,37.946073,6719.873784000001,9.62,-10.592,351.364,1.0
8.3,128.177048,37.946119,6718.9612128,9.684,-10.611,351.367,1.0
8.3166,128.177039,37.946166,6718.046508,9.75,-10.63,351.369,1.0
8.3333,128.17703,37.946212,6717.130584,9.816,-10.649,351.371,1.0
8.35,128.177021,37.946259,6716.212526400001,9.884,-10.667,351.374,1.0
8.3666,128.177011,37.946305,6715.2929448,9.953,-10.686,351.376,1.0
8.3833,128.177002,37.946352,6714.3718392,10.023,-10.705,351.378,1.0
8.4,128.176993,37.946398,6713.4489048000005,10.095,-10.724,351.38,1.0
8.4166,128.176984,37.946445,6712.524141600001,10.167,-10.743,351.382,1.0
8.4333,128.176975,37.946491,6711.5978544,10.241,-10.763,351.385,1.0
8.45,128.176966,37.946538,6710.669738400001,10.315,-10.782,351.387,1.0
8.4666,128.176956,37.946584,6709.7400984,10.391,-10.801,351.389,1.0
8.4833,128.176947,37.946631,6708.8086296,10.468,-10.82,351.391,1.0
8.5,128.176938,37.946677,6707.8753320000005,10.546,-10.84,351.393,1.0
8.5166,128.176929,37.946724,6706.940510400001,10.624,-10.859,351.395,1.0
8.5333,128.17692,37.946771,6706.003860000001,10.704,-10.879,351.397,1.0
8.55,128.176911,37.946817,6705.0653808,10.784,-10.898,351.399,1.0
8.5666,128.176902,37.946864,6704.1250728,10.866,-10.918,351.4,1.0
8.5833,128.176892,37.94691,6703.1832408,10.948,-10.937,351.402,1.0
8.6,128.176883,37.946957,6702.2395799999995,11.031,-10.956,351.404,1.0
8.6166,128.176874,37.947003,6701.2943952000005,11.114,-10.976,351.406,1.0
8.6333,128.176865,37.94705,6700.3473816000005,11.199,-10.995,351.408,1.0
8.65,128.176856,37.947097,6699.3985391999995,11.284,-11.015,351.409,1.0
8.6666,128.176847,37.947143,6698.447868,11.37,-11.035,351.411,1.0
8.6833,128.176838,37.94719,6697.495368,11.456,-11.054,351.413,1.0
8.7,128.176829,37.947236,6696.541344,11.542,-11.073,351.414,1.0
8.7166,128.176819,37.947283,6695.5854912,11.629,-11.093,351.416,1.0
8.7333,128.17681,37.94733,6694.6281144,11.717,-11.112,351.418,1.0
8.75,128.176801,37.947376,6693.668604,11.805,-11.132,351.419,1.0
8.7666,128.176792,37.947423,6692.707569600001,11.893,-11.151,351.421,1.0
8.7833,128.176783,37.94747,6691.744706400001,11.981,-11.17,351.422,1.0
8.8,128.176774,37.947516,6690.7800144,12.07,-11.189,351.424,1.0
8.8166,128.176765,37.947563,6689.8134936,12.159,-11.208,351.426,1.0
8.8333,128.176756,37.94761,6688.8454488,12.249,-11.227,351.427,1.0
8.85,128.176747,37.947656,6687.8755752,12.339,-11.246,351.429,1.0
8.8666,128.176737,37.947703,6686.9038728000005,12.429,-11.265,351.43,1.0
8.8833,128.176728,37.94775,6685.9303416,12.52,-11.284,351.432,1.0
8.9,128.176719,37.947796,6684.9549816,12.61,-11.303,351.433,1.0
8.9166,128.17671,37.947843,6683.977792800001,12.702,-11.322,351.435,1.0
8.9333,128.176701,37.94789,6682.99908,12.794,-11.341,351.436,1.0
8.95,128.176692,37.947936,6682.018538400001,12.886,-11.36,351.438,1.0
8.9666,128.176683,37.947983,6681.0361680000005,12.978,-11.379,351.439,1.0
8.9833,128.176674,37.94803,6680.0519688,13.072,-11.397,351.44,1.0
9.0,128.176665,37.948076,6679.0659408,13.165,-11.416,351.442,1.0
9.0166,128.176656,37.948123,6678.078084000001,13.259,-11.435,351.443,1.0
9.0333,128.176647,37.94817,6677.0883984,13.354,-11.453,351.445,1.0
9.05,128.176638,37.948217,6676.0971887999995,13.449,-11.472,351.446,1.0
9.0666,128.176629,37.948263,6675.103845600001,13.544,-11.491,351.448,1.0
9.0833,128.176619,37.94831,6674.1089784000005,13.64,-11.509,351.449,1.0
9.1,128.17661,37.948357,6673.1122824,13.736,-11.528,351.45,1.0
9.1166,128.176601,37.948404,6672.1134528,13.832,-11.546,351.452,1.0
9.1333,128.176592,37.94845,6671.1130992,13.929,-11.565,351.453,1.0
9.15,128.176583,37.948497,6670.1112216,14.026,-11.583,351.455,1.0
9.1666,128.176574,37.948544,6669.1072104,14.123,-11.602,351.456,1.0
9.1833,128.176565,37.948591,6668.101370400001,14.221,-11.62,351.457,1.0
9.2,128.176556,37.948637,6667.093701600001,14.319,-11.638,351.459,1.0
9.2166,128.176547,37.948684,6666.084508800001,14.417,-11.657,351.46,1.0
9.2333,128.176538,37.948731,6665.0731824,14.516,-11.675,351.461,1.0
9.25,128.176529,37.948778,6664.060332,14.615,-11.693,351.462,1.0
9.2666,128.17652,37.948824,6663.0456527999995,14.714,-11.711,351.464,1.0
9.2833,128.176511,37.948871,6662.02884,14.814,-11.729,351.465,1.0
9.3,128.176502,37.948918,6661.0105032,14.913,-11.748,351.466,1.0
9.3166,128.176493,37.948965,6659.9903376,15.014,-11.766,351.468,1.0
9.3333,128.176484,37.949012,6658.9683432,15.114,-11.784,351.469,1.0
9.35,128.176475,37.949059,6657.944520000001,15.215,-11.802,351.47,1.0
9.3666,128.176466,37.949105,6656.918868000001,15.317,-11.82,351.471,1.0
9.3833,128.176457,37.949152,6655.8913872,15.418,-11.838,351.473,1.0
9.4,128.176448,37.949199,6654.862382400001,15.52,-11.856,351.474,1.0
9.4166,128.176439,37.949246,6653.831244,15.623,-11.874,351.475,1.0
9.4333,128.17643,37.949293,6652.7982768,15.726,-11.892,351.476,1.0
9.45,128.176421,37.94934,6651.7634808,15.829,-11.91,351.478,1.0
9.4666,128.176412,37.949386,6650.727160800001,15.933,-11.928,351.479,1.0
9.4833,128.176403,37.949433,6649.6887072,16.037,-11.946,351.48,1.0
9.5,128.176394,37.94948,6648.6487296,16.141,-11.964,351.481,1.0
9.5166,128.176385,37.949527,6647.606923200001,16.246,-11.982,351.482,1.0
9.5333,128.176376,37.949574,6646.5629832,16.351,-12.0,351.484,1.0
9.55,128.176367,37.949621,6645.517519200001,16.456,-12.017,351.485,1.0
9.5666,128.176358,37.949668,6644.4702264,16.562,-12.035,351.486,1.0
9.5833,128.176349,37.949715,6643.420800000001,16.669,-12.053,351.487,1.0
9.6,128.17634,37.949762,6642.369849600001,16.775,-12.071,351.488,1.0
9.6166,128.176331,37.949808,6641.317070400001,16.882,-12.089,351.489,1.0
9.6333,128.176322,37.949855,6640.2624624,16.989,-12.107,351.49,1.0
9.65,128.176313,37.949902,6639.2060255999995,17.097,-12.124,351.492,1.0
9.6666,128.176304,37.949949,6638.147760000001,17.205,-12.142,351.493,1.0
9.6833,128.176295,37.949996,6637.087665600001,17.314,-12.16,351.494,1.0
9.7,128.176286,37.950043,6636.025742400001,17.423,-12.178,351.495,1.0
9.7166,128.176277,37.95009,6634.9619904,17.532,-12.195,351.496,1.0
9.7333,128.176268,37.950137,6633.896409600001,17.642,-12.213,351.497,1.0
9.75,128.176259,37.950184,6632.829000000001,17.752,-12.231,351.498,1.0
9.7666,128.176251,37.950231,6631.7597616,17.863,-12.248,351.499,1.0
9.7833,128.176242,37.950278,6630.6886944,17.973,-12.266,351.5,1.0
9.8,128.176233,37.950325,6629.6157984,18.085,-12.284,351.501,1.0
9.8166,128.176224,37.950372,6628.5413784,18.196,-12.301,351.502,1.0
9.8333,128.176215,37.950419,6627.464824800001,18.308,-12.319,351.504,1.0
9.85,128.176206,37.950466,6626.3864424,18.421,-12.337,351.505,1.0
9.8666,128.176197,37.950513,6625.3062312,18.534,-12.354,351.506,1.0
9.8833,128.176188,37.95056,6624.224496000001,18.647,-12.372,351.507,1.0
9.9,128.176179,37.950607,6623.1406272,18.76,-12.39,351.508,1.0
9.9166,128.17617,37.950654,6622.0549296,18.874,-12.408,351.509,1.0
9.9333,128.176161,37.950701,6620.967708,18.988,-12.425,351.509,1.0
9.95,128.176152,37.950748,6619.8783528,19.103,-12.443,351.51,1.0
9.9666,128.176144,37.950795,6618.7871688000005,19.218,-12.461,351.511,1.0
9.9833,128.176135,37.950842,6617.6944608,19.333,-12.478,351.512,1.0
10.0,128.176126,37.950889,6616.5996192,19.449,-12.496,351.513,1.0
10.0166,128.176117,37.950936,6615.5032536,19.565,-12.514,351.514,1.0
10.0333,128.176108,37.950983,6614.4047544000005,19.681,-12.531,351.515,1.0
10.05,128.176099,37.95103,6613.3044264,19.798,-12.549,351.516,1.0
10.0666,128.17609,37.951077,6612.202574400001,19.915,-12.567,351.517,1.0
10.0833,128.176081,37.951124,6611.0985888,20.033,-12.584,351.518,1.0
10.1,128.176073,37.951171,6609.992774400001,20.151,-12.602,351.519,1.0
10.1166,128.176064,37.951218,6608.8854360000005,20.269,-12.62,351.52,1.0
10.1333,128.176055,37.951265,6607.775964,20.388,-12.638,351.52,1.0
10.15,128.176046,37.951313,6606.6646632,20.507,-12.655,351.521,1.0
10.1666,128.176037,37.95136,6605.551838400001,20.626,-12.673,351.522,1.0
10.1833,128.176028,37.951407,6604.43688,20.746,-12.691,351.523,1.0
10.2,128.176019,37.951454,6603.320092800001,20.866,-12.708,351.524,1.0
10.2166,128.176011,37.951501,6602.2014768,20.986,-12.726,351.525,1.0
10.2333,128.176002,37.951548,6601.081336800001,21.107,-12.744,351.525,1.0
10.25,128.175993,37.951595,6599.9590632,21.228,-12.761,351.526,1.0
10.2666,128.175984,37.951642,6598.834960800001,21.35,-12.779,351.527,1.0
10.2833,128.175975,37.951689,6597.7090296,21.471,-12.797,351.528,1.0
10.3,128.175966,37.951737,6596.5812696,21.594,-12.814,351.529,1.0
10.3166,128.175958,37.951784,6595.4516808,21.716,-12.832,351.529,1.0
10.3333,128.175949,37.951831,6594.3202632,21.839,-12.85,351.53,1.0
10.35,128.17594,37.951878,6593.1870168,21.962,-12.867,351.531,1.0
10.3666,128.175931,37.951925,6592.051941600001,22.086,-12.885,351.532,1.0
10.3833,128.175922,37.951972,6590.914732800001,22.21,-12.903,351.532,1.0
10.4,128.175914,37.952019,6589.776000000001,22.334,-12.92,351.533,1.0
10.4166,128.175905,37.952067,6588.635438400001,22.459,-12.938,351.534,1.0
10.4333,128.175896,37.952114,6587.4927431999995,22.584,-12.956,351.535,1.0
10.45,128.175887,37.952161,6586.348524000001,22.71,-12.973,351.535,1.0
10.4666,128.175878,37.952208,6585.2021712,22.835,-12.991,351.536,1.0
10.4833,128.17587,37.952255,6584.0539896,22.961,-13.009,351.537,1.0
10.5,128.175861,37.952302,6582.904284000001,23.088,-13.026,351.537,1.0
10.5166,128.175852,37.95235,6581.7524448,23.215,-13.044,351.538,1.0
10.5333,128.175843,37.952397,6580.5987768,23.342,-13.061,351.539,1.0
10.55,128.175835,37.952444,6579.4432799999995,23.469,-13.079,351.54,1.0
10.5666,128.175826,37.952491,6578.2859544,23.597,-13.097,351.54,1.0
10.5833,128.175817,37.952539,6577.1268,23.725,-13.114,351.541,1.0
10.6,128.175808,37.952586,6575.965512,23.854,-13.132,351.542,1.0
10.6166,128.1758,37.952633,6574.8027,23.982,-13.149,351.542,1.0
10.6333,128.175791,37.95268,6573.637754400001,24.112,-13.167,351.543,1.0
10.65,128.175782,37.952727,6572.4712848,24.241,-13.184,351.544,1.0
10.6666,128.175773,37.952775,6571.3026816,24.371,-13.202,351.544,1.0
10.6833,128.175765,37.952822,6570.1322496,24.501,-13.22,351.545,1.0
10.7,128.175756,37.952869,6568.9599888,24.631,-13.237,351.546,1.0
10.7166,128.175747,37.952917,6567.7858992,24.762,-13.255,351.546,1.0
10.7333,128.175739,37.952964,6566.6099808,24.893,-13.272,351.547,1.0
10.75,128.17573,37.953011,6565.431928800001,25.024,-13.29,351.547,1.0
10.7666,128.175721,37.953058,6564.2523528,25.156,-13.307,351.548,1.0
10.7833,128.175712,37.953106,6563.0706432,25.288,-13.325,351.549,1.0
10.8,128.175704,37.953153,6561.8871048,25.42,-13.342,351.549,1.0
10.8166,128.175695,37.9532,6560.7017376,25.553,-13.36,351.55,1.0
10.8333,128.175686,37.953248,6559.5145416000005,25.686,-13.377,351.551,1.0
10.85,128.175678,37.953295,6558.3255168,25.819,-13.395,351.551,1.0
10.8666,128.175669,37.953342,6557.1346632,25.952,-13.412,351.552,1.0
10.8833,128.17566,37.953389,6555.941676,26.086,-13.43,351.552,1.0
10.9,128.175652,37.953437,6554.74686,26.22,-13.447,351.553,1.0
10.9166,128.175643,37.953484,6553.550215200001,26.355,-13.465,351.554,1.0
10.9333,128.175634,37.953531,6552.3517416,26.49,-13.482,351.554,1.0
10.95,128.175626,37.953579,6551.1514392,26.625,-13.499,351.555,1.0
10.9666,128.175617,37.953626,6549.9490032,26.76,-13.517,351.556,1.0
10.9833,128.175608,37.953673,6548.7450432,26.896,-13.534,351.556,1.0
11.0,128.1756,37.953721,6547.5389496,27.032,-13.552,351.557,1.0
11.0166,128.175591,37.953768,6546.3310272,27.168,-13.569,351.557,1.0
11.0333,128.175583,37.953816,6545.1209712,27.305,-13.586,351.558,1.0
11.05,128.175574,37.953863,6543.909391200001,27.442,-13.604,351.559,1.0
11.0666,128.175565,37.95391,6542.695677600001,27.579,-13.621,351.559,1.0
11.0833,128.175557,37.953958,6541.4801352,27.716,-13.639,351.56,1.0
11.1,128.175548,37.954005,6540.262764,27.854,-13.656,351.56,1.0
11.1166,128.175539,37.954052,6539.0435640000005,27.992,-13.673,351.561,1.0
11.1333,128.175531,37.9541,6537.8222304,28.131,-13.69,351.562,1.0
11.15,128.175522,37.954147,6536.5993728,28.269,-13.708,351.562,1.0
11.1666,128.175514,37.954195,6535.374381600001,28.408,-13.725,351.563,1.0
11.1833,128.175505,37.954242,6534.147256800001,28.547,-13.742,351.563,1.0
11.2,128.175496,37.954289,6532.918608,28.687,-13.76,351.564,1.0
11.2166,128.175488,37.954337,6531.6878256,28.827,-13.777,351.565,1.0
11.2333,128.175479,37.954384,6530.455214400001,28.967,-13.794,351.565,1.0
11.25,128.175471,37.954432,6529.220774400001,29.107,-13.811,351.566,1.0
11.2666,128.175462,37.954479,6527.9842008000005,29.248,-13.828,351.566,1.0
11.2833,128.175454,37.954527,6526.7457984,29.389,-13.846,351.567,1.0
11.3,128.175445,37.954574,6525.5055672,29.53,-13.863,351.568,1.0
11.3166,128.175437,37.954621,6524.2635072,29.671,-13.88,351.568,1.0
11.3333,128.175428,37.954669,6523.019313600001,29.813,-13.897,351.569,1.0
11.35,128.175419,37.954716,6521.773596000001,29.955,-13.914,351.57,1.0
11.3666,128.175411,37.954764,6520.52544,30.098,-13.931,351.57,1.0
11.3833,128.175402,37.954811,6519.27576,30.24,-13.948,351.571,1.0
11.4,128.175394,37.954859,6518.023946400001,30.383,-13.965,351.572,1.0
11.4166,128.175385,37.954906,6516.770304000001,30.527,-13.982,351.572,1.0
11.4333,128.175377,37.954954,6515.5148328000005,30.67,-13.999,351.573,1.0
11.45,128.175368,37.955001,6514.257228,30.814,-14.017,351.574,1.0
11.4666,128.17536,37.955049,6512.9977944,30.958,-14.034,351.574,1.0
11.4833,128.175351,37.955096,6511.736532000001,31.102,-14.051,351.575,1.0
11.5,128.175343,37.955144,6510.4734408,31.247,-14.068,351.576,1.0
11.5166,128.175334,37.955191,6509.208216,31.392,-14.084,351.577,1.0
11.5333,128.175326,37.955239,6507.9411624,31.537,-14.101,351.577,1.0
11.55,128.175317,37.955286,6506.6719752,31.683,-14.118,351.578,1.0
11.5666,128.175309,37.955334,6505.4009592,31.829,-14.135,351.579,1.0
11.5833,128.1753,37.955381,6504.1281144,31.975,-14.152,351.579,1.0
11.6,128.175292,37.955429,6502.853136000001,32.121,-14.169,351.58,1.0
11.6166,128.175283,37.955476,6501.576633600001,32.268,-14.186,351.581,1.0
11.6333,128.175275,37.955524,6500.297692800001,32.415,-14.203,351.582,1.0
11.65,128.175267,37.955571,6499.017228000001,32.562,-14.22,351.582,1.0
11.6666,128.175258,37.955619,6497.7346296,32.71,-14.237,351.583,1.0
11.6833,128.17525,37.955667,6496.450202399999,32.857,-14.253,351.584,1.0
11.7,128.175241,37.955714,6495.1636416,33.005,-14.27,351.585,1.0
11.7166,128.175233,37.955762,6493.875252000001,33.154,-14.287,351.585,1.0
11.7333,128.175224,37.955809,6492.5850336,33.303,-14.304,351.586,1.0
11.75,128.175216,37.955857,6491.2926816,33.452,-14.321,351.587,1.0
11.7666,128.175208,37.955904,6489.9985008,33.601,-14.337,351.588,1.0
11.7833,128.175199,37.955952,6488.702186400001,33.751,-14.354,351.589,1.0
11.8,128.175191,37.956,6487.4040432,33.9,-14.371,351.589,1.0
11.8166,128.175182,37.956047,6486.1040712,34.051,-14.388,351.59,1.0
11.8333,128.175174,37.956095,6484.801965600001,34.201,-14.404,351.591,1.0
11.85,128.175166,37.956142,6483.4980312,34.352,-14.421,351.592,1.0
11.8666,128.175157,37.95619,6482.192268000001,34.503,-14.438,351.593,1.0
11.8833,128.175149,37.956238,6480.8843712,34.654,-14.454,351.594,1.0
11.9,128.17514,37.956285,6479.574645600001,34.806,-14.471,351.595,1.0
11.9166,128.175132,37.956333,6478.262786400001,34.958,-14.488,351.595,1.0
11.9333,128.175124,37.95638,6476.9490984,35.11,-14.504,351.596,1.0
11.95,128.175115,37.956428,6475.6332768,35.263,-14.521,351.597,1.0
11.9666,128.175107,37.956476,6474.3156264,35.416,-14.537,351.598,1.0
11.9833,128.175099,37.956523,6472.9961472,35.569,-14.554,351.599,1.0
12.0,128.17509,37.956571,6471.6745344,35.722,-14.571,351.6,1.0
12.0166,128.175082,37.956619,6470.350788000001,35.876,-14.587,351.601,1.0
12.0333,128.175074,37.956666,6469.0255176,36.03,-14.604,351.602,1.0
12.05,128.175065,37.956714,6467.6978088000005,36.184,-14.62,351.603,1.0
12.0666,128.175057,37.956762,6466.368576,36.339,-14.637,351.604,1.0
12.0833,128.175049,37.956809,6465.0372096,36.494,-14.653,351.604,1.0
12.1,128.17504,37.956857,6463.7037096,36.649,-14.67,351.605,1.0
12.1166,128.175032,37.956905,6462.3683808000005,36.804,-14.686,351.606,1.0
12.1333,128.175024,37.956952,6461.030918400001,36.96,-14.703,351.607,1.0
12.15,128.175015,37.957,6459.6916272,37.116,-14.719,351.608,1.0
12.1666,128.175007,37.957048,6458.3505072,37.273,-14.736,351.609,1.0
12.1833,128.174999,37.957095,6457.0072536,37.429,-14.752,351.61,1.0
12.2,128.174991,37.957143,6455.6618664,37.586,-14.769,351.611,1.0
12.2166,128.174982,37.957191,6454.314650400001,37.744,-14.785,351.612,1.0
12.2333,128.174974,37.957238,6452.9656056,37.901,-14.801,351.613,1.0
12.25,128.174966,37.957286,6451.6144272,38.059,-14.818,351.614,1.0
12.2666,128.174958,37.957334,6450.261115200001,38.217,-14.834,351.615,1.0
12.2833,128.174949,37.957382,6448.905974400001,38.376,-14.851,351.616,1.0
12.3,128.174941,37.957429,6447.5490048,38.535,-14.867,351.618,1.0
12.3166,128.174933,37.957477,6446.189596800001,38.694,-14.883,351.619,1.0
12.3333,128.174925,37.957525,6444.8286648,38.853,-14.9,351.62,1.0
12.35,128.174916,37.957573,6443.4655992,39.013,-14.916,351.621,1.0
12.3666,128.174908,37.95762,6442.1004,39.173,-14.932,351.622,1.0
12.3833,128.1749,37.957668,6440.733372000001,39.334,-14.949,351.623,1.0
12.4,128.174892,37.957716,6439.364210400001,39.494,-14.965,351.624,1.0
12.4166,128.174884,37.957764,6437.993220000001,39.655,-14.981,351.625,1.0
12.4333,128.174875,37.957811,6436.620096000001,39.816,-14.998,351.626,1.0
12.45,128.174867,37.957859,6435.244838400001,39.978,-15.014,351.627,1.0
12.4666,128.174859,37.957907,6433.867752000001,40.14,-15.03,351.628,1.0
12.4833,128.174851,37.957955,6432.4888368,40.302,-15.046,351.63,1.0
12.5,128.174843,37.958002,6431.1074832,40.465,-15.063,351.631,1.0
12.5166,128.174834,37.95805,6429.7246056,40.628,-15.079,351.632,1.0
12.5333,128.174826,37.958098,6428.3392896,40.791,-15.095,351.633,1.0
12.55,128.174818,37.958146,6426.9521448000005,40.954,-15.111,351.634,1.0
12.5666,128.17481,37.958194,6425.5631712,41.118,-15.128,351.636,1.0
12.5833,128.174802,37.958241,6424.172064,41.282,-15.144,351.637,1.0
12.6,128.174794,37.958289,6422.7788232,41.446,-15.16,351.638,1.0
12.6166,128.174786,37.958337,6421.3834488,41.611,-15.176,351.639,1.0
12.6333,128.174777,37.958385,6419.9862456,41.776,-15.192,351.64,1.0
12.65,128.174769,37.958433,6418.587213600001,41.941,-15.208,351.642,1.0
12.6666,128.174761,37.958481,6417.1857432,42.107,-15.225,351.643,1.0
12.6833,128.174753,37.958528,6415.7827488,42.273,-15.241,351.644,1.0
12.7,128.174745,37.958576,6414.377316,42.439,-15.257,351.646,1.0
12.7166,128.174737,37.958624,6412.970054400001,42.605,-15.273,351.647,1.0
12.7333,128.174729,37.958672,6411.5606592,42.772,-15.289,351.648,1.0
12.75,128.174721,37.95872,6410.1491304,42.939,-15.305,351.65,1.0
12.7666,128.174713,37.958768,6408.735772800001,43.107,-15.321,351.651,1.0
12.7833,128.174704,37.958815,6407.3202816,43.274,-15.337,351.652,1.0
12.8,128.174696,37.958863,6405.9029616,43.443,-15.353,351.654,1.0
12.8166,128.174688,37.958911,6404.483508,43.611,-15.369,351.655,1.0
12.8333,128.17468,37.958959,6403.0619208,43.78,-15.385,351.656,1.0
12.85,128.174672,37.959007,6401.6382,43.948,-15.401,351.658,1.0
12.8666,128.174664,37.959055,6400.212650400001,44.118,-15.417,351.659,1.0
12.8833,128.174656,37.959103,6398.7849672,44.287,-15.433,351.661,1.0
12.9,128.174648,37.959151,6397.355150400001,44.457,-15.449,351.662,1.0
12.9166,128.17464,37.959198,6395.9235048,44.627,-15.465,351.663,1.0
12.9333,128.174632,37.959246,6394.4897255999995,44.798,-15.481,351.665,1.0
12.95,128.174624,37.959294,6393.0538128,44.969,-15.497,351.666,1.0
12.9666,128.174616,37.959342,6391.6160712,45.14,-15.513,351.668,1.0
12.9833,128.174608,37.95939,6390.1758912000005,45.311,-15.529,351.669,1.0
13.0,128.1746,37.959438,6388.733882400001,45.483,-15.545,351.671,1.0
13.0166,128.174592,37.959486,6387.2900448,45.655,-15.561,351.672,1.0
13.0333,128.174584,37.959534,6385.8437688,45.827,-15.577,351.674,1.0
13.0499,128.174576,37.959582,6384.395664000001,46.0,-15.593,351.675,1.0
13.0666,128.174568,37.95963,6382.9454256,46.172,-15.609,351.677,1.0
13.0833,128.17456,37.959678,6381.4930536,46.346,-15.625,351.679,1.0
13.1,128.174552,37.959725,6380.0388528,46.519,-15.641,351.68,1.0
13.1166,128.174544,37.959773,6378.582213600001,46.693,-15.657,351.682,1.0
13.1333,128.174536,37.959821,6377.123745600001,46.867,-15.673,351.683,1.0
13.15,128.174528,37.959869,6375.663144,47.041,-15.688,351.685,1.0
13.1666,128.17452,37.959917,6374.2007136,47.216,-15.704,351.687,1.0
13.1833,128.174512,37.959965,6372.7358448,47.391,-15.72,351.688,1.0
13.2,128.174505,37.960013,6371.269147200001,47.566,-15.736,351.69,1.0
13.2166,128.174497,37.960061,6369.800316,47.742,-15.752,351.692,1.0
13.2333,128.174489,37.960109,6368.329351200001,47.918,-15.768,351.693,1.0
13.25,128.174481,37.960157,6366.8562528,48.094,-15.784,351.695,1.0
13.2666,128.174473,37.960205,6365.3813256,48.27,-15.799,351.697,1.0
13.2833,128.174465,37.960253,6363.903960000001,48.447,-15.815,351.698,1.0
13.3,128.174457,37.960301,6362.424765600001,48.624,-15.831,351.7,1.0
13.3166,128.174449,37.960349,6360.943437600001,48.802,-15.847,351.702,1.0
13.3333,128.174441,37.960397,6359.459976,48.979,-15.863,351.704,1.0
13.35,128.174433,37.960445,6357.9743808,49.157,-15.878,351.705,1.0
13.3666,128.174426,37.960493,6356.486956800001,49.335,-15.894,351.707,1.0
13.3833,128.174418,37.960541,6354.9970944,49.514,-15.91,351.709,1.0
13.4,128.17441,37.960589,6353.5054032,49.693,-15.926,351.711,1.0
13.4166,128.174402,37.960637,6352.0112736,49.872,-15.941,351.713,1.0
13.4333,128.174394,37.960685,6350.5153152,50.051,-15.957,351.715,1.0
13.45,128.174386,37.960733,6349.0172232,50.231,-15.973,351.716,1.0
13.4666,128.174378,37.960781,6347.516997600001,50.411,-15.989,351.718,1.0
13.4833,128.174371,37.960829,6346.0149432,50.591,-16.004,351.72,1.0
13.5,128.174363,37.960877,6344.5104504,50.772,-16.02,351.722,1.0
13.5166,128.174355,37.960925,6343.003824,50.952,-16.036,351.724,1.0
13.5333,128.174347,37.960973,6341.4953688000005,51.134,-16.052,351.726,1.0
13.55,128.174339,37.961021,6339.9844752,51.315,-16.067,351.728,1.0
13.5666,128.174332,37.961069,6338.4717528,51.497,-16.083,351.73,1.0
13.5833,128.174324,37.961117,6336.9565920000005,51.679,-16.099,351.732,1.0
13.6,128.174316,37.961165,6335.4396024,51.861,-16.114,351.734,1.0
13.6166,128.174308,37.961213,6333.920479200001,52.043,-16.13,351.736,1.0
13.6333,128.174301,37.961261,6332.3992224,52.226,-16.146,351.738,1.0
13.65,128.174293,37.961309,6330.8755272,52.409,-16.162,351.74,1.0
13.6666,128.174285,37.961358,6329.3500032,52.592,-16.177,351.742,1.0
13.6833,128.174277,37.961406,6327.8223456000005,52.776,-16.193,351.744,1.0
13.7,128.174269,37.961454,6326.2925544,52.96,-16.209,351.746,1.0
13.7166,128.174262,37.961502,6324.760629599999,53.144,-16.224,351.748,1.0
13.7333,128.174254,37.96155,6323.2265712,53.329,-16.24,351.75,1.0
13.75,128.174246,37.961598,6321.690379200001,53.513,-16.255,351.752,1.0
13.7666,128.174239,37.961646,6320.1520536,53.698,-16.271,351.754,1.0
13.7833,128.174231,37.961694,6318.6115944,53.884,-16.287,351.757,1.0
13.8,128.174223,37.961742,6317.069001600001,54.069,-16.302,351.759,1.0
13.8166,128.174215,37.96179,6315.5242751999995,54.255,-16.318,351.761,1.0
13.8333,128.174208,37.961838,6313.977110400001,54.441,-16.334,351.763,1.0
13.85,128.1742,37.961886,6312.4281168,54.627,-16.349,351.765,1.0
13.8666,128.174192,37.961935,6310.8769896,54.814,-16.365,351.768,1.0
13.8833,128.174185,37.961983,6309.323728800001,55.001,-16.38,351.77,1.0
13.9,128.174177,37.962031,6307.7683344,55.188,-16.396,351.772,1.0
13.9166,128.174169,37.962079,6306.2105016000005,55.375,-16.412,351.775,1.0
13.9333,128.174162,37.962127,6304.65084,55.563,-16.427,351.777,1.0
13.95,128.174154,37.962175,6303.08874,55.751,-16.443,351.779,1.0
13.9666,128.174146,37.962223,6301.524811200001,55.939,-16.458,351.781,1.0
13.9833,128.174139,37.962271,6299.958444,56.127,-16.474,351.784,1.0
14.0,128.174131,37.96232,6298.3899432,56.316,-16.49,351.786,1.0
14.0166,128.174123,37.962368,6296.819613600001,56.505,-16.505,351.789,1.0
14.0333,128.174116,37.962416,6295.246845600001,56.694,-16.521,351.791,1.0
14.05,128.174108,37.962464,6293.671944,56.884,-16.536,351.793,1.0
14.0666,128.174101,37.962512,6292.094908800001,57.074,-16.552,351.796,1.0
14.0833,128.174093,37.96256,6290.5154352,57.264,-16.567,351.798,1.0
14.1,128.174085,37.962608,6288.934132800001,57.454,-16.583,351.801,1.0
14.1166,128.174078,37.962657,6287.350392,57.644,-16.599,351.803,1.0
14.1333,128.17407,37.962705,6285.7648224,57.835,-16.614,351.806,1.0
14.15,128.174063,37.962753,6284.176814400001,58.026,-16.63,351.808,1.0
14.1666,128.174055,37.962801,6282.5866728,58.218,-16.645,351.811,1.0
14.1833,128.174048,37.962849,6280.9943976,58.409,-16.661,351.813,1.0
14.2,128.17404,37.962897,6279.3999888,58.601,-16.676,351.816,1.0
14.2166,128.174032,37.962946,6277.8031416,58.793,-16.692,351.819,1.0
14.2333,128.174025,37.962994,6276.204465600001,58.985,-16.707,351.821,1.0
14.25,128.174017,37.963042,6274.6033512,59.178,-16.723,351.824,1.0
14.2666,128.17401,37.96309,6273.0001032,59.371,-16.738,351.827,1.0
14.2833,128.174002,37.963138,6271.3947216,59.564,-16.754,351.829,1.0
14.3,128.173995,37.963187,6269.787206400001,59.757,-16.769,351.832,1.0
14.3166,128.173987,37.963235,6268.1772528,59.951,-16.785,351.835,1.0
14.3333,128.17398,37.963283,6266.565470400001,60.145,-16.801,351.837,1.0
14.35,128.173972,37.963331,6264.951249600001,60.339,-16.816,351.84,1.0
14.3666,128.173965,37.963379,6263.334895200001,60.533,-16.832,351.843,1.0
14.3833,128.173957,37.963428,6261.7161024,60.728,-16.847,351.846,1.0
14.4,128.17395,37.963476,6260.0954808,60.922,-16.863,351.848,1.0
14.4166,128.173942,37.963524,6258.4724208,61.118,-16.878,351.851,1.0
14.4333,128.173935,37.963572,6256.8472272,61.313,-16.894,351.854,1.0
14.45,128.173927,37.96362,6255.2199,61.508,-16.909,351.857,1.0
14.4666,128.17392,37.963669,6253.590134399999,61.704,-16.925,351.86,1.0
14.4833,128.173912,37.963717,6251.9582352,61.9,-16.94,351.863,1.0
14.5,128.173905,37.963765,6250.3242024,62.097,-16.956,351.866,1.0
14.5166,128.173897,37.963813,6248.6880360000005,62.293,-16.971,351.868,1.0
14.5333,128.17389,37.963862,6247.0494312,62.49,-16.987,351.871,1.0
14.55,128.173883,37.96391,6245.4089976000005,62.687,-17.002,351.874,1.0
14.5666,128.173875,37.963958,6243.7658208,62.884,-17.018,351.877,1.0
14.5833,128.173868,37.964006,6242.120815200001,63.082,-17.033,351.88,1.0
14.6,128.17386,37.964055,6240.4733712,63.28,-17.049,351.883,1.0
14.6166,128.173853,37.964103,6238.8237936,63.478,-17.065,351.886,1.0
14.6333,128.173846,37.964151,6237.1720824,63.676,-17.08,351.889,1.0
14.65,128.173838,37.964199,6235.5179328,63.874,-17.096,351.892,1.0
