Time,Longitude,Latitude,Altitude,Roll (deg),Pitch (deg),Yaw (deg),Health
0.0,128.181881,37.968463,7002.830292000001,0.0,-0.003,179.999,1.0
0.0166,128.181881,37.968418,7002.8116992000005,0.0,-0.012,180.0,1.0
0.0333,128.181881,37.968374,7002.7912776,0.087,-0.026,180.011,1.0
0.05,128.181881,37.968329,7002.771160800001,0.084,-0.042,180.011,1.0
0.0666,128.181881,37.968284,7002.7504344,0.0,-0.06,179.995,1.0
0.0833,128.181881,37.968239,7002.7281840000005,0.004,-0.08,179.992,1.0
0.1,128.181881,37.968194,7002.7041048,0.088,-0.1,180.005,1.0
0.1166,128.181881,37.968149,7002.6803304000005,0.082,-0.12,180.007,1.0
0.1333,128.181881,37.968104,7002.656251200001,-0.004,-0.141,179.993,1.0
0.15,128.181881,37.968059,7002.630038400001,-0.001,-0.161,179.991,1.0
0.1666,128.181881,37.968014,7002.602301600001,0.082,-0.181,180.005,1.0
0.1833,128.181881,37.967969,7002.574869600001,0.075,-0.202,180.007,1.0
0.2,128.181881,37.967924,7002.5468280000005,-0.011,-0.221,179.993,1.0
0.2166,128.181881,37.967879,7002.5166528,-0.007,-0.241,179.991,1.0
0.2333,128.181881,37.967834,7002.4852584,0.076,-0.26,180.005,1.0
0.25,128.181881,37.967788,7002.4535592,0.07,-0.279,180.007,1.0
0.2666,128.181881,37.967743,7002.42186,-0.016,-0.298,179.993,1.0
0.2833,128.181881,37.967698,7002.387722400001,-0.012,-0.316,179.991,1.0
0.3,128.181881,37.967653,7002.352060800001,0.072,-0.334,180.005,1.0
0.3166,128.181881,37.967608,7002.3163992,0.066,-0.353,180.007,1.0
0.3333,128.181881,37.967563,7002.2804328,-0.02,-0.37,179.993,1.0
0.35,128.181881,37.967518,7002.2423328,-0.016,-0.388,179.991,1.0
0.3666,128.181881,37.967473,7002.202404000001,0.068,-0.405,180.005,1.0
0.3833,128.181881,37.967428,7002.1624752,0.062,-0.422,180.007,1.0
0.4,128.181881,37.967382,7002.122241600001,-0.023,-0.439,179.994,1.0
0.4166,128.181881,37.967337,7002.0798744,-0.018,-0.456,179.991,1.0
0.4333,128.181881,37.967292,7002.0356784000005,0.066,-0.473,180.005,1.0
0.45,128.181881,37.967247,7001.991482400001,0.06,-0.489,180.008,1.0
0.4666,128.181881,37.967202,7001.9469816,-0.025,-0.505,179.994,1.0
0.4833,128.181881,37.967157,7001.9003472,-0.02,-0.521,179.992,1.0
0.5,128.181881,37.967111,7001.851884000001,0.064,-0.537,180.006,1.0
0.5166,128.181881,37.967066,7001.8034208,0.059,-0.553,180.008,1.0
0.5333,128.181881,37.967021,7001.7543479999995,-0.026,-0.569,179.994,1.0
0.55,128.181881,37.966976,7001.703141600001,-0.021,-0.584,179.992,1.0
0.5666,128.181881,37.966931,7001.6501064,0.064,-0.6,180.006,1.0
0.5833,128.181881,37.966885,7001.597376,0.058,-0.615,180.008,1.0
0.6,128.181881,37.96684,7001.5437312,-0.027,-0.63,179.994,1.0
0.6166,128.181881,37.966795,7001.4882576,-0.022,-0.645,179.992,1.0
0.6333,128.181881,37.96675,7001.4330887999995,-0.112,-0.66,179.983,1.0
0.65,128.181881,37.966704,7001.3754816,-0.111,-0.675,179.986,1.0
0.6666,128.181881,37.966659,7001.318484000001,-0.204,-0.69,179.98,1.0
0.6833,128.181881,37.966614,7001.2608768,-0.379,-0.704,179.962,1.0
0.7,128.181881,37.966568,7001.203879200001,-0.641,-0.718,179.935,1.0
0.7166,128.181881,37.966523,7001.1453576,-0.814,-0.731,179.927,1.0
0.7333,128.181881,37.966478,7001.0859216,-0.904,-0.744,179.938,1.0
0.75,128.181881,37.966432,7001.0249616,-0.905,-0.757,179.964,1.0
0.7666,128.181881,37.966387,7000.961868,-0.81,-0.771,179.996,1.0
0.7833,128.181881,37.966342,7000.896640800001,-0.617,-0.784,180.033,1.0
0.8,128.181881,37.966296,7000.828670400001,-0.325,-0.798,180.07,1.0
0.8166,128.181881,37.966251,7000.757652000001,0.062,-0.812,180.106,1.0
0.8333,128.181881,37.966206,7000.6835856,0.543,-0.827,180.142,1.0
0.85,128.181881,37.96616,7000.6058616,1.113,-0.842,180.177,1.0
0.8666,128.181881,37.966115,7000.5241752,1.768,-0.858,180.21,1.0
0.8833,128.181881,37.966069,7000.4379168,2.504,-0.876,180.243,1.0
0.9,128.181881,37.966024,7000.347391200001,3.319,-0.895,180.273,1.0
0.9166,128.181881,37.965978,7000.2529032,4.207,-0.915,180.303,1.0
0.9333,128.181881,37.965933,7000.154148,5.167,-0.936,180.332,1.0
0.95,128.181881,37.965887,7000.0514304,6.194,-0.959,180.359,1.0
0.9666,128.181881,37.965842,6999.9444456,7.286,-0.983,180.385,1.0
0.9833,128.181881,37.965796,6999.8334984,8.441,-1.009,180.409,1.0
1.0,128.181881,37.965751,6999.718588799999,9.654,-1.036,180.433,1.0
1.0166,128.181881,37.965705,6999.6000216,10.924,-1.065,180.455,1.0
1.0333,128.181881,37.96566,6999.4771872,12.249,-1.095,180.475,1.0
1.05,128.181881,37.965614,6999.350695200001,13.626,-1.127,180.494,1.0
1.0666,128.181881,37.965568,6999.2205456,15.052,-1.161,180.512,1.0
1.0833,128.181881,37.965523,6999.0864336,16.527,-1.195,180.528,1.0
1.1,128.181881,37.965477,6998.948359200001,18.047,-1.232,180.542,1.0
1.1166,128.181881,37.965432,6998.806932,19.612,-1.269,180.555,1.0
1.1333,128.181881,37.965386,6998.661847200001,21.219,-1.308,180.567,1.0
1.15,128.181881,37.96534,6998.5128,22.866,-1.348,180.576,1.0
1.1666,128.181881,37.965295,6998.3604000000005,24.553,-1.388,180.584,1.0
1.1833,128.181881,37.965249,6998.204647200001,26.277,-1.43,180.59,1.0
1.2,128.181881,37.965203,6998.045236800001,28.038,-1.473,180.594,1.0
1.2166,128.181881,37.965157,6997.882168800001,29.833,-1.517,180.597,1.0
1.2333,128.181881,37.965112,6997.715748,31.662,-1.561,180.597,1.0
1.25,128.181881,37.965066,6997.545974400001,33.524,-1.606,180.596,1.0
1.2666,128.181881,37.96502,6997.3725432,35.417,-1.651,180.593,1.0
1.2833,128.181881,37.964974,6997.196064000001,37.341,-1.697,180.588,1.0
1.3,128.181881,37.964928,6997.016232,39.294,-1.743,180.582,1.0
1.3166,128.181882,37.964882,6996.833047200001,41.275,-1.789,180.573,1.0
1.3333,128.181882,37.964837,6996.6465096,43.284,-1.835,180.563,1.0
1.35,128.181882,37.964791,6996.4566192,45.32,-1.882,180.55,1.0
1.3666,128.181882,37.964745,6996.2636808,47.382,-1.928,180.536,1.0
1.3833,128.181882,37.964699,6996.0673896,49.469,-1.973,180.521,1.0
1.4,128.181882,37.964653,6995.8680504,51.58,-2.019,180.503,1.0
1.4166,128.181882,37.964607,6995.6656632,53.715,-2.064,180.484,1.0
1.4333,128.181882,37.964561,6995.4599232,55.873,-2.108,180.463,1.0
1.45,128.181882,37.964515,6995.2511352,58.054,-2.151,180.441,1.0
1.4666,128.181882,37.964469,6995.0392992,60.257,-2.194,180.417,1.0
1.4833,128.181883,37.964423,6994.824415200001,62.481,-2.236,180.392,1.0
1.5,128.181883,37.964377,6994.606483200001,64.726,-2.277,180.365,1.0
1.5166,128.181883,37.964331,6994.385808,66.991,-2.317,180.338,1.0
1.5333,128.181883,37.964285,6994.1620848,69.276,-2.356,180.309,1.0
1.55,128.181883,37.964239,6993.9353136,71.58,-2.394,180.278,1.0
1.5666,128.181883,37.964193,6993.7054944,73.904,-2.43,180.247,1.0
1.5833,128.181884,37.964147,6993.472932000001,76.245,-2.465,180.215,1.0
1.6,128.181884,37.964101,6993.2376264,78.605,-2.499,180.182,1.0
1.6166,128.181884,37.964055,6992.9995776000005,80.982,-2.531,180.149,1.0
1.6333,128.181884,37.964009,6992.7584808,83.376,-2.562,180.115,1.0
1.65,128.181884,37.963962,6992.514945600001,85.787,-2.592,180.08,1.0
1.6666,128.181885,37.963916,6992.2686672,88.214,-2.62,180.045,1.0
1.6833,128.181885,37.96387,6992.0196456,90.656,-2.647,180.009,1.0
1.7,128.181885,37.963824,6991.7681856,93.115,-2.672,179.974,1.0
1.7166,128.181885,37.963778,6991.513982400001,95.588,-2.696,179.938,1.0
1.7333,128.181886,37.963731,6991.257340800001,98.075,-2.718,179.902,1.0
1.75,128.181886,37.963685,6990.997956000001,100.577,-2.739,179.866,1.0
1.7666,128.181886,37.963639,6990.7364376000005,103.092,-2.758,179.83,1.0
1.7833,128.181887,37.963593,6990.4724808,105.621,-2.776,179.795,1.0
1.8,128.181887,37.963546,6990.206390400001,108.162,-2.793,179.76,1.0
1.8166,128.181887,37.9635,6989.937861599999,110.716,-2.808,179.725,1.0
1.8333,128.181887,37.963454,6989.6668944,113.282,-2.822,179.69,1.0
1.85,128.181888,37.963407,6989.3940984,115.859,-2.835,179.656,1.0
1.8666,128.181888,37.963361,6989.119168800001,118.447,-2.847,179.623,1.0
1.8833,128.181889,37.963315,6988.842105600001,121.046,-2.857,179.59,1.0
1.9,128.181889,37.963268,6988.5629088000005,123.656,-2.867,179.558,1.0
1.9166,128.181889,37.963222,6988.282188000001,126.275,-2.875,179.526,1.0
1.9333,128.18189,37.963176,6987.999333600001,128.904,-2.882,179.495,1.0
1.95,128.18189,37.963129,6987.7143456,131.542,-2.889,179.464,1.0
1.9666,128.181891,37.963083,6987.4281384000005,134.19,-2.894,179.435,1.0
1.9833,128.181891,37.963036,6987.139797600001,136.846,-2.899,179.405,1.0
2.0,128.181891,37.96299,6986.849932800001,139.51,-2.902,179.377,1.0
2.0166,128.181892,37.962943,6986.558544,142.182,-2.905,179.349,1.0
2.0333,128.181892,37.962897,6986.2653264,144.862,-2.907,179.322,1.0
2.05,128.181893,37.96285,6985.9708896,147.549,-2.909,179.296,1.0
2.0666,128.181893,37.962804,6985.674624,150.242,-2.909,179.27,1.0
2.0833,128.181894,37.962757,6985.3771392,152.942,-2.909,179.245,1.0
2.1,128.181894,37.96271,6985.0781304,155.648,-2.908,179.221,1.0
2.1166,128.181895,37.962664,6984.777597600001,158.359,-2.907,179.198,1.0
2.1333,128.181895,37.962617,6984.4758456,161.074,-2.905,179.175,1.0
2.15,128.181896,37.962571,6984.172874400001,163.795,-2.902,179.153,1.0
2.1666,128.181896,37.962524,6983.868379200001,166.519,-2.898,179.132,1.0
2.1833,128.181897,37.962477,6983.562664800001,169.246,-2.894,179.112,1.0
2.2,128.181897,37.962431,6983.2554264,171.977,-2.889,179.092,1.0
2.2166,128.181898,37.962384,6982.947273600001,174.709,-2.883,179.073,1.0
2.2333,128.181898,37.962337,6982.637596800001,177.444,-2.877,179.056,1.0
2.25,128.181899,37.962291,6982.326396,-179.819,-2.87,179.039,1.0
2.2666,128.181899,37.962244,6982.0142808,-177.082,-2.863,179.023,1.0
2.2833,128.1819,37.962197,6981.7006416,-174.345,-2.854,179.007,1.0
2.3,128.1819,37.96215,6981.3854784000005,-171.608,-2.845,178.993,1.0
2.3166,128.1819,37.962103,6981.069096,-168.872,-2.835,178.98,1.0
2.3333,128.181901,37.962057,6980.7514944,-166.137,-2.825,178.968,1.0
2.35,128.181901,37.96201,6980.4323688,-163.404,-2.813,178.957,1.0
2.3666,128.181902,37.961963,6980.1117192,-160.672,-2.801,178.947,1.0
2.3833,128.181902,37.961916,6979.789545600001,-157.944,-2.789,178.938,1.0
2.4,128.181903,37.961869,6979.465848,-155.218,-2.775,178.93,1.0
2.4166,128.181903,37.961822,6979.1406264,-152.495,-2.761,178.924,1.0
2.4333,128.181904,37.961775,6978.8135760000005,-149.97,-2.757,178.939,1.0
2.45,128.181904,37.961728,6978.484392,-147.635,-2.765,178.973,1.0
2.4666,128.181905,37.961682,6978.1524648,-145.497,-2.78,179.019,1.0
2.4833,128.181905,37.961635,6977.8171848,-143.559,-2.798,179.071,1.0
2.5,128.181906,37.961588,6977.478856800001,-141.819,-2.82,179.123,1.0
2.5166,128.181906,37.961541,6977.1368712,-140.273,-2.842,179.175,1.0
2.5333,128.181907,37.961494,6976.791228000001,-138.915,-2.866,179.225,1.0
2.55,128.181907,37.961447,6976.4419272000005,-137.737,-2.891,179.272,1.0
2.5666,128.181908,37.9614,6976.0880544,-136.731,-2.917,179.316,1.0
2.5833,128.181908,37.961353,6975.730219200001,-135.891,-2.945,179.357,1.0
2.6,128.181909,37.961306,6975.3678119999995,-135.21,-2.974,179.395,1.0
2.6166,128.181909,37.961259,6975.0008328,-134.681,-3.005,179.431,1.0
2.6333,128.18191,37.961212,6974.628976800001,-134.299,-3.037,179.464,1.0
2.65,128.181911,37.961165,6974.2525488,-134.056,-3.071,179.495,1.0
2.6666,128.181911,37.961118,6973.8706344,-133.948,-3.106,179.522,1.0
2.6833,128.181912,37.961071,6973.4838432,-133.969,-3.142,179.548,1.0
2.7,128.181913,37.961024,6973.091565600001,-134.114,-3.179,179.571,1.0
2.7166,128.181913,37.960977,6972.6934968000005,-134.378,-3.217,179.591,1.0
2.7333,128.181914,37.96093,6972.290551200001,-134.756,-3.257,179.609,1.0
2.75,128.181915,37.960882,6971.8821192000005,-135.243,-3.297,179.625,1.0
2.7666,128.181916,37.960835,6971.468200800001,-135.836,-3.338,179.64,1.0
2.7833,128.181917,37.960788,6971.049405600001,-136.53,-3.38,179.652,1.0
2.8,128.181918,37.960741,6970.625124000001,-137.321,-3.423,179.663,1.0
2.8166,128.181918,37.960694,6970.195965600001,-138.204,-3.466,179.673,1.0
2.8333,128.181919,37.960647,6969.7613208,-139.176,-3.51,179.681,1.0
2.85,128.18192,37.9606,6969.3214944,-140.233,-3.554,179.688,1.0
2.8666,128.181921,37.960553,6968.876181600001,-141.371,-3.6,179.694,1.0
2.8833,128.181922,37.960506,6968.425992,-142.587,-3.645,179.7,1.0
2.9,128.181924,37.960459,6967.970316,-143.877,-3.691,179.704,1.0
2.9166,128.181925,37.960412,6967.5094584,-145.239,-3.738,179.708,1.0
2.9333,128.181926,37.960365,6967.0431144,-146.668,-3.784,179.712,1.0
2.95,128.181927,37.960318,6966.5715887999995,-148.161,-3.831,179.716,1.0
2.9666,128.181928,37.960271,6966.0948816,-149.716,-3.878,179.719,1.0
2.9833,128.181929,37.960224,6965.612688000001,-151.329,-3.925,179.722,1.0
3.0,128.18193,37.960177,6965.1247032,-152.998,-3.973,179.726,1.0
3.0166,128.181932,37.96013,6964.6315368000005,-154.719,-4.02,179.729,1.0
3.0333,128.181933,37.960083,6964.132884000001,-156.49,-4.067,179.733,1.0
3.05,128.181934,37.960036,6963.6287448,-158.309,-4.115,179.737,1.0
3.0666,128.181935,37.959989,6963.119119200001,-160.171,-4.162,179.742,1.0
3.0833,128.181936,37.959942,6962.6037024,-162.076,-4.208,179.747,1.0
3.1,128.181938,37.959895,6962.0827992,-164.02,-4.255,179.752,1.0
3.1166,128.181939,37.959848,6961.556104800001,-166.001,-4.301,179.758,1.0
3.1333,128.18194,37.9598,6961.023924000001,-168.017,-4.346,179.765,1.0
3.15,128.181942,37.959753,6960.485952000001,-170.065,-4.391,179.772,1.0
3.1666,128.181943,37.959706,6959.941884000001,-172.144,-4.435,179.78,1.0
3.1833,128.181944,37.959659,6959.392329599999,-174.25,-4.479,179.789,1.0
3.2,128.181946,37.959612,6958.8369840000005,-176.383,-4.521,179.798,1.0
3.2166,128.181947,37.959565,6958.275542400001,-178.539,-4.563,179.808,1.0
3.2333,128.181948,37.959518,6957.7086144,179.281,-4.604,179.819,1.0
3.25,128.181949,37.959471,6957.1352856,177.082,-4.643,179.83,1.0
3.2666,128.181951,37.959424,6956.556470400001,174.865,-4.682,179.842,1.0
3.2833,128.181952,37.959377,6955.9715592,172.63,-4.719,179.854,1.0
3.3,128.181953,37.95933,6955.3805520000005,170.381,-4.756,179.866,1.0
3.3166,128.181955,37.959283,6954.7837536,168.119,-4.79,179.879,1.0
3.3333,128.181956,37.959236,6954.1811640000005,165.844,-4.824,179.892,1.0
3.35,128.181957,37.959189,6953.5721736000005,163.56,-4.856,179.906,1.0
3.3666,128.181958,37.959142,6952.957696800001,161.266,-4.887,179.919,1.0
3.3833,128.18196,37.959095,6952.337124000001,158.964,-4.916,179.933,1.0
3.4,128.181961,37.959048,6951.7104552,156.656,-4.944,179.947,1.0
3.4166,128.181962,37.959001,6951.0783,154.343,-4.97,179.96,1.0
3.4333,128.181963,37.958954,6950.4400488,152.026,-4.995,179.973,1.0
3.45,128.181964,37.958907,6949.796006400001,149.706,-5.019,179.986,1.0
3.4666,128.181965,37.95886,6949.1461728,147.384,-5.041,179.999,1.0
3.4833,128.181967,37.958812,6948.490548,145.061,-5.061,180.011,1.0
3.5,128.181968,37.958765,6947.829436800001,142.738,-5.08,180.022,1.0
3.5166,128.181969,37.958718,6947.164668,140.615,-5.113,180.014,1.0
3.5333,128.18197,37.958671,6946.4950224,138.685,-5.16,179.986,1.0
3.55,128.181971,37.958624,6945.8211096,136.955,-5.216,179.947,1.0
3.5666,128.181972,37.958577,6945.142624800001,135.429,-5.275,179.903,1.0
3.5833,128.181973,37.95853,6944.460482400001,134.108,-5.334,179.858,1.0
3.6,128.181973,37.958483,6943.774377600001,132.985,-5.393,179.814,1.0
3.6166,128.181974,37.958436,6943.084920000001,132.055,-5.451,179.772,1.0
3.6333,128.181975,37.958389,6942.3924144,131.308,-5.508,179.732,1.0
3.65,128.181976,37.958342,6941.696556000001,130.738,-5.564,179.694,1.0
3.6666,128.181977,37.958295,6940.997954400001,130.337,-5.62,179.659,1.0
3.6833,128.181978,37.958247,6940.296914400001,130.096,-5.675,179.625,1.0
3.7,128.181979,37.9582,6939.5931312,130.01,-5.729,179.592,1.0
3.7166,128.18198,37.958153,6938.8875192000005,130.071,-5.783,179.561,1.0
3.7333,128.181981,37.958106,6938.180078400001,130.274,-5.836,179.531,1.0
3.75,128.181982,37.958059,6937.470808800001,130.612,-5.888,179.502,1.0
3.7666,128.181982,37.958011,6936.759710400001,131.079,-5.939,179.473,1.0
3.7833,128.181983,37.957964,6936.047697600001,131.669,-5.989,179.446,1.0
3.8,128.181984,37.957917,6935.334465600001,132.378,-6.038,179.418,1.0
3.8166,128.181985,37.95787,6934.6200144,133.2,-6.086,179.391,1.0
3.8333,128.181986,37.957822,6933.9040392,134.13,-6.132,179.365,1.0
3.85,128.181987,37.957775,6933.1871496,135.163,-6.178,179.338,1.0
3.8666,128.181988,37.957728,6932.469040800001,136.294,-6.222,179.312,1.0
3.8833,128.181989,37.95768,6931.7497128,137.519,-6.266,179.286,1.0
3.9,128.18199,37.957633,6931.029165600001,138.834,-6.308,179.26,1.0
3.9166,128.181991,37.957586,6930.307704,140.234,-6.349,179.234,1.0
3.9333,128.181992,37.957538,6929.585328,141.716,-6.388,179.208,1.0
3.95,128.181994,37.957491,6928.861732800001,143.275,-6.427,179.183,1.0
3.9666,128.181995,37.957443,6928.1369184000005,144.909,-6.464,179.157,1.0
3.9833,128.181996,37.957396,6927.4114944,146.613,-6.501,179.131,1.0
4.0,128.181997,37.957348,6926.6851560000005,148.384,-6.536,179.105,1.0
4.0166,128.181998,37.957301,6925.9579032,150.218,-6.57,179.079,1.0
4.0333,128.181999,37.957253,6925.229736,152.114,-6.602,179.053,1.0
4.05,128.182,37.957206,6924.500959200001,154.066,-6.634,179.027,1.0
4.0666,128.182001,37.957158,6923.771268,156.073,-6.664,179.001,1.0
4.0833,128.182003,37.957111,6923.0406624,158.132,-6.693,178.975,1.0
4.1,128.182004,37.957063,6922.309447200001,160.239,-6.72,178.949,1.0
4.1166,128.182005,37.957015,6921.5776224,162.393,-6.746,178.922,1.0
4.1333,128.182006,37.956968,6920.845188000001,164.59,-6.771,178.896,1.0
4.15,128.182007,37.95692,6920.1118392,166.828,-6.795,178.87,1.0
4.1666,128.182009,37.956872,6919.3778808,169.104,-6.817,178.844,1.0
4.1833,128.18201,37.956825,6918.6433128,171.417,-6.837,178.818,1.0
4.2,128.182011,37.956777,6917.9078304,173.764,-6.856,178.792,1.0
4.2166,128.182012,37.956729,6917.171738400001,176.142,-6.874,178.767,1.0
4.2333,128.182013,37.956682,6916.4350368000005,178.55,-6.89,178.741,1.0
4.25,128.182014,37.956634,6915.6977256,-179.014,-6.904,178.716,1.0
4.2666,128.182016,37.956586,6914.9595,-176.553,-6.916,178.691,1.0
4.2833,128.182017,37.956538,6914.22036,-174.068,-6.927,178.667,1.0
4.3,128.182018,37.95649,6913.480610400001,-171.562,-6.936,178.643,1.0
4.3166,128.182019,37.956442,6912.739032,-169.245,-6.948,178.645,1.0
4.3333,128.18202,37.956395,6911.995624800001,-167.113,-6.964,178.673,1.0
4.35,128.182022,37.956347,6911.250084000001,-165.173,-6.983,178.715,1.0
4.3666,128.182023,37.956299,6910.502104800001,-163.431,-7.003,178.763,1.0
4.3833,128.182024,37.956251,6909.751077600001,-161.888,-7.024,178.812,1.0
4.4,128.182025,37.956203,6908.9966976000005,-160.538,-7.045,178.858,1.0
4.4166,128.182026,37.956155,6908.238660000001,-159.373,-7.067,178.902,1.0
4.4333,128.182028,37.956107,6907.476964800001,-158.388,-7.091,178.943,1.0
4.45,128.182029,37.956059,6906.711002399999,-157.572,-7.116,178.982,1.0
4.4666,128.18203,37.956011,6905.940772800001,-156.92,-7.142,179.019,1.0
4.4833,128.182031,37.955963,6905.1659712,-156.423,-7.171,179.054,1.0
4.5,128.182033,37.955915,6904.385988000001,-156.076,-7.201,179.086,1.0
4.5166,128.182034,37.955867,6903.601128,-155.872,-7.232,179.118,1.0
4.5333,128.182035,37.955819,6902.8107816,-155.805,-7.265,179.147,1.0
4.55,128.182036,37.955771,6902.0149488,-155.87,-7.3,179.175,1.0
4.5666,128.182038,37.955723,6901.2127152,-156.061,-7.336,179.201,1.0
4.5833,128.182039,37.955675,6900.404690400001,-156.373,-7.373,179.226,1.0
4.6,128.18204,37.955627,6899.58996,-156.801,-7.411,179.249,1.0
4.6166,128.182042,37.955579,6898.7697431999995,-157.339,-7.45,179.271,1.0
4.6333,128.182043,37.955531,6897.9431256,-157.983,-7.491,179.292,1.0
4.65,128.182044,37.955483,6897.110412,-158.729,-7.532,179.311,1.0
4.6666,128.182046,37.955435,6896.2719072,-159.571,-7.574,179.33,1.0
4.6833,128.182047,37.955387,6895.427306400001,-160.507,-7.616,179.348,1.0
4.7,128.182048,37.95534,6894.5769144000005,-161.53,-7.659,179.366,1.0
4.7166,128.18205,37.955292,6893.7204264,-162.638,-7.703,179.383,1.0
4.7333,128.182051,37.955244,6892.857842400001,-163.827,-7.747,179.399,1.0
4.75,128.182053,37.955196,6891.9894672,-165.092,-7.791,179.416,1.0
4.7666,128.182054,37.955148,6891.1153008,-166.43,-7.835,179.432,1.0
4.7833,128.182056,37.9551,6890.235038400001,-167.838,-7.88,179.447,1.0
4.8,128.182057,37.955052,6889.34868,-169.311,-7.924,179.463,1.0
4.8166,128.182059,37.955004,6888.4565304,-170.847,-7.968,179.479,1.0
4.8333,128.18206,37.954956,6887.5582848,-172.442,-8.012,179.495,1.0
4.85,128.182061,37.954908,6886.654248,-174.094,-8.056,179.511,1.0
4.8666,128.182063,37.95486,6885.744115200001,-175.798,-8.099,179.528,1.0
4.8833,128.182064,37.954812,6884.8278864,-177.552,-8.141,179.544,1.0
4.9,128.182066,37.954764,6883.9058663999995,-179.353,-8.183,179.561,1.0
4.9166,128.182067,37.954716,6882.9777504,178.8,-8.224,179.579,1.0
4.9333,128.182069,37.954668,6882.0438432,176.913,-8.264,179.596,1.0
4.95,128.18207,37.95462,6881.1035352,174.987,-8.304,179.614,1.0
4.9666,128.182072,37.954572,6880.157436,173.025,-8.342,179.632,1.0
4.9833,128.182073,37.954524,6879.2052408,171.029,-8.379,179.651,1.0
5.0,128.182075,37.954476,6878.2469496,169.001,-8.415,179.669,1.0
5.0166,128.182076,37.954428,6877.2837816,167.16,-8.456,179.661,1.0
5.0333,128.182078,37.95438,6876.3157368,165.501,-8.501,179.626,1.0
5.05,128.182079,37.954332,6875.34312,164.034,-8.549,179.577,1.0
5.0666,128.18208,37.954284,6874.3659312,162.764,-8.598,179.522,1.0
5.0833,128.182082,37.954237,6873.3844751999995,161.692,-8.647,179.468,1.0
5.1,128.182083,37.954189,6872.3993616,160.813,-8.694,179.416,1.0
5.1166,128.182084,37.954141,6871.410895200001,160.12,-8.742,179.367,1.0
5.1333,128.182086,37.954093,6870.419076,159.604,-8.789,179.321,1.0
5.15,128.182087,37.954045,6869.4245136,159.257,-8.836,179.277,1.0
5.1666,128.182089,37.953997,6868.427208,159.072,-8.883,179.236,1.0
5.1833,128.18209,37.953949,6867.428073600001,159.04,-8.93,179.195,1.0
5.2,128.182091,37.9539,6866.426805600001,159.156,-8.976,179.156,1.0
5.2166,128.182093,37.953852,6865.4237088,159.412,-9.022,179.118,1.0
5.2333,128.182094,37.953804,6864.419697600001,159.803,-9.067,179.081,1.0
5.25,128.182096,37.953756,6863.4144672,160.322,-9.11,179.045,1.0
5.2666,128.182097,37.953708,6862.4086272,160.963,-9.153,179.01,1.0
5.2833,128.182098,37.95366,6861.402177600001,161.721,-9.194,178.975,1.0
5.3,128.1821,37.953612,6860.395728,162.59,-9.234,178.94,1.0
5.3166,128.182101,37.953564,6859.3886688,163.565,-9.272,178.906,1.0
5.3333,128.182103,37.953515,6858.3813048,164.641,-9.309,178.872,1.0
5.35,128.182104,37.953467,6857.3733312,165.813,-9.345,178.839,1.0
5.3666,128.182105,37.953419,6856.364748,167.076,-9.378,178.806,1.0
5.3833,128.182107,37.953371,6855.355860000001,168.426,-9.41,178.773,1.0
5.4,128.182108,37.953322,6854.3463624,169.859,-9.441,178.741,1.0
5.4166,128.18211,37.953274,6853.336560000001,171.369,-9.469,178.708,1.0
5.4333,128.182111,37.953226,6852.326148,172.954,-9.496,178.676,1.0
5.45,128.182113,37.953177,6851.3151264,174.609,-9.521,178.645,1.0
5.4666,128.182114,37.953129,6850.303495200001,176.331,-9.544,178.613,1.0
5.4833,128.182116,37.953081,6849.2912544,178.115,-9.565,178.582,1.0
5.5,128.182117,37.953032,6848.278404000001,179.96,-9.585,178.552,1.0
5.5166,128.182119,37.952984,6847.2646392,-178.139,-9.602,178.521,1.0
5.5333,128.18212,37.952935,6846.250569600001,-176.186,-9.618,178.492,1.0
5.55,128.182122,37.952887,6845.2355856,-174.182,-9.632,178.462,1.0
5.5666,128.182123,37.952838,6844.219992,-172.132,-9.645,178.434,1.0
5.5833,128.182125,37.95279,6843.203484000001,-170.037,-9.655,178.406,1.0
5.6,128.182126,37.952741,6842.186061599999,-167.901,-9.663,178.379,1.0
5.6166,128.182127,37.952693,6841.1680295999995,-165.727,-9.67,178.352,1.0
5.6333,128.182129,37.952644,6840.148778400001,-163.516,-9.675,178.327,1.0
5.65,128.18213,37.952595,6839.128308,-161.494,-9.686,178.33,1.0
5.6666,128.182132,37.952547,6838.1057040000005,-159.656,-9.706,178.36,1.0
5.6833,128.182133,37.952498,6837.0806616,-158.012,-9.73,178.405,1.0
5.7,128.182135,37.95245,6836.052876,-156.568,-9.756,178.456,1.0
5.7166,128.182136,37.952401,6835.022042400001,-155.324,-9.782,178.506,1.0
5.7333,128.182138,37.952352,6833.987856000001,-154.275,-9.808,178.553,1.0
5.75,128.182139,37.952304,6832.950012,-153.413,-9.835,178.598,1.0
5.7666,128.182141,37.952255,6831.908205600001,-152.729,-9.861,178.639,1.0
5.7833,128.182142,37.952206,6830.862132,-152.214,-9.889,178.678,1.0
5.8,128.182143,37.952157,6829.811791200001,-151.862,-9.918,178.714,1.0
5.8166,128.182145,37.952109,6828.756573600001,-151.663,-9.949,178.749,1.0
5.8333,128.182146,37.95206,6827.696174400001,-151.613,-9.981,178.782,1.0
5.85,128.182148,37.952011,6826.6308984,-151.704,-10.013,178.813,1.0
5.8666,128.18215,37.951963,6825.560136,-151.93,-10.047,178.843,1.0
5.8833,128.182151,37.951914,6824.4832776,-152.285,-10.083,178.871,1.0
5.9,128.182153,37.951865,6823.4009328,-152.764,-10.119,178.898,1.0
5.9166,128.182154,37.951817,6822.3118824,-153.362,-10.156,178.923,1.0
5.9333,128.182156,37.951768,6821.216736,-154.073,-10.194,178.947,1.0
5.95,128.182158,37.951719,6820.1154936,-154.891,-10.233,178.969,1.0
5.9666,128.182159,37.951671,6819.0078504,-155.814,-10.273,178.991,1.0
5.9833,128.182161,37.951622,6817.894416,-156.834,-10.314,179.011,1.0
6.0,128.182163,37.951573,6816.7748856,-157.949,-10.355,179.031,1.0
6.0166,128.182164,37.951525,6815.648954400001,-159.154,-10.397,179.05,1.0
6.0333,128.182166,37.951476,6814.517232,-160.444,-10.439,179.068,1.0
6.05,128.182168,37.951427,6813.3797184000005,-161.815,-10.482,179.086,1.0
6.0666,128.182169,37.951379,6812.235804,-163.263,-10.525,179.104,1.0
6.0833,128.182171,37.95133,6811.0860984,-164.785,-10.568,179.121,1.0
6.1,128.182173,37.951282,6809.930296800001,-166.376,-10.611,179.139,1.0
6.1166,128.182175,37.951233,6808.7683992,-168.034,-10.654,179.156,1.0
6.1333,128.182177,37.951184,6807.600710400001,-169.753,-10.697,179.174,1.0
6.15,128.182178,37.951136,6806.4266208,-171.532,-10.74,179.191,1.0
6.1666,128.18218,37.951087,6805.2467400000005,-173.366,-10.782,179.209,1.0
6.1833,128.182182,37.951039,6804.0607632,-175.252,-10.824,179.227,1.0
6.2,128.182184,37.95099,6802.868690400001,-177.188,-10.865,179.246,1.0
6.2166,128.182185,37.950942,6801.6714360000005,-178.939,-10.905,179.234,1.0
6.2333,128.182187,37.950893,6800.469,179.486,-10.943,179.193,1.0
6.25,128.182189,37.950845,6799.2622968000005,178.104,-10.981,179.136,1.0
6.2666,128.182191,37.950796,6798.0510216,176.919,-11.019,179.074,1.0
6.2833,128.182193,37.950747,6796.835784000001,175.933,-11.057,179.014,1.0
6.3,128.182194,37.950699,6795.6168888,175.14,-11.095,178.957,1.0
6.3166,128.182196,37.95065,6794.3946408,174.532,-11.133,178.905,1.0
6.3333,128.182198,37.950602,6793.1693448000005,174.1,-11.172,178.855,1.0
6.35,128.1822,37.950553,6791.941610400001,173.835,-11.212,178.808,1.0
6.3666,128.182201,37.950505,6790.711437600001,173.729,-11.252,178.762,1.0
6.3833,128.182203,37.950456,6789.4794360000005,173.774,-11.292,178.718,1.0
6.4,128.182205,37.950408,6788.245910400001,173.964,-11.331,178.675,1.0
6.4166,128.182207,37.950359,6787.011165600001,174.293,-11.371,178.633,1.0
6.4333,128.182209,37.95031,6785.7752016,174.753,-11.409,178.592,1.0
6.45,128.18221,37.950262,6784.538628,175.338,-11.446,178.552,1.0
6.4666,128.182212,37.950213,6783.3017496,176.044,-11.482,178.512,1.0
6.4833,128.182214,37.950165,6782.0648712,176.862,-11.517,178.474,1.0
6.5,128.182216,37.950116,6780.8286024,177.79,-11.55,178.436,1.0
6.5166,128.182217,37.950067,6779.591419200001,178.82,-11.581,178.399,1.0
6.5333,128.182219,37.950019,6778.3545408,179.947,-11.61,178.362,1.0
6.55,128.182221,37.94997,6777.1170528,-178.832,-11.638,178.326,1.0
6.5666,128.182223,37.949921,6775.8795648000005,-177.523,-11.664,178.291,1.0
6.5833,128.182225,37.949872,6774.6420768,-176.132,-11.688,178.256,1.0
6.6,128.182226,37.949824,6773.403979200001,-174.662,-11.71,178.222,1.0
6.6166,128.182228,37.949775,6772.165272,-173.118,-11.73,178.189,1.0
6.6333,128.18223,37.949726,6770.925040800001,-171.748,-11.767,178.175,1.0
6.65,128.182232,37.949677,6769.682676,-170.544,-11.839,178.179,1.0
6.6666,128.182234,37.949629,6768.4372632,-169.505,-11.96,178.192,1.0
6.6833,128.182235,37.94958,6767.188192800001,-168.634,-12.146,178.203,1.0
6.7,128.182237,37.949531,6765.9339408000005,-167.932,-12.407,178.201,1.0
6.7166,128.182239,37.949482,6764.6742024,-167.396,-12.744,178.18,1.0
6.7333,128.182241,37.949433,6763.4080632000005,-167.022,-13.138,178.142,1.0
6.75,128.182243,37.949385,6762.1349136,-166.804,-13.57,178.09,1.0
6.7666,128.182244,37.949336,6760.8535344,-166.734,-14.021,178.03,1.0
6.7833,128.182246,37.949287,6759.5639255999995,-166.806,-14.469,177.966,1.0
6.8,128.182248,37.949239,6758.264868,-167.012,-14.895,177.906,1.0
6.8166,128.18225,37.94919,6756.956056800001,-167.346,-15.28,177.855,1.0
6.8333,128.182252,37.949141,6755.6368824,-167.802,-15.626,177.813,1.0
6.85,128.182254,37.949093,6754.3061256,-168.371,-15.94,177.779,1.0
6.8666,128.182256,37.949044,6752.963786400001,-169.048,-16.231,177.752,1.0
6.8833,128.182258,37.948995,6751.6089504,-169.827,-16.507,177.731,1.0
6.9,128.18226,37.948947,6750.2407032,-170.702,-16.772,177.715,1.0
6.9166,128.182262,37.948898,6748.8593496,-171.671,-17.03,177.704,1.0
6.9333,128.182264,37.94885,6747.4645848,-172.727,-17.284,177.698,1.0
6.95,128.182266,37.948801,6746.056104,-173.868,-17.535,177.697,1.0
6.9666,128.182268,37.948753,6744.634212,-175.09,-17.785,177.701,1.0
6.9833,128.18227,37.948705,6743.1979944,-176.39,-18.035,177.711,1.0
7.0,128.182272,37.948656,6741.747756000001,-177.765,-18.285,177.727,1.0
7.0166,128.182274,37.948608,6740.283496800001,-179.212,-18.537,177.749,1.0
7.0333,128.182276,37.94856,6738.8046072,179.27,-18.791,177.778,1.0
7.05,128.182278,37.948512,6737.3113920000005,177.687,-19.048,177.814,1.0
7.0666,128.18228,37.948464,6735.803241600001,176.039,-19.307,177.858,1.0
7.0833,128.182282,37.948415,6734.280460800001,174.328,-19.57,177.911,1.0
7.1,128.182284,37.948367,6732.7427448,172.557,-19.835,177.973,1.0
7.1166,128.182286,37.948319,6731.189788799999,170.727,-20.104,178.046,1.0
7.1333,128.182288,37.948271,6729.621897600001,168.839,-20.377,178.129,1.0
7.15,128.18229,37.948223,6728.0387664,166.896,-20.652,178.224,1.0
7.1666,128.182292,37.948176,6726.4400904,164.898,-20.93,178.331,1.0
7.1833,128.182294,37.948128,6724.826479200001,162.848,-21.211,178.451,1.0
7.2,128.182296,37.94808,6723.1970184,160.745,-21.493,178.586,1.0
7.2166,128.182298,37.948032,6721.552317600001,158.592,-21.777,178.735,1.0
7.2333,128.1823,37.947985,6719.8923768,156.389,-22.062,178.899,1.0
7.25,128.182301,37.947937,6718.2175008,154.143,-22.348,179.08,1.0
7.2666,128.182303,37.947889,6716.5279944,151.892,-22.631,179.272,1.0
7.2833,128.182305,37.947842,6714.824772,149.673,-22.908,179.473,1.0
7.3,128.182306,37.947794,6713.107833600001,147.517,-23.176,179.68,1.0
7.3166,128.182308,37.947747,6711.3787032,145.537,-23.43,179.866,1.0
7.3333,128.182309,37.9477,6709.6367712,143.742,-23.651,180.027,1.0
7.35,128.18231,37.947652,6707.882952000001,142.114,-23.818,180.162,1.0
7.3666,128.182311,37.947605,6706.1160264,140.456,-23.908,180.271,1.0
7.3833,128.182313,37.947558,6704.337518400001,138.771,-23.912,180.338,1.0
7.4,128.182314,37.94751,6702.5483424,137.056,-23.83,180.347,1.0
7.4166,128.182315,37.947463,6700.7478888,135.295,-23.687,180.304,1.0
7.4333,128.182315,37.947416,6698.9367672,133.479,-23.503,180.22,1.0
7.45,128.182316,37.947369,6697.115892000001,131.597,-23.298,180.107,1.0
7.4666,128.182317,37.947322,6695.285568,129.643,-23.089,179.982,1.0
7.4833,128.182318,37.947275,6693.4464048,127.609,-22.892,179.862,1.0
7.5,128.182318,37.947228,6691.5987072,125.487,-22.719,179.764,1.0
7.5166,128.182319,37.947181,6689.7433896,123.271,-22.582,179.707,1.0
7.5333,128.182319,37.947134,6687.880452000001,120.958,-22.487,179.706,1.0
7.55,128.182319,37.947087,6686.0101992,118.545,-22.438,179.778,1.0
7.5666,128.182319,37.94704,6684.132936,116.038,-22.424,179.915,1.0
7.5833,128.182319,37.946993,6682.249272,113.446,-22.437,180.107,1.0
7.6,128.182319,37.946946,6680.3589024,110.779,-22.464,180.34,1.0
7.6166,128.182319,37.946899,6678.4627416,108.049,-22.495,180.599,1.0
7.6333,128.182319,37.946852,6676.5607896,105.27,-22.521,180.865,1.0
7.65,128.182319,37.946806,6674.6533512000005,102.45,-22.537,181.126,1.0
7.6666,128.182319,37.946759,6672.7407312000005,99.597,-22.541,181.381,1.0
7.6833,128.182318,37.946712,6670.8235392,96.711,-22.532,181.628,1.0
7.7,128.182318,37.946665,6668.90208,93.796,-22.512,181.869,1.0
7.7166,128.182317,37.946619,6666.9766584,90.861,-22.479,182.085,1.0
7.7333,128.182316,37.946572,6665.0478840000005,87.914,-22.436,182.257,1.0
7.75,128.182315,37.946525,6663.1160616,84.963,-22.387,182.367,1.0
7.7666,128.182314,37.946479,6661.181800800001,82.012,-22.336,182.409,1.0
7.7833,128.182313,37.946432,6659.2451016,79.052,-22.287,182.401,1.0
7.8,128.182312,37.946385,6657.306268800001,76.077,-22.24,182.364,1.0
7.8166,128.182311,37.946339,6655.3662168,73.078,-22.194,182.312,1.0
7.8333,128.18231,37.946292,6653.4246408,70.051,-22.151,182.255,1.0
7.85,128.182308,37.946245,6651.4821504,66.997,-22.11,182.196,1.0
7.8666,128.182307,37.946199,6649.538745600001,63.917,-22.073,182.138,1.0
7.8833,128.182306,37.946152,6647.5944264,60.817,-22.038,182.083,1.0
7.9,128.182304,37.946106,6645.6498024,57.7,-22.006,182.032,1.0
7.9166,128.182303,37.946059,6643.704264000001,54.568,-21.976,181.986,1.0
7.9333,128.182301,37.946012,6641.75964,51.628,-21.968,181.963,1.0
7.95,128.182299,37.945966,6639.814101600001,48.873,-21.98,181.963,1.0
7.9666,128.182298,37.945919,6637.8670392,46.319,-22.004,181.978,1.0
7.9833,128.182296,37.945873,6635.918148,43.975,-22.029,182.0,1.0
8.0,128.182295,37.945826,6633.967732800001,41.845,-22.053,182.026,1.0
8.0166,128.182293,37.945779,6632.014879200001,39.924,-22.072,182.052,1.0
8.0333,128.182291,37.945733,6630.059892,38.204,-22.086,182.08,1.0
8.05,128.182289,37.945686,6628.101856800001,36.676,-22.097,182.109,1.0
8.0666,128.182288,37.94564,6626.141078400001,35.345,-22.085,182.142,1.0
8.0833,128.182286,37.945593,6624.177556800001,34.197,-22.037,182.19,1.0
8.1,128.182284,37.945547,6622.211596800001,33.208,-21.943,182.267,1.0
8.1166,128.182282,37.9455,6620.2435032,32.359,-21.793,182.387,1.0
8.1333,128.182281,37.945453,6618.2735808,31.64,-21.575,182.554,1.0
8.15,128.182279,37.945407,6616.3024392,31.029,-21.279,182.772,1.0
8.1666,128.182277,37.94536,6614.330688000001,30.51,-20.9,183.037,1.0
8.1833,128.182275,37.945314,6612.359546400001,30.069,-20.45,183.339,1.0
8.2,128.182273,37.945267,6610.389928800001,29.69,-19.943,183.668,1.0
8.2166,128.182272,37.945221,6608.4224448,29.364,-19.4,184.012,1.0
8.2333,128.18227,37.945174,6606.4583136,29.084,-18.84,184.357,1.0
8.25,128.182268,37.945127,6604.49784,28.842,-18.283,184.693,1.0
8.2666,128.182266,37.945081,6602.541938400001,28.635,-17.752,185.008,1.0
8.2833,128.182263,37.945034,6600.591218400001,28.458,-17.264,185.291,1.0
8.3,128.182261,37.944987,6598.64568,28.306,-16.835,185.537,1.0
8.3166,128.182259,37.944941,6596.7050184,28.278,-16.486,185.744,1.0
8.3333,128.182257,37.944894,6594.769538400001,28.365,-16.208,185.919,1.0
8.35,128.182254,37.944847,6592.8386304,28.564,-15.984,186.068,1.0
8.3666,128.182252,37.9448,6590.912904,28.874,-15.801,186.197,1.0
8.3833,128.182249,37.944753,6588.9917496,29.29,-15.642,186.312,1.0
8.4,128.182247,37.944707,6587.075472,29.804,-15.495,186.422,1.0
8.4166,128.182244,37.94466,6585.1637664,30.413,-15.351,186.532,1.0
8.4333,128.182242,37.944613,6583.256328,31.111,-15.21,186.641,1.0
8.45,128.182239,37.944566,6581.354376,31.889,-15.072,186.752,1.0
8.4666,128.182236,37.944519,6579.4582152,32.731,-14.935,186.864,1.0
8.4833,128.182233,37.944472,6577.5678456000005,33.619,-14.8,186.975,1.0
8.5,128.18223,37.944425,6575.684181600001,34.537,-14.666,187.088,1.0
8.5166,128.182227,37.944378,6573.8072232,35.472,-14.532,187.202,1.0
8.5333,128.182224,37.944331,6571.93758,36.41,-14.397,187.318,1.0
8.55,128.182221,37.944284,6570.075252000001,37.343,-14.263,187.438,1.0
8.5666,128.182218,37.944237,6568.220544,38.261,-14.127,187.561,1.0
8.5833,128.182214,37.94419,6566.373456,39.158,-13.991,187.69,1.0
8.6,128.182211,37.944143,6564.534597600001,40.029,-13.854,187.823,1.0
8.6166,128.182207,37.944096,6562.703359200001,40.87,-13.716,187.961,1.0
8.6333,128.182204,37.944049,6560.880045600001,41.679,-13.58,188.103,1.0
8.65,128.1822,37.944002,6559.064656800001,42.454,-13.447,188.248,1.0
8.6666,128.182196,37.943955,6557.257192800001,43.194,-13.317,188.393,1.0
8.6833,128.182192,37.943908,6555.4576536,43.9,-13.193,188.539,1.0
8.7,128.182187,37.943861,6553.6660392,44.57,-13.074,188.685,1.0
8.7166,128.182183,37.943814,6551.8823496,45.206,-12.959,188.83,1.0
8.7333,128.182179,37.943766,6550.1065848,45.809,-12.849,188.976,1.0
8.75,128.182174,37.943719,6548.33844,46.379,-12.744,189.121,1.0
8.7666,128.182169,37.943672,6546.5779152000005,46.917,-12.642,189.267,1.0
8.7833,128.182165,37.943625,6544.825315200001,47.426,-12.544,189.413,1.0
8.8,128.18216,37.943578,6543.0800304,47.905,-12.45,189.559,1.0
8.8166,128.182155,37.94353,6541.3423656,48.357,-12.358,189.705,1.0
8.8333,128.182149,37.943483,6539.6123208,48.783,-12.27,189.851,1.0
8.85,128.182144,37.943436,6537.8892864,49.261,-12.188,190.002,1.0
8.8666,128.182138,37.943389,6536.1726528,49.785,-12.114,190.155,1.0
8.8833,128.182133,37.943341,6534.462420000001,50.345,-12.044,190.311,1.0
8.9,128.182127,37.943294,6532.757978400001,50.93,-11.975,190.465,1.0
8.9166,128.182121,37.943247,6531.060242400001,51.528,-11.908,190.619,1.0
8.9333,128.182115,37.943199,6529.369212,52.126,-11.842,190.771,1.0
8.95,128.182109,37.943152,6527.685192000001,52.714,-11.775,190.922,1.0
8.9666,128.182103,37.943105,6526.0075728,53.284,-11.71,191.073,1.0
8.9833,128.182097,37.943057,6524.335744800001,53.757,-11.641,191.198,1.0
9.0,128.18209,37.94301,6522.6703176,54.14,-11.579,191.285,1.0
9.0166,128.182083,37.942963,6521.0119008,54.422,-11.528,191.339,1.0
9.0333,128.182076,37.942915,6519.3607992,54.598,-11.488,191.372,1.0
9.05,128.182069,37.942868,6517.7170128,54.663,-11.455,191.395,1.0
9.0666,128.182062,37.942821,6516.0805416,54.619,-11.427,191.414,1.0
9.0833,128.182055,37.942773,6514.4519952,54.469,-11.401,191.433,1.0
9.1,128.182047,37.942726,6512.830764,54.217,-11.374,191.455,1.0
9.1166,128.18204,37.942679,6511.2174576,53.867,-11.347,191.479,1.0
9.1333,128.182032,37.942631,6509.6114664,53.423,-11.316,191.507,1.0
9.15,128.182024,37.942584,6508.0130952,52.89,-11.283,191.539,1.0
9.1666,128.182016,37.942537,6506.422344,52.27,-11.246,191.575,1.0
9.1833,128.182008,37.942489,6504.8395176,51.567,-11.205,191.615,1.0
9.2,128.181999,37.942442,6503.264006400001,50.783,-11.159,191.66,1.0
9.2166,128.181991,37.942395,6501.696724800001,49.922,-11.108,191.709,1.0
9.2333,128.181982,37.942347,6500.1370632,48.986,-11.052,191.761,1.0
9.25,128.181973,37.9423,6498.5856312000005,47.978,-10.99,191.818,1.0
9.2666,128.181964,37.942253,6497.0424288,46.899,-10.922,191.877,1.0
9.2833,128.181955,37.942205,6495.507760800001,45.753,-10.847,191.941,1.0
9.3,128.181946,37.942158,6493.981932000001,44.542,-10.764,192.01,1.0
9.3166,128.181936,37.942111,6492.464942400001,43.471,-10.704,192.09,1.0
9.3333,128.181927,37.942063,6490.9558776,42.539,-10.68,192.171,1.0
9.35,128.181917,37.942016,6489.453518400001,41.759,-10.696,192.233,1.0
9.3666,128.181908,37.941969,6487.957255200001,41.143,-10.759,192.257,1.0
9.3833,128.181898,37.941921,6486.467392800001,40.694,-10.864,192.243,1.0
9.4,128.181888,37.941874,6484.982712,40.405,-10.995,192.202,1.0
9.4166,128.181878,37.941826,6483.5035176,40.27,-11.139,192.145,1.0
9.4333,128.181868,37.941779,6482.0285904,40.279,-11.289,192.08,1.0
9.45,128.181858,37.941731,6480.5576255999995,40.425,-11.441,192.012,1.0
9.4666,128.181848,37.941684,6479.0897088,40.703,-11.591,191.943,1.0
9.4833,128.181838,37.941636,6477.62484,41.105,-11.741,191.874,1.0
9.5,128.181828,37.941589,6476.161800000001,41.628,-11.888,191.805,1.0
9.5166,128.181817,37.941541,6474.7002840000005,42.268,-12.033,191.737,1.0
9.5333,128.181807,37.941494,6473.2399872000005,43.02,-12.175,191.67,1.0
9.55,128.181797,37.941446,6471.779690400001,43.88,-12.313,191.604,1.0
9.5666,128.181786,37.941399,6470.3193936,44.846,-12.447,191.539,1.0
9.5833,128.181776,37.941351,6468.8581824,45.912,-12.576,191.475,1.0
9.6,128.181765,37.941304,6467.395752000001,47.076,-12.7,191.414,1.0
9.6166,128.181755,37.941256,6465.932712,48.334,-12.818,191.356,1.0
9.6333,128.181744,37.941208,6464.4684528,49.682,-12.93,191.301,1.0
9.65,128.181734,37.941161,6463.0026696,51.118,-13.035,191.25,1.0
9.6666,128.181723,37.941113,6461.5353624,52.638,-13.133,191.204,1.0
9.6833,128.181712,37.941066,6460.0665312,54.239,-13.223,191.164,1.0
9.7,128.181702,37.941018,6458.5958712,55.917,-13.306,191.13,1.0
9.7166,128.181691,37.94097,6457.1233824,57.67,-13.381,191.104,1.0
9.7333,128.18168,37.940922,6455.648760000001,59.494,-13.449,191.086,1.0
9.75,128.18167,37.940875,6454.1723088,61.387,-13.509,191.078,1.0
9.7666,128.181659,37.940827,6452.693724000001,63.345,-13.562,191.08,1.0
9.7833,128.181648,37.940779,6451.2133104,65.366,-13.607,191.095,1.0
9.8,128.181638,37.940731,6449.7304584,67.445,-13.647,191.122,1.0
9.8166,128.181627,37.940684,6448.2457776,69.582,-13.681,191.163,1.0
9.8333,128.181616,37.940636,6446.7586584,71.772,-13.71,191.219,1.0
9.85,128.181605,37.940588,6445.269710400001,74.013,-13.735,191.291,1.0
9.8666,128.181594,37.94054,6443.778324000001,76.302,-13.757,191.379,1.0
9.8833,128.181583,37.940492,6442.284804,78.637,-13.778,191.486,1.0
9.9,128.181573,37.940445,6440.789150400001,81.014,-13.799,191.61,1.0
9.9166,128.181562,37.940397,6439.2913632,83.431,-13.821,191.754,1.0
9.9333,128.181551,37.940349,6437.791442400001,85.863,-13.845,191.916,1.0
9.95,128.18154,37.940301,6436.289388000001,88.287,-13.87,192.099,1.0
9.9666,128.181529,37.940253,6434.7848952,90.682,-13.898,192.301,1.0
9.9833,128.181517,37.940205,6433.277964000001,93.027,-13.93,192.523,1.0
10.0,128.181506,37.940157,6431.7685944,95.303,-13.969,192.766,1.0
10.0166,128.181495,37.940109,6430.2561768000005,97.496,-14.016,193.028,1.0
10.0333,128.181484,37.940061,6428.741016,99.594,-14.073,193.309,1.0
10.05,128.181472,37.940014,6427.2225024,101.586,-14.141,193.608,1.0
10.0666,128.181461,37.939966,6425.7000264,103.466,-14.223,193.923,1.0
10.0833,128.181449,37.939918,6424.173588000001,105.23,-14.318,194.252,1.0
10.1,128.181437,37.93987,6422.6428824,106.878,-14.427,194.594,1.0
10.1166,128.181425,37.939822,6421.106995200001,108.408,-14.551,194.947,1.0
10.1333,128.181413,37.939775,6419.5656216,109.824,-14.688,195.308,1.0
10.15,128.181401,37.939727,6418.018761599999,111.13,-14.839,195.676,1.0
10.1666,128.181389,37.939679,6416.465805600001,112.331,-15.003,196.048,1.0
10.1833,128.181376,37.939631,6414.9064488,113.433,-15.178,196.421,1.0
10.2,128.181364,37.939584,6413.3403864,114.443,-15.362,196.788,1.0
10.2166,128.181351,37.939536,6411.7673136,115.371,-15.552,197.145,1.0
10.2333,128.181338,37.939488,6410.1866208,116.223,-15.744,197.488,1.0
10.25,128.181326,37.939441,6408.5986128,117.007,-15.938,197.816,1.0
10.2666,128.181313,37.939393,6407.0029848,117.73,-16.134,198.129,1.0
10.2833,128.181299,37.939346,6405.3988224,118.398,-16.329,198.426,1.0
10.3,128.181286,37.939298,6403.7864304,119.018,-16.524,198.71,1.0
10.3166,128.181273,37.939251,6402.1658088,119.593,-16.719,198.982,1.0
10.3333,128.181259,37.939204,6400.5360432,120.131,-16.913,199.241,1.0
10.35,128.181245,37.939156,6398.897438400001,120.635,-17.106,199.49,1.0
10.3666,128.181231,37.939109,6397.2499944,121.108,-17.298,199.729,1.0
10.3833,128.181217,37.939062,6395.593711200001,121.644,-17.495,199.955,1.0
10.4,128.181203,37.939015,6393.9288936,122.238,-17.696,200.168,1.0
10.4166,128.181189,37.938967,6392.2546272,122.879,-17.898,200.371,1.0
10.4333,128.181175,37.93892,6390.5715216,123.556,-18.098,200.567,1.0
10.45,128.18116,37.938873,6388.8789672,124.256,-18.295,200.756,1.0
10.4666,128.181146,37.938826,6387.176049600001,124.967,-18.489,200.941,1.0
10.4833,128.181131,37.938779,6385.463073600001,125.676,-18.681,201.121,1.0
10.5,128.181116,37.938732,6383.7397344,126.375,-18.87,201.297,1.0
10.5166,128.181101,37.938685,6382.0057272,127.055,-19.059,201.467,1.0
10.5333,128.181086,37.938638,6380.260747200001,127.711,-19.247,201.634,1.0
10.55,128.181071,37.938592,6378.5044896,128.339,-19.435,201.796,1.0
10.5666,128.181055,37.938545,6376.7372592,128.937,-19.623,201.954,1.0
10.5833,128.18104,37.938498,6374.958446400001,129.505,-19.812,202.109,1.0
10.6,128.181024,37.938452,6373.1680512,130.041,-20.001,202.26,1.0
10.6166,128.181008,37.938405,6371.3660736,130.547,-20.191,202.408,1.0
10.6333,128.180992,37.938359,6369.551904,131.025,-20.382,202.553,1.0
10.65,128.180976,37.938312,6367.726152000001,131.475,-20.573,202.694,1.0
10.6666,128.18096,37.938266,6365.8885128,131.901,-20.764,202.835,1.0
10.6833,128.180944,37.938219,6364.0383768,132.306,-20.953,202.974,1.0
10.7,128.180927,37.938173,6362.1763536,132.69,-21.142,203.111,1.0
10.7166,128.180911,37.938127,6360.3018336000005,133.054,-21.331,203.246,1.0
10.7333,128.180894,37.938081,6358.4151216,133.398,-21.52,203.38,1.0
10.75,128.180878,37.938035,6356.5159128000005,133.725,-21.709,203.511,1.0
10.7666,128.180861,37.937989,6354.6042072,134.035,-21.898,203.64,1.0
10.7833,128.180844,37.937943,6352.6800048000005,134.331,-22.087,203.767,1.0
10.8,128.180827,37.937897,6350.743305600001,134.614,-22.276,203.892,1.0
10.8166,128.18081,37.937851,6348.7938048000005,134.884,-22.465,204.016,1.0
10.8333,128.180792,37.937805,6346.8318072,135.144,-22.654,204.137,1.0
10.85,128.180775,37.93776,6344.857008,135.394,-22.842,204.258,1.0
10.8666,128.180757,37.937714,6342.8691024,135.634,-23.031,204.377,1.0
10.8833,128.18074,37.937668,6340.8687,135.867,-23.218,204.494,1.0
10.9,128.180722,37.937623,6338.8551912,136.092,-23.406,204.61,1.0
10.9166,128.180704,37.937578,6336.8288808,136.311,-23.593,204.725,1.0
10.9333,128.180686,37.937532,6334.789464,136.523,-23.78,204.839,1.0
10.95,128.180668,37.937487,6332.7369408,136.729,-23.966,204.952,1.0
10.9666,128.18065,37.937442,6330.671311200001,136.93,-24.153,205.064,1.0
10.9833,128.180631,37.937397,6328.592575199999,137.126,-24.338,205.174,1.0
11.0,128.180613,37.937352,6326.5007328,137.317,-24.524,205.284,1.0
11.0166,128.180595,37.937307,6324.395784000001,137.503,-24.709,205.393,1.0
11.0333,128.180576,37.937262,6322.277424000001,137.685,-24.894,205.502,1.0
11.05,128.180557,37.937217,6320.1459576,137.864,-25.078,205.609,1.0
11.0666,128.180539,37.937172,6318.00108,138.038,-25.262,205.716,1.0
11.0833,128.18052,37.937127,6315.842791200001,138.209,-25.446,205.822,1.0
11.1,128.180501,37.937083,6313.671091200001,138.377,-25.63,205.928,1.0
11.1166,128.180482,37.937038,6311.4859799999995,138.541,-25.813,206.033,1.0
11.1333,128.180462,37.936994,6309.2874576,138.702,-25.996,206.137,1.0
11.15,128.180443,37.936949,6307.075524000001,138.859,-26.179,206.241,1.0
11.1666,128.180424,37.936905,6304.849874400001,139.014,-26.362,206.345,1.0
11.1833,128.180404,37.93686,6302.6108136,139.166,-26.544,206.448,1.0
11.2,128.180385,37.936816,6300.3583416,139.315,-26.726,206.551,1.0
11.2166,128.180365,37.936772,6298.0921536000005,139.461,-26.908,206.653,1.0
11.2333,128.180345,37.936728,6295.8125544,139.604,-27.09,206.755,1.0
11.25,128.180325,37.936684,6293.5189344,139.745,-27.271,206.857,1.0
11.2666,128.180305,37.93664,6291.2119032,139.883,-27.452,206.959,1.0
11.2833,128.180285,37.936596,6288.891156000001,140.019,-27.634,207.06,1.0
11.3,128.180265,37.936553,6286.556692800001,140.153,-27.814,207.161,1.0
11.3166,128.180245,37.936509,6284.2085136000005,140.283,-27.995,207.261,1.0
11.3333,128.180225,37.936466,6281.846618400001,140.412,-28.176,207.362,1.0
11.35,128.180204,37.936422,6279.4710072,140.538,-28.356,207.462,1.0
11.3666,128.180184,37.936379,6277.08168,140.662,-28.536,207.562,1.0
11.3833,128.180163,37.936335,6274.6786368,140.784,-28.716,207.662,1.0
11.4,128.180142,37.936292,6272.2615728,140.903,-28.896,207.762,1.0
11.4166,128.180122,37.936249,6269.8307928,141.02,-29.076,207.861,1.0
11.4333,128.180101,37.936206,6267.385992,141.136,-29.256,207.961,1.0
11.45,128.18008,37.936163,6264.92778,141.248,-29.435,208.06,1.0
11.4666,128.180059,37.93612,6262.4552424,141.359,-29.614,208.16,1.0
11.4833,128.180038,37.936077,6259.968988799999,141.468,-29.794,208.259,1.0
11.5,128.180017,37.936034,6257.469019200001,141.575,-29.973,208.358,1.0
11.5166,128.179995,37.935992,6254.955028800001,141.68,-30.151,208.457,1.0
11.5333,128.179974,37.935949,6252.4270176,141.782,-30.33,208.557,1.0
11.55,128.179953,37.935907,6249.8852904000005,141.883,-30.509,208.656,1.0
11.5666,128.179931,37.935864,6247.329542400001,141.982,-30.687,208.755,1.0
11.5833,128.179909,37.935822,6244.759773600001,142.079,-30.866,208.854,1.0
11.6,128.179888,37.93578,6242.175984,142.174,-31.044,208.953,1.0
11.6166,128.179866,37.935737,6239.578478400001,142.267,-31.222,209.052,1.0
11.6333,128.179844,37.935695,6236.966952000001,142.358,-31.4,209.151,1.0
11.65,128.179822,37.935653,6234.3414048,142.448,-31.578,209.25,1.0
11.6666,128.1798,37.935611,6231.701836800001,142.535,-31.756,209.35,1.0
11.6833,128.179778,37.93557,6229.048248,142.621,-31.933,209.449,1.0
11.7,128.179756,37.935528,6226.3809432,142.705,-32.111,209.548,1.0
11.7166,128.179734,37.935486,6223.6993128,142.788,-32.288,209.648,1.0
11.7333,128.179712,37.935445,6221.0039664,142.868,-32.466,209.747,1.0
11.75,128.179689,37.935403,6218.2945992,142.947,-32.643,209.847,1.0
11.7666,128.179667,37.935362,6215.570906400001,143.024,-32.82,209.946,1.0
11.7833,128.179645,37.935321,6212.833497600001,143.099,-32.997,210.046,1.0
11.8,128.179622,37.93528,6210.082068000001,143.173,-33.174,210.146,1.0
11.8166,128.179599,37.935238,6207.316312800001,143.245,-33.35,210.246,1.0
11.8333,128.179577,37.935197,6204.5368416,143.315,-33.527,210.346,1.0
11.85,128.179554,37.935157,6201.7433496,143.384,-33.704,210.447,1.0
11.8666,128.179531,37.935116,6198.9358368,143.451,-33.88,210.547,1.0
11.8833,128.179508,37.935075,6196.1143032,143.517,-34.056,210.648,1.0
11.9,128.179485,37.935034,6193.2787488,143.581,-34.232,210.749,1.0
11.9166,128.179462,37.934994,6190.428868800001,143.643,-34.408,210.85,1.0
11.9333,128.179439,37.934953,6187.5652728000005,143.704,-34.584,210.951,1.0
11.95,128.179416,37.934913,6184.687656000001,143.763,-34.76,211.052,1.0
11.9666,128.179393,37.934873,6181.7960184,143.82,-34.936,211.154,1.0
11.9833,128.179369,37.934833,6178.89036,143.876,-35.112,211.255,1.0
12.0,128.179346,37.934793,6175.9706808,143.931,-35.287,211.357,1.0
12.0166,128.179323,37.934753,6173.0369808000005,143.984,-35.463,211.459,1.0
12.0333,128.179299,37.934713,6170.089260000001,144.035,-35.638,211.562,1.0
12.05,128.179276,37.934673,6167.127518400001,144.085,-35.813,211.664,1.0
12.0666,128.179252,37.934633,6164.152060800001,144.134,-35.988,211.767,1.0
12.0833,128.179228,37.934594,6161.1622776,144.181,-36.163,211.87,1.0
12.1,128.179205,37.934554,6158.1584736,144.226,-36.338,211.974,1.0
12.1166,128.179181,37.934515,6155.1409536,144.271,-36.513,212.077,1.0
12.1333,128.179157,37.934476,6152.1094128,144.313,-36.688,212.181,1.0
12.15,128.179133,37.934437,6149.0638512000005,144.354,-36.862,212.285,1.0
12.1666,128.179109,37.934397,6146.0042688,144.394,-37.037,212.39,1.0
12.1833,128.179085,37.934359,6142.930665600001,144.432,-37.211,212.495,1.0
12.2,128.179061,37.93432,6139.843346400001,144.469,-37.385,212.6,1.0
12.2166,128.179037,37.934281,6136.741701600001,144.505,-37.559,212.705,1.0
12.2333,128.179013,37.934242,6133.6263408,144.539,-37.733,212.811,1.0
12.25,128.178989,37.934204,6130.4972640000005,144.572,-37.907,212.917,1.0
12.2666,128.178964,37.934165,6127.3538616,144.603,-38.081,213.023,1.0
12.2833,128.17894,37.934127,6124.1967432,144.633,-38.255,213.13,1.0
12.3,128.178916,37.934089,6121.0259088,144.661,-38.429,213.237,1.0
12.3166,128.178891,37.93405,6117.8410536,144.689,-38.602,213.344,1.0
12.3333,128.178867,37.934012,6114.642177600001,144.714,-38.776,213.451,1.0
12.35,128.178842,37.933974,6111.4295856,144.739,-38.949,213.559,1.0
12.3666,128.178817,37.933937,6108.202972800001,144.762,-39.122,213.668,1.0
12.3833,128.178793,37.933899,6104.962644,144.784,-39.295,213.777,1.0
12.4,128.178768,37.933861,6101.7082944,144.804,-39.468,213.886,1.0
12.4166,128.178743,37.933824,6098.440228800001,144.823,-39.641,213.995,1.0
12.4333,128.178719,37.933786,6095.1584472,144.841,-39.814,214.105,1.0
12.45,128.178694,37.933749,6091.8629496,144.858,-39.987,214.215,1.0
12.4666,128.178669,37.933712,6088.5534312,144.873,-40.159,214.326,1.0
12.4833,128.178644,37.933675,6085.230196800001,144.887,-40.332,214.437,1.0
12.5,128.178619,37.933638,6081.893246400001,144.899,-40.504,214.549,1.0
12.5166,128.178594,37.933601,6078.5422751999995,144.91,-40.677,214.661,1.0
12.5333,128.178569,37.933564,6075.1778928,144.92,-40.849,214.773,1.0
12.55,128.178544,37.933527,6071.7994896,144.929,-41.021,214.886,1.0
12.5666,128.178519,37.933491,6068.4076752,144.936,-41.193,215.0,1.0
12.5833,128.178493,37.933454,6065.00184,144.942,-41.365,215.113,1.0
12.6,128.178468,37.933418,6061.5825936,144.947,-41.537,215.228,1.0
12.6166,128.178443,37.933382,6058.1493264,144.95,-41.708,215.342,1.0
12.6333,128.178417,37.933345,6054.7026479999995,144.952,-41.88,215.458,1.0
12.65,128.178392,37.933309,6051.2425584,144.953,-42.051,215.573,1.0
12.6666,128.178367,37.933273,6047.768448,144.953,-42.223,215.689,1.0
12.6833,128.178341,37.933238,6044.2809264,144.951,-42.394,215.806,1.0
12.7,128.178316,37.933202,6040.779688799999,144.948,-42.565,215.923,1.0
12.7166,128.17829,37.933166,6037.26504,144.944,-42.736,216.041,1.0
12.7333,128.178265,37.933131,6033.7366752,144.938,-42.907,216.159,1.0
12.75,128.178239,37.933096,6030.1945944,144.932,-43.078,216.278,1.0
12.7666,128.178213,37.93306,6026.6394072,144.924,-43.248,216.398,1.0
12.7833,128.178188,37.933025,6023.0701992,144.914,-43.419,216.517,1.0
12.8,128.178162,37.93299,6019.4878848,144.904,-43.589,216.638,1.0
12.8166,128.178136,37.932955,6015.892159200001,144.892,-43.76,216.759,1.0
12.8333,128.17811,37.932921,6012.2827176,144.879,-43.93,216.881,1.0
12.85,128.178085,37.932886,6008.659864800001,144.864,-44.1,217.003,1.0
12.8666,128.178059,37.932851,6005.0236008,144.849,-44.27,217.126,1.0
12.8833,128.178033,37.932817,6001.3739256,144.832,-44.44,217.249,1.0
12.9,128.178007,37.932783,5997.711144,144.814,-44.61,217.373,1.0
12.9166,128.177981,37.932748,5994.0346464,144.794,-44.78,217.498,1.0
12.9333,128.177955,37.932714,5990.3450424,144.774,-44.949,217.623,1.0
12.95,128.177929,37.93268,5986.641722400001,144.752,-45.119,217.749,1.0
12.9666,128.177903,37.932647,5982.9256008,144.729,-45.288,217.875,1.0
12.9833,128.177877,37.932613,5979.1957632,144.704,-45.457,218.002,1.0
13.0,128.177851,37.932579,5975.453124000001,144.678,-45.626,218.13,1.0
13.0166,128.177824,37.932546,5971.6967688,144.651,-45.795,218.259,1.0
13.0333,128.177798,37.932512,5967.9276119999995,144.623,-45.964,218.388,1.0
13.0499,128.177772,37.932479,5964.145044,144.594,-46.133,218.518,1.0
13.0666,128.177746,37.932446,5960.349064800001,144.563,-46.302,218.648,1.0
13.0833,128.17772,37.932413,5956.540284000001,144.531,-46.47,218.78,1.0
13.1,128.177693,37.93238,5952.718092000001,144.497,-46.639,218.912,1.0
13.1166,128.177667,37.932347,5948.8830984,144.463,-46.807,219.045,1.0
13.1333,128.177641,37.932315,5945.0349983999995,144.427,-46.975,219.178,1.0
13.15,128.177614,37.932282,5941.173487200001,144.39,-47.143,219.312,1.0
13.1666,128.177588,37.93225,5937.299174400001,144.351,-47.311,219.447,1.0
13.1833,128.177561,37.932218,5933.411755200001,144.311,-47.479,219.583,1.0
13.2,128.177535,37.932185,5929.5115344,144.27,-47.646,219.72,1.0
13.2166,128.177508,37.932153,5925.5982072,144.228,-47.814,219.857,1.0
13.2333,128.177482,37.932121,5921.671773600001,144.184,-47.981,219.995,1.0
13.25,128.177455,37.93209,5917.7325384000005,144.139,-48.148,220.134,1.0
13.2666,128.177429,37.932058,5913.780501600001,144.093,-48.315,220.274,1.0
13.2833,128.177402,37.932026,5909.8156632,144.045,-48.482,220.414,1.0
13.3,128.177376,37.931995,5905.8377184,143.997,-48.649,220.556,1.0
13.3166,128.177349,37.931964,5901.846972,143.946,-48.816,220.698,1.0
13.3333,128.177323,37.931933,5897.8437288000005,143.895,-48.982,220.841,1.0
13.35,128.177296,37.931902,5893.827379200001,143.842,-49.149,220.985,1.0
13.3666,128.177269,37.931871,5889.7985328,143.788,-49.315,221.13,1.0
13.3833,128.177242,37.93184,5885.75658,143.732,-49.481,221.276,1.0
13.4,128.177216,37.931809,5881.7024352,143.675,-49.647,221.422,1.0
13.4166,128.177189,37.931779,5877.635184000001,143.617,-49.813,221.57,1.0
13.4333,128.177162,37.931748,5873.555436000001,143.557,-49.979,221.719,1.0
13.45,128.177136,37.931718,5869.4631912,143.496,-50.144,221.868,1.0
13.4666,128.177109,37.931688,5865.3584496,143.434,-50.31,222.019,1.0
13.4833,128.177082,37.931658,5861.2409064,143.37,-50.475,222.17,1.0
13.5,128.177055,37.931628,5857.1108664,143.305,-50.64,222.322,1.0
13.5166,128.177028,37.931598,5852.968329599999,143.238,-50.805,222.476,1.0
13.5333,128.177002,37.931569,5848.813296,143.17,-50.97,222.63,1.0
13.55,128.176975,37.931539,5844.646070400001,143.101,-51.134,222.786,1.0
13.5666,128.176948,37.93151,5840.4660432,143.03,-51.299,222.942,1.0
13.5833,128.176921,37.931481,5836.273824000001,142.958,-51.463,223.1,1.0
13.6,128.176894,37.931451,5832.0694128000005,142.885,-51.627,223.258,1.0
13.6166,128.176867,37.931422,5827.8525048,142.809,-51.791,223.418,1.0
13.6333,128.17684,37.931394,5823.623100000001,142.733,-51.955,223.578,1.0
13.65,128.176813,37.931365,5819.381808,142.655,-52.118,223.74,1.0
13.6666,128.176786,37.931336,5815.1280192,142.576,-52.282,223.903,1.0
13.6833,128.176759,37.931308,5810.8620384000005,142.495,-52.445,224.067,1.0
13.7,128.176732,37.93128,5806.5838656000005,142.412,-52.608,224.233,1.0
13.7166,128.176705,37.931251,5802.2935008,142.328,-52.771,224.399,1.0
13.7333,128.176678,37.931223,5797.9912488,142.243,-52.933,224.566,1.0
13.75,128.176651,37.931196,5793.6768048,142.156,-53.096,224.735,1.0
13.7666,128.176624,37.931168,5789.350168800001,142.067,-53.258,224.905,1.0
13.7833,128.176597,37.93114,5785.0116456000005,141.977,-53.42,225.076,1.0
13.8,128.17657,37.931113,5780.6609304,141.886,-53.582,225.249,1.0
13.8166,128.176543,37.931085,5776.298632800001,141.793,-53.744,225.422,1.0
13.8333,128.176516,37.931058,5771.9241432,141.698,-53.906,225.597,1.0
13.85,128.176489,37.931031,5767.5377664,141.602,-54.067,225.774,1.0
13.8666,128.176462,37.931004,5763.139502399999,141.504,-54.228,225.951,1.0
13.8833,128.176435,37.930977,5758.729351200001,141.404,-54.389,226.13,1.0
13.9,128.176408,37.930951,5754.3076176,141.303,-54.55,226.31,1.0
13.9166,128.176381,37.930924,5749.873996800001,141.2,-54.71,226.492,1.0
13.9333,128.176354,37.930898,5745.4284888,141.096,-54.87,226.674,1.0
13.95,128.176327,37.930871,5740.9717032,140.99,-55.03,226.858,1.0
13.9666,128.1763,37.930845,5736.5027256,140.882,-55.19,227.044,1.0
13.9833,128.176273,37.930819,5732.022470400001,140.773,-55.349,227.231,1.0
14.0,128.176246,37.930794,5727.530632800001,140.662,-55.509,227.419,1.0
14.0166,128.176219,37.930768,5723.026908,140.549,-55.668,227.609,1.0
14.0333,128.176192,37.930742,5718.5119056,140.435,-55.826,227.8,1.0
14.05,128.176165,37.930717,5713.9856256,140.319,-55.985,227.993,1.0
14.0666,128.176138,37.930692,5709.4474584,140.201,-56.143,228.187,1.0
14.0833,128.17611,37.930666,5704.8980136,140.081,-56.301,228.383,1.0
14.1,128.176083,37.930641,5700.3372912,139.96,-56.459,228.58,1.0
14.1166,128.176056,37.930617,5695.7649864,139.836,-56.616,228.779,1.0
14.1333,128.176029,37.930592,5691.1817088,139.711,-56.773,228.98,1.0
14.15,128.176002,37.930567,5686.5868488,139.584,-56.93,229.182,1.0
14.1666,128.175975,37.930543,5681.980711200001,139.456,-57.087,229.385,1.0
14.1833,128.175948,37.930519,5677.3636008,139.325,-57.243,229.591,1.0
14.2,128.175921,37.930495,5672.7352128,139.192,-57.399,229.798,1.0
14.2166,128.175894,37.930471,5668.095852,139.058,-57.555,230.006,1.0
14.2333,128.175867,37.930447,5663.4452136,138.922,-57.71,230.217,1.0
14.25,128.17584,37.930423,5658.783297600001,138.783,-57.866,230.429,1.0
14.2666,128.175813,37.930399,5654.1107136,138.643,-58.021,230.643,1.0
14.2833,128.175786,37.930376,5649.427156800001,138.501,-58.175,230.859,1.0
14.3,128.175759,37.930353,5644.7323224,138.356,-58.329,231.076,1.0
14.3166,128.175732,37.93033,5640.026820000001,138.21,-58.483,231.295,1.0
14.3333,128.175705,37.930307,5635.3103448,138.062,-58.637,231.517,1.0
14.35,128.175678,37.930284,5630.5832016,137.911,-58.79,231.74,1.0
14.3666,128.175651,37.930261,5625.8450856,137.759,-58.943,231.965,1.0
