Time,Longitude,Latitude,Altitude,Roll (deg),Pitch (deg),Yaw (deg),Health
0.0,128.186502,37.932064,7060.6200672,0.0,-4.003,164.0,1.0
0.0166,128.186518,37.932021,7060.253392800001,0.0,-4.012,164.0,1.0
0.0333,128.186534,37.931978,7059.8867184,-0.085,-4.025,163.988,1.0
0.05,128.186549,37.931935,7059.520044,-0.254,-4.041,163.966,1.0
0.0666,128.186565,37.931892,7059.153979200001,-0.508,-4.059,163.936,1.0
0.0833,128.186581,37.931848,7058.7888288,-0.851,-4.077,163.902,1.0
0.1,128.186596,37.931805,7058.424897600001,-1.283,-4.095,163.868,1.0
0.1166,128.186612,37.931762,7058.062490400001,-1.801,-4.114,163.833,1.0
0.1333,128.186628,37.931719,7057.7016072,-2.403,-4.132,163.798,1.0
0.15,128.186643,37.931676,7057.3431624,-3.087,-4.149,163.765,1.0
0.1666,128.186659,37.931633,7056.987156000001,-3.848,-4.166,163.732,1.0
0.1833,128.186675,37.93159,7056.632978400001,-4.685,-4.182,163.701,1.0
0.2,128.186691,37.931546,7056.2809344,-5.593,-4.197,163.67,1.0
0.2166,128.186706,37.931503,7055.930719200001,-6.571,-4.212,163.641,1.0
0.2333,128.186722,37.93146,7055.5826376,-7.613,-4.226,163.612,1.0
0.25,128.186738,37.931417,7055.2363847999995,-8.719,-4.24,163.585,1.0
0.2666,128.186753,37.931374,7054.891960800001,-9.885,-4.253,163.558,1.0
0.2833,128.186769,37.931331,7054.549060800001,-11.108,-4.266,163.532,1.0
0.3,128.186785,37.931287,7054.2082944,-12.387,-4.278,163.507,1.0
0.3166,128.186801,37.931244,7053.869052000001,-13.718,-4.29,163.483,1.0
0.3333,128.186817,37.931201,7053.531638400001,-15.099,-4.302,163.46,1.0
0.35,128.186832,37.931158,7053.1957488,-16.529,-4.314,163.437,1.0
0.3666,128.186848,37.931115,7052.861383200001,-18.004,-4.326,163.416,1.0
0.3833,128.186864,37.931072,7052.528541600001,-19.523,-4.337,163.395,1.0
0.4,128.18688,37.931028,7052.1972240000005,-21.084,-4.349,163.375,1.0
0.4166,128.186896,37.930985,7051.8674304,-22.685,-4.361,163.356,1.0
0.4333,128.186912,37.930942,7051.538856000001,-24.324,-4.372,163.337,1.0
0.45,128.186928,37.930899,7051.211500800001,-26.0,-4.384,163.32,1.0
0.4666,128.186943,37.930856,7050.8856696,-27.71,-4.396,163.303,1.0
0.4833,128.186959,37.930812,7050.5607528,-29.453,-4.408,163.287,1.0
0.5,128.186975,37.930769,7050.2370552,-31.227,-4.421,163.272,1.0
0.5166,128.186991,37.930726,7049.914272,-33.032,-4.433,163.257,1.0
0.5333,128.187008,37.930683,7049.592708,-34.865,-4.445,163.243,1.0
0.55,128.187024,37.93064,7049.2717536,-36.726,-4.457,163.229,1.0
0.5666,128.18704,37.930597,7048.9517136,-38.612,-4.468,163.216,1.0
0.5833,128.187056,37.930553,7048.6322832000005,-40.523,-4.48,163.203,1.0
0.6,128.187072,37.93051,7048.3137672,-42.458,-4.491,163.191,1.0
0.6166,128.187088,37.930467,7047.995556000001,-44.416,-4.503,163.18,1.0
0.6333,128.187104,37.930424,7047.6779544,-46.394,-4.506,163.16,1.0
0.65,128.187121,37.930381,7047.3609624,-48.391,-4.497,163.128,1.0
0.6666,128.187137,37.930338,7047.043970400001,-50.407,-4.482,163.088,1.0
0.6833,128.187154,37.930295,7046.727588000001,-52.441,-4.462,163.041,1.0
0.7,128.18717,37.930251,7046.4112056,-54.492,-4.44,162.991,1.0
0.7166,128.187186,37.930208,7046.095128000001,-56.559,-4.418,162.938,1.0
0.7333,128.187203,37.930165,7045.7790504,-58.639,-4.389,162.872,1.0
0.75,128.187219,37.930122,7045.463277600001,-60.732,-4.354,162.792,1.0
0.7666,128.187236,37.930079,7045.1468952000005,-62.836,-4.317,162.704,1.0
0.7833,128.187253,37.930036,7044.8305128,-64.952,-4.28,162.61,1.0
0.8,128.187269,37.929993,7044.5138256,-67.079,-4.245,162.512,1.0
0.8166,128.187286,37.92995,7044.196224,-69.214,-4.213,162.412,1.0
0.8333,128.187303,37.929907,7043.8786224000005,-71.358,-4.18,162.299,1.0
0.85,128.18732,37.929864,7043.560106400001,-73.51,-4.145,162.167,1.0
0.8666,128.187337,37.929821,7043.240676,-75.67,-4.111,162.022,1.0
0.8833,128.187354,37.929778,7042.9200264,-77.837,-4.081,161.868,1.0
0.9,128.187371,37.929735,7042.5981576,-80.013,-4.055,161.711,1.0
0.9166,128.187388,37.929692,7042.2750696,-82.198,-4.036,161.553,1.0
0.9333,128.187406,37.929649,7041.949848,-84.385,-4.021,161.381,1.0
0.95,128.187423,37.929606,7041.6231024,-86.574,-4.01,161.19,1.0
0.9666,128.18744,37.929563,7041.293918400001,-88.765,-4.007,160.986,1.0
0.9833,128.187458,37.92952,7040.9626008000005,-90.958,-4.01,160.774,1.0
1.0,128.187476,37.929477,7040.62854,-93.154,-4.022,160.56,1.0
1.0166,128.187493,37.929434,7040.2914312,-95.352,-4.042,160.348,1.0
1.0333,128.187511,37.929391,7039.9509696000005,-97.499,-4.069,160.124,1.0
1.05,128.187529,37.929349,7039.6068504,-99.594,-4.104,159.882,1.0
1.0666,128.187547,37.929306,7039.259378400001,-101.643,-4.149,159.627,1.0
1.0833,128.187565,37.929263,7038.907944,-103.654,-4.205,159.368,1.0
1.1,128.187583,37.92922,7038.552547200001,-105.63,-4.272,159.109,1.0
1.1166,128.187601,37.929177,7038.1925784000005,-107.579,-4.349,158.855,1.0
1.1333,128.187619,37.929135,7037.8277328,-109.44,-4.437,158.592,1.0
1.15,128.187637,37.929092,7037.458010400001,-111.219,-4.537,158.314,1.0
1.1666,128.187656,37.929049,7037.083716,-112.925,-4.652,158.025,1.0
1.1833,128.187674,37.929007,7036.7039352,-114.569,-4.779,157.735,1.0
1.2,128.187693,37.928964,7036.318668,-116.162,-4.917,157.448,1.0
1.2166,128.187711,37.928921,7035.9276096,-117.711,-5.065,157.17,1.0
1.2333,128.18773,37.928879,7035.530150400001,-119.126,-5.222,156.885,1.0
1.25,128.187749,37.928836,7035.1265952,-120.414,-5.395,156.583,1.0
1.2666,128.187768,37.928793,7034.716944,-121.591,-5.583,156.271,1.0
1.2833,128.187786,37.928751,7034.300892,-122.671,-5.784,155.955,1.0
1.3,128.187805,37.928708,7033.878744,-123.67,-5.995,155.645,1.0
1.3166,128.187825,37.928666,7033.4492808,-124.6,-6.212,155.343,1.0
1.3333,128.187844,37.928623,7033.0125024,-125.494,-6.435,155.054,1.0
1.35,128.187863,37.928581,7032.5674944,-126.36,-6.661,154.779,1.0
1.3666,128.187882,37.928538,7032.1142568000005,-127.207,-6.89,154.518,1.0
1.3833,128.187902,37.928496,7031.65218,-128.039,-7.118,154.272,1.0
1.4,128.187921,37.928453,7031.181568800001,-128.862,-7.345,154.039,1.0
1.4166,128.187941,37.928411,7030.701204,-129.677,-7.571,153.82,1.0
1.4333,128.187961,37.928369,7030.2123048,-130.436,-7.793,153.611,1.0
1.45,128.18798,37.928326,7029.7142616,-131.141,-8.01,153.412,1.0
1.4666,128.188,37.928284,7029.207379200001,-131.798,-8.223,153.223,1.0
1.4833,128.18802,37.928242,7028.6916576,-132.414,-8.434,153.043,1.0
1.5,128.18804,37.928199,7028.1664872,-132.994,-8.643,152.873,1.0
1.5166,128.18806,37.928157,7027.6315632000005,-133.544,-8.849,152.712,1.0
1.5333,128.188081,37.928115,7027.0878,-134.046,-9.053,152.559,1.0
1.55,128.188101,37.928073,7026.534588,-134.505,-9.254,152.413,1.0
1.5666,128.188121,37.928031,7025.9716224,-134.926,-9.452,152.273,1.0
1.5833,128.188142,37.927989,7025.3989032,-135.316,-9.649,152.14,1.0
1.6,128.188162,37.927947,7024.8158207999995,-135.678,-9.843,152.014,1.0
1.6166,128.188183,37.927905,7024.22268,-136.017,-10.036,151.893,1.0
1.6333,128.188204,37.927863,7023.6197856,-136.328,-10.226,151.777,1.0
1.65,128.188224,37.927821,7023.0062232,-136.617,-10.415,151.666,1.0
1.6666,128.188245,37.927779,7022.381992800001,-136.884,-10.601,151.559,1.0
1.6833,128.188266,37.927737,7021.7473992000005,-137.135,-10.786,151.457,1.0
1.7,128.188287,37.927695,7021.102137600001,-137.37,-10.969,151.357,1.0
1.7166,128.188308,37.927653,7020.4459032,-137.593,-11.151,151.261,1.0
1.7333,128.188329,37.927611,7019.7790008,-137.803,-11.332,151.168,1.0
1.75,128.188351,37.927569,7019.1011256,-138.002,-11.51,151.078,1.0
1.7666,128.188372,37.927528,7018.4122776,-138.19,-11.688,150.99,1.0
1.7833,128.188394,37.927486,7017.712152000001,-138.37,-11.864,150.904,1.0
1.8,128.188415,37.927444,7017.0010536,-138.543,-12.04,150.82,1.0
1.8166,128.188437,37.927403,7016.2786776,-138.709,-12.214,150.738,1.0
1.8333,128.188458,37.927361,7015.545024000001,-138.868,-12.387,150.658,1.0
1.85,128.18848,37.92732,7014.800092800001,-139.022,-12.559,150.578,1.0
1.8666,128.188502,37.927278,7014.043579200001,-139.172,-12.73,150.5,1.0
1.8833,128.188524,37.927237,7013.275788000001,-139.316,-12.901,150.424,1.0
1.9,128.188546,37.927195,7012.4967192,-139.457,-13.07,150.348,1.0
1.9166,128.188568,37.927154,7011.706068,-139.594,-13.239,150.273,1.0
1.9333,128.18859,37.927113,7010.9038344,-139.728,-13.408,150.199,1.0
1.95,128.188612,37.927071,7010.0900184,-139.858,-13.575,150.125,1.0
1.9666,128.188634,37.92703,7009.264620000001,-139.986,-13.742,150.053,1.0
1.9833,128.188657,37.926989,7008.4276392,-140.111,-13.909,149.981,1.0
2.0,128.188679,37.926948,7007.579076,-140.234,-14.075,149.909,1.0
2.0166,128.188702,37.926907,7006.7186255999995,-140.355,-14.24,149.838,1.0
2.0333,128.188724,37.926865,7005.8465928000005,-140.473,-14.405,149.767,1.0
2.05,128.188747,37.926824,7004.9626728,-140.589,-14.57,149.697,1.0
2.0666,128.18877,37.926783,7004.067170400001,-140.704,-14.734,149.627,1.0
2.0833,128.188793,37.926742,7003.1597808,-140.816,-14.898,149.557,1.0
2.1,128.188816,37.926702,7002.240504,-140.926,-15.062,149.488,1.0
2.1166,128.188839,37.926661,7001.30934,-141.035,-15.225,149.419,1.0
2.1333,128.188862,37.92662,7000.3665936,-141.142,-15.388,149.35,1.0
2.15,128.188885,37.926579,6999.41196,-141.246,-15.55,149.281,1.0
2.1666,128.188908,37.926538,6998.4451344,-141.348,-15.713,149.212,1.0
2.1833,128.188931,37.926498,6997.4667264,-141.447,-15.875,149.143,1.0
2.2,128.188955,37.926457,6996.4761264,-141.545,-16.037,149.075,1.0
2.2166,128.188978,37.926416,6995.4736391999995,-141.641,-16.198,149.007,1.0
2.2333,128.189001,37.926376,6994.459264800001,-141.734,-16.359,148.938,1.0
2.25,128.189025,37.926335,6993.4330032,-141.825,-16.52,148.87,1.0
2.2666,128.189049,37.926295,6992.394549600001,-141.912,-16.681,148.802,1.0
2.2833,128.189072,37.926254,6991.3442088,-141.997,-16.841,148.734,1.0
2.3,128.189096,37.926214,6990.281676,-142.08,-17.001,148.666,1.0
2.3166,128.18912,37.926174,6989.207256000001,-142.16,-17.161,148.598,1.0
2.3333,128.189144,37.926133,6988.1209488,-142.237,-17.321,148.53,1.0
2.35,128.189168,37.926093,6987.0224496,-142.31,-17.48,148.461,1.0
2.3666,128.189192,37.926053,6985.9120632,-142.379,-17.639,148.393,1.0
2.3833,128.189216,37.926013,6984.7894848,-142.445,-17.798,148.325,1.0
2.4,128.18924,37.925973,6983.654714400001,-142.508,-17.957,148.257,1.0
2.4166,128.189264,37.925933,6982.508056800001,-142.569,-18.115,148.189,1.0
2.4333,128.189289,37.925893,6981.349512,-142.625,-18.273,148.12,1.0
2.45,128.189313,37.925853,6980.178470400001,-142.677,-18.43,148.051,1.0
2.4666,128.189337,37.925813,6978.9955416,-142.724,-18.586,147.982,1.0
2.4833,128.189362,37.925773,6977.8004208,-142.768,-18.742,147.912,1.0
2.5,128.189386,37.925733,6976.5934128,-142.807,-18.898,147.842,1.0
2.5166,128.189411,37.925693,6975.3742128,-142.843,-19.054,147.772,1.0
2.5333,128.189436,37.925654,6974.1428208,-142.874,-19.209,147.701,1.0
2.55,128.18946,37.925614,6972.899236800001,-142.9,-19.363,147.63,1.0
2.5666,128.189485,37.925574,6971.643765600001,-142.92,-19.516,147.558,1.0
2.5833,128.18951,37.925535,6970.3761024,-142.936,-19.669,147.486,1.0
2.6,128.189535,37.925495,6969.096552000001,-142.948,-19.822,147.414,1.0
2.6166,128.18956,37.925456,6967.8045048,-142.955,-19.974,147.341,1.0
2.6333,128.189585,37.925416,6966.5005704000005,-142.957,-20.126,147.268,1.0
2.65,128.18961,37.925377,6965.184444,-142.955,-20.277,147.194,1.0
2.6666,128.189635,37.925338,6963.8561256,-142.949,-20.427,147.12,1.0
2.6833,128.189661,37.925298,6962.515615200001,-142.938,-20.577,147.045,1.0
2.7,128.189686,37.925259,6961.1629128,-142.923,-20.727,146.97,1.0
2.7166,128.189711,37.92522,6959.798323200001,-142.905,-20.876,146.894,1.0
2.7333,128.189737,37.925181,6958.421541600001,-142.882,-21.025,146.818,1.0
2.75,128.189762,37.925142,6957.0325680000005,-142.855,-21.173,146.741,1.0
2.7666,128.189788,37.925103,6955.631402399999,-142.824,-21.32,146.664,1.0
2.7833,128.189813,37.925064,6954.2180448,-142.789,-21.467,146.586,1.0
2.8,128.189839,37.925025,6952.7928,-142.751,-21.614,146.508,1.0
2.8166,128.189865,37.924986,6951.3553632,-142.709,-21.76,146.429,1.0
2.8333,128.18989,37.924947,6949.9057344,-142.663,-21.906,146.349,1.0
2.85,128.189916,37.924909,6948.4439136,-142.614,-22.05,146.269,1.0
2.8666,128.189942,37.92487,6946.970205600001,-142.561,-22.195,146.188,1.0
2.8833,128.189968,37.924831,6945.484305600001,-142.505,-22.338,146.106,1.0
2.9,128.189994,37.924793,6943.9862136,-142.446,-22.482,146.024,1.0
2.9166,128.19002,37.924754,6942.4759296,-142.383,-22.624,145.941,1.0
2.9333,128.190046,37.924716,6940.9534536,-142.323,-22.765,145.854,1.0
2.95,128.190072,37.924677,6939.4187856,-142.264,-22.902,145.764,1.0
2.9666,128.190099,37.924639,6937.8722304,-142.205,-23.037,145.671,1.0
2.9833,128.190125,37.924601,6936.3134832000005,-142.145,-23.172,145.576,1.0
3.0,128.190151,37.924562,6934.742544,-142.082,-23.305,145.48,1.0
3.0166,128.190178,37.924524,6933.1597176000005,-142.015,-23.437,145.383,1.0
3.0333,128.190204,37.924486,6931.5646992,-141.948,-23.569,145.285,1.0
3.05,128.190231,37.924448,6929.9577936,-141.879,-23.701,145.186,1.0
3.0666,128.190257,37.92441,6928.338696000001,-141.809,-23.832,145.087,1.0
3.0833,128.190284,37.924372,6926.707711200001,-141.738,-23.962,144.987,1.0
3.1,128.190311,37.924334,6925.0645343999995,-141.665,-24.093,144.887,1.0
3.1166,128.190338,37.924296,6923.409165600001,-141.59,-24.223,144.787,1.0
3.1333,128.190364,37.924258,6921.7419096,-141.517,-24.353,144.686,1.0
3.15,128.190391,37.924221,6920.0627664,-141.444,-24.483,144.585,1.0
3.1666,128.190418,37.924183,6918.3714312,-141.372,-24.613,144.484,1.0
3.1833,128.190445,37.924145,6916.668208800001,-141.3,-24.742,144.382,1.0
3.2,128.190472,37.924108,6914.9527944,-141.229,-24.872,144.28,1.0
3.2166,128.190499,37.92407,6913.225797600001,-141.158,-25.001,144.177,1.0
3.2333,128.190526,37.924033,6911.486304,-141.089,-25.13,144.074,1.0
3.25,128.190554,37.923996,6909.7352280000005,-141.022,-25.259,143.971,1.0
3.2666,128.190581,37.923958,6907.971960000001,-140.957,-25.388,143.868,1.0
3.2833,128.190608,37.923921,6906.196804800001,-140.894,-25.517,143.764,1.0
3.3,128.190636,37.923884,6904.4097624,-140.832,-25.646,143.66,1.0
3.3166,128.190663,37.923847,6902.610832800001,-140.771,-25.774,143.556,1.0
3.3333,128.190691,37.92381,6900.799711200001,-140.713,-25.903,143.451,1.0
3.35,128.190718,37.923773,6898.9770072,-140.658,-26.032,143.347,1.0
3.3666,128.190746,37.923736,6897.142111200001,-140.606,-26.16,143.242,1.0
3.3833,128.190773,37.923699,6895.295632800001,-140.555,-26.289,143.136,1.0
3.4,128.190801,37.923662,6893.4369624,-140.506,-26.417,143.031,1.0
3.4166,128.190829,37.923626,6891.566709600001,-140.459,-26.546,142.925,1.0
3.4333,128.190857,37.923589,6889.684569600001,-140.415,-26.674,142.819,1.0
3.45,128.190885,37.923552,6887.790237600001,-140.373,-26.802,142.713,1.0
3.4666,128.190913,37.923516,6885.884323200001,-140.334,-26.931,142.607,1.0
3.4833,128.190941,37.923479,6883.9668264,-140.297,-27.059,142.501,1.0
3.5,128.190969,37.923443,6882.0371376,-140.262,-27.188,142.394,1.0
3.5166,128.190997,37.923407,6880.0958664,-140.228,-27.316,142.287,1.0
3.5333,128.191025,37.92337,6878.142708,-140.197,-27.444,142.18,1.0
3.55,128.191053,37.923334,6876.1779672,-140.169,-27.573,142.073,1.0
3.5666,128.191081,37.923298,6874.2013392,-140.143,-27.701,141.966,1.0
3.5833,128.19111,37.923262,6872.212824000001,-140.119,-27.83,141.859,1.0
3.6,128.191138,37.923226,6870.2127264,-140.096,-27.959,141.751,1.0
3.6166,128.191167,37.92319,6868.200741600001,-140.075,-28.087,141.644,1.0
3.6333,128.191195,37.923154,6866.177174400001,-140.056,-28.216,141.536,1.0
3.65,128.191224,37.923119,6864.1420248,-140.039,-28.344,141.429,1.0
3.6666,128.191252,37.923083,6862.094988000001,-140.024,-28.473,141.321,1.0
3.6833,128.191281,37.923047,6860.036064000001,-140.011,-28.602,141.213,1.0
3.7,128.19131,37.923012,6857.9658624,-139.999,-28.731,141.105,1.0
3.7166,128.191338,37.922976,6855.8837736000005,-139.989,-28.86,140.997,1.0
3.7333,128.191367,37.922941,6853.7901024,-139.98,-28.989,140.889,1.0
3.75,128.191396,37.922905,6851.684544,-139.973,-29.118,140.781,1.0
3.7666,128.191425,37.92287,6849.5677080000005,-139.967,-29.247,140.673,1.0
3.7833,128.191454,37.922835,6847.4389848,-139.963,-29.376,140.565,1.0
3.8,128.191483,37.9228,6845.298679200001,-139.96,-29.505,140.457,1.0
3.8166,128.191512,37.922764,6843.146791200001,-139.958,-29.635,140.349,1.0
3.8333,128.191541,37.922729,6840.983016,-139.957,-29.764,140.241,1.0
3.85,128.19157,37.922694,6838.8079632,-139.958,-29.893,140.133,1.0
3.8666,128.191599,37.92266,6836.621328,-139.96,-30.023,140.025,1.0
3.8833,128.191628,37.922625,6834.4228056,-139.963,-30.153,139.917,1.0
3.9,128.191658,37.92259,6832.2130056000005,-139.967,-30.282,139.809,1.0
3.9166,128.191687,37.922555,6829.9916232000005,-139.972,-30.412,139.701,1.0
3.9333,128.191716,37.922521,6827.7586584,-139.978,-30.542,139.593,1.0
3.95,128.191746,37.922486,6825.513806400001,-139.986,-30.672,139.485,1.0
3.9666,128.191775,37.922452,6823.2576768,-139.994,-30.802,139.377,1.0
3.9833,128.191805,37.922417,6820.989964800001,-140.003,-30.932,139.269,1.0
4.0,128.191834,37.922383,6818.7109752,-140.013,-31.062,139.161,1.0
4.0166,128.191864,37.922349,6816.4200984,-140.024,-31.192,139.053,1.0
4.0333,128.191894,37.922315,6814.117944,-140.036,-31.322,138.945,1.0
4.05,128.191923,37.922281,6811.8042072,-140.048,-31.453,138.837,1.0
4.0666,128.191953,37.922247,6809.478888000001,-140.061,-31.583,138.729,1.0
4.0833,128.191983,37.922213,6807.1419864,-140.075,-31.714,138.621,1.0
4.1,128.192013,37.922179,6804.7938072,-140.09,-31.844,138.513,1.0
4.1166,128.192043,37.922145,6802.4340456,-140.106,-31.975,138.405,1.0
4.1333,128.192073,37.922111,6800.062701600001,-140.122,-32.106,138.297,1.0
4.15,128.192103,37.922078,6797.68008,-140.138,-32.237,138.19,1.0
4.1666,128.192133,37.922044,6795.285876,-140.155,-32.368,138.082,1.0
4.1833,128.192163,37.922011,6792.8803944,-140.173,-32.499,137.974,1.0
4.2,128.192193,37.921977,6790.4633304,-140.192,-32.63,137.866,1.0
4.2166,128.192223,37.921944,6788.034684000001,-140.21,-32.761,137.759,1.0
4.2333,128.192253,37.921911,6785.594760000001,-140.23,-32.892,137.651,1.0
4.25,128.192283,37.921877,6783.1432536,-140.25,-33.024,137.544,1.0
4.2666,128.192314,37.921844,6780.680469600001,-140.27,-33.155,137.436,1.0
4.2833,128.192344,37.921811,6778.206408,-140.291,-33.287,137.329,1.0
4.3,128.192374,37.921778,6775.720764000001,-140.312,-33.418,137.221,1.0
4.3166,128.192405,37.921745,6773.223537600001,-140.334,-33.55,137.114,1.0
4.3333,128.192435,37.921713,6770.715338400001,-140.356,-33.682,137.006,1.0
4.35,128.192466,37.92168,6768.195252,-140.378,-33.813,136.899,1.0
4.3666,128.192496,37.921647,6765.664192800001,-140.401,-33.945,136.791,1.0
4.3833,128.192527,37.921615,6763.121551200001,-140.424,-34.077,136.684,1.0
4.4,128.192557,37.921582,6760.567632,-140.447,-34.209,136.577,1.0
4.4166,128.192588,37.92155,6758.0021304,-140.471,-34.341,136.469,1.0
4.4333,128.192619,37.921517,6755.425656,-140.495,-34.473,136.362,1.0
4.45,128.192649,37.921485,6752.8375992,-140.519,-34.606,136.255,1.0
4.4666,128.19268,37.921453,6750.23796,-140.544,-34.738,136.148,1.0
4.4833,128.192711,37.921421,6747.627348,-140.569,-34.87,136.04,1.0
4.5,128.192742,37.921389,6745.0051536,-140.594,-35.003,135.933,1.0
4.5166,128.192772,37.921357,6742.371681600001,-140.619,-35.135,135.826,1.0
4.5333,128.192803,37.921325,6739.7272368,-140.645,-35.268,135.719,1.0
4.55,128.192834,37.921293,6737.070904800001,-140.671,-35.401,135.612,1.0
4.5666,128.192865,37.921261,6734.403600000001,-140.697,-35.533,135.505,1.0
4.5833,128.192896,37.92123,6731.7250176,-140.723,-35.666,135.398,1.0
4.6,128.192927,37.921198,6729.0351576,-140.749,-35.799,135.29,1.0
4.6166,128.192958,37.921167,6726.3337152,-140.775,-35.932,135.183,1.0
4.6333,128.192989,37.921135,6723.621300000001,-140.802,-36.065,135.076,1.0
4.65,128.19302,37.921104,6720.8973024,-140.829,-36.198,134.969,1.0
4.6666,128.193052,37.921073,6718.162332000001,-140.856,-36.331,134.862,1.0
4.6833,128.193083,37.921042,6715.4157792000005,-140.883,-36.464,134.755,1.0
4.7,128.193114,37.921011,6712.6582536000005,-140.91,-36.597,134.648,1.0
4.7166,128.193145,37.92098,6709.8894504,-140.937,-36.731,134.541,1.0
4.7333,128.193176,37.920949,6707.109064800001,-140.964,-36.864,134.434,1.0
4.75,128.193208,37.920918,6704.317706400001,-140.991,-36.997,134.327,1.0
4.7666,128.193239,37.920887,6701.515070400001,-141.019,-37.131,134.22,1.0
4.7833,128.19327,37.920857,6698.7014616,-141.046,-37.264,134.112,1.0
4.8,128.193302,37.920826,6695.876270400001,-141.073,-37.397,134.005,1.0
4.8166,128.193333,37.920795,6693.040106400001,-141.101,-37.531,133.898,1.0
4.8333,128.193365,37.920765,6690.192360000001,-141.128,-37.665,133.791,1.0
4.85,128.193396,37.920735,6687.3339456,-141.155,-37.798,133.684,1.0
4.8666,128.193428,37.920704,6684.4639488,-141.182,-37.932,133.576,1.0
4.8833,128.193459,37.920674,6681.5826744000005,-141.209,-38.065,133.469,1.0
4.9,128.193491,37.920644,6678.6904272,-141.236,-38.199,133.362,1.0
4.9166,128.193522,37.920614,6675.7872072,-141.263,-38.333,133.254,1.0
4.9333,128.193554,37.920584,6672.8724048,-141.29,-38.467,133.147,1.0
4.95,128.193586,37.920554,6669.9466296,-141.316,-38.601,133.04,1.0
4.9666,128.193617,37.920525,6667.0098816,-141.343,-38.734,132.932,1.0
4.9833,128.193649,37.920495,6664.061856,-141.369,-38.868,132.825,1.0
5.0,128.193681,37.920465,6661.1025528,-141.395,-39.002,132.717,1.0
5.0166,128.193712,37.920436,6658.1322768,-141.421,-39.136,132.61,1.0
5.0333,128.193744,37.920406,6655.1507232,-141.447,-39.27,132.502,1.0
5.05,128.193776,37.920377,6652.158196800001,-141.473,-39.404,132.394,1.0
5.0666,128.193808,37.920348,6649.154392800001,-141.498,-39.538,132.286,1.0
5.0833,128.193839,37.920319,6646.1396159999995,-141.523,-39.672,132.178,1.0
5.1,128.193871,37.92029,6643.1138664,-141.548,-39.806,132.07,1.0
5.1166,128.193903,37.920261,6640.0768392,-141.572,-39.94,131.962,1.0
5.1333,128.193935,37.920232,6637.0288392,-141.596,-40.075,131.853,1.0
5.15,128.193967,37.920203,6633.9698664,-141.618,-40.21,131.744,1.0
5.1666,128.193999,37.920174,6630.899616,-141.641,-40.345,131.634,1.0
5.1833,128.194031,37.920145,6627.818392800001,-141.662,-40.481,131.524,1.0
5.2,128.194063,37.920117,6624.7261968,-141.683,-40.617,131.414,1.0
5.2166,128.194095,37.920088,6621.623028000001,-141.703,-40.754,131.302,1.0
5.2333,128.194127,37.92006,6618.5085816,-141.723,-40.89,131.191,1.0
5.25,128.194159,37.920032,6615.3834672,-141.741,-41.027,131.078,1.0
5.2666,128.194191,37.920003,6612.2470752,-141.759,-41.165,130.965,1.0
5.2833,128.194223,37.919975,6609.099710400001,-141.776,-41.303,130.852,1.0
5.3,128.194255,37.919947,6605.9413728,-141.792,-41.441,130.738,1.0
5.3166,128.194287,37.919919,6602.7720624,-141.807,-41.579,130.624,1.0
5.3333,128.194319,37.919891,6599.591779200001,-141.821,-41.718,130.51,1.0
5.35,128.194351,37.919864,6596.4002184,-141.835,-41.856,130.395,1.0
5.3666,128.194383,37.919836,6593.1979896,-141.847,-41.995,130.279,1.0
5.3833,128.194415,37.919808,6589.984788000001,-141.858,-42.134,130.163,1.0
5.4,128.194448,37.919781,6586.7603088000005,-141.869,-42.274,130.047,1.0
5.4166,128.19448,37.919753,6583.5251616,-141.879,-42.413,129.93,1.0
5.4333,128.194512,37.919726,6580.279041600001,-141.888,-42.552,129.813,1.0
5.45,128.194544,37.919699,6577.021644,-141.896,-42.692,129.696,1.0
5.4666,128.194576,37.919672,6573.753578400001,-141.902,-42.832,129.578,1.0
5.4833,128.194609,37.919645,6570.47454,-141.908,-42.971,129.46,1.0
5.5,128.194641,37.919618,6567.1845288,-141.913,-43.111,129.341,1.0
5.5166,128.194673,37.919591,6563.8835448,-141.916,-43.251,129.222,1.0
5.5333,128.194705,37.919564,6560.571588000001,-141.919,-43.391,129.103,1.0
5.55,128.194738,37.919537,6557.248963200001,-141.921,-43.531,128.984,1.0
5.5666,128.19477,37.919511,6553.915060800001,-141.921,-43.671,128.863,1.0
5.5833,128.194802,37.919484,6550.5704904,-141.92,-43.811,128.743,1.0
5.6,128.194834,37.919458,6547.214947200001,-141.919,-43.951,128.622,1.0
5.6166,128.194867,37.919431,6543.8484312,-141.916,-44.092,128.501,1.0
5.6333,128.194899,37.919405,6540.471247200001,-141.912,-44.232,128.379,1.0
5.65,128.194931,37.919379,6537.0830904,-141.907,-44.372,128.257,1.0
5.6666,128.194964,37.919353,6533.683960800001,-141.9,-44.512,128.135,1.0
5.6833,128.194996,37.919327,6530.274163200001,-141.893,-44.652,128.012,1.0
5.7,128.195028,37.919301,6526.853392800001,-141.884,-44.793,127.889,1.0
5.7166,128.195061,37.919275,6523.4216496,-141.875,-44.933,127.765,1.0
5.7333,128.195093,37.919249,6519.979238400001,-141.863,-45.073,127.641,1.0
5.75,128.195125,37.919224,6516.5258544,-141.851,-45.213,127.516,1.0
5.7666,128.195158,37.919198,6513.0618024,-141.837,-45.353,127.391,1.0
5.7833,128.19519,37.919173,6509.5867776000005,-141.822,-45.493,127.266,1.0
5.8,128.195222,37.919147,6506.1010848,-141.806,-45.633,127.14,1.0
5.8166,128.195255,37.919122,6502.604419200001,-141.789,-45.774,127.014,1.0
5.8333,128.195287,37.919097,6499.0970856,-141.77,-45.914,126.887,1.0
5.85,128.19532,37.919072,6495.578779200001,-141.75,-46.054,126.759,1.0
5.8666,128.195352,37.919047,6492.0498048,-141.729,-46.194,126.631,1.0
5.8833,128.195384,37.919022,6488.5101624,-141.707,-46.334,126.503,1.0
5.9,128.195417,37.918997,6484.959852000001,-141.683,-46.474,126.374,1.0
5.9166,128.195449,37.918973,6481.3985688,-141.658,-46.613,126.245,1.0
5.9333,128.195481,37.918948,6477.8266176,-141.632,-46.753,126.115,1.0
5.95,128.195514,37.918924,6474.2439984,-141.604,-46.893,125.984,1.0
5.9666,128.195546,37.918899,6470.650711200001,-141.575,-47.033,125.853,1.0
5.9833,128.195579,37.918875,6467.046756000001,-141.545,-47.172,125.721,1.0
6.0,128.195611,37.918851,6463.431828000001,-141.514,-47.312,125.589,1.0
6.0166,128.195643,37.918827,6459.806536800001,-141.481,-47.452,125.457,1.0
6.0333,128.195676,37.918803,6456.1702728,-141.447,-47.591,125.323,1.0
6.05,128.195708,37.918779,6452.5236456,-141.411,-47.731,125.189,1.0
6.0666,128.195741,37.918755,6448.866350400001,-141.374,-47.87,125.055,1.0
6.0833,128.195773,37.918731,6445.1980824,-141.336,-48.009,124.919,1.0
6.1,128.195805,37.918708,6441.519451200001,-141.296,-48.149,124.784,1.0
6.1166,128.195838,37.918684,6437.830152,-141.255,-48.288,124.647,1.0
6.1333,128.19587,37.918661,6434.1301848,-141.213,-48.427,124.51,1.0
6.15,128.195902,37.918637,6430.4198544,-141.169,-48.566,124.372,1.0
6.1666,128.195935,37.918614,6426.698856000001,-141.124,-48.705,124.234,1.0
6.1833,128.195967,37.918591,6422.9671896,-141.077,-48.844,124.095,1.0
6.2,128.195999,37.918568,6419.2248552,-141.029,-48.983,123.955,1.0
6.2166,128.196032,37.918545,6415.4721576,-140.98,-49.121,123.815,1.0
6.2333,128.196064,37.918522,6411.7090968,-140.93,-49.26,123.673,1.0
6.25,128.196096,37.9185,6407.935368,-140.878,-49.399,123.532,1.0
6.2666,128.196129,37.918477,6404.1509712,-140.824,-49.537,123.389,1.0
6.2833,128.196161,37.918455,6400.356211200001,-140.77,-49.675,123.246,1.0
6.3,128.196193,37.918432,6396.551088000001,-140.713,-49.813,123.101,1.0
6.3166,128.196226,37.91841,6392.7352968000005,-140.656,-49.952,122.957,1.0
6.3333,128.196258,37.918388,6388.909447200001,-140.597,-50.09,122.811,1.0
6.35,128.19629,37.918365,6385.0729296,-140.537,-50.228,122.665,1.0
6.3666,128.196322,37.918343,6381.225744,-140.476,-50.365,122.517,1.0
6.3833,128.196355,37.918322,6377.3685000000005,-140.413,-50.503,122.369,1.0
6.4,128.196387,37.9183,6373.500892800001,-140.349,-50.641,122.221,1.0
6.4166,128.196419,37.918278,6369.6226176,-140.283,-50.778,122.071,1.0
6.4333,128.196451,37.918256,6365.734284000001,-140.216,-50.916,121.921,1.0
6.45,128.196483,37.918235,6361.8352824,-140.148,-51.053,121.769,1.0
6.4666,128.196516,37.918214,6357.9262224,-140.078,-51.19,121.617,1.0
6.4833,128.196548,37.918192,6354.0067992,-140.007,-51.327,121.464,1.0
6.5,128.19658,37.918171,6350.0773176,-139.934,-51.464,121.31,1.0
6.5166,128.196612,37.91815,6346.137168,-139.861,-51.601,121.156,1.0
6.5333,128.196644,37.918129,6342.186960000001,-139.785,-51.737,121.0,1.0
6.55,128.196676,37.918108,6338.2263888,-139.709,-51.874,120.844,1.0
6.5666,128.196709,37.918087,6334.2557592,-139.63,-52.01,120.686,1.0
6.5833,128.196741,37.918067,6330.2747664,-139.551,-52.146,120.528,1.0
6.6,128.196773,37.918046,6326.283715200001,-139.47,-52.282,120.368,1.0
6.6166,128.196805,37.918026,6322.2826056,-139.388,-52.418,120.208,1.0
6.6333,128.196837,37.918005,6318.2711328000005,-139.304,-52.554,120.047,1.0
6.65,128.196869,37.917985,6314.249296800001,-139.219,-52.69,119.885,1.0
6.6666,128.196901,37.917965,6310.2177071999995,-139.132,-52.825,119.721,1.0
6.6833,128.196933,37.917945,6306.1760592,-139.044,-52.96,119.557,1.0
6.7,128.196965,37.917925,6302.124048,-138.955,-53.096,119.392,1.0
6.7166,128.196997,37.917905,6298.061978400001,-138.864,-53.231,119.226,1.0
6.7333,128.197029,37.917886,6293.9901552,-138.772,-53.366,119.058,1.0
6.75,128.197061,37.917866,6289.9079688,-138.679,-53.5,118.89,1.0
6.7666,128.197093,37.917847,6285.816028800001,-138.583,-53.635,118.721,1.0
6.7833,128.197124,37.917827,6281.7140304,-138.487,-53.769,118.55,1.0
6.8,128.197156,37.917808,6277.601973600001,-138.389,-53.903,118.379,1.0
6.8166,128.197188,37.917789,6273.4801632,-138.289,-54.037,118.206,1.0
6.8333,128.19722,37.91777,6269.3482944,-138.188,-54.171,118.032,1.0
6.85,128.197252,37.917751,6265.2063672,-138.086,-54.305,117.858,1.0
6.8666,128.197283,37.917732,6261.054686400001,-137.982,-54.438,117.682,1.0
6.8833,128.197315,37.917713,6256.893252000001,-137.877,-54.571,117.504,1.0
6.9,128.197347,37.917695,6252.721759200001,-137.77,-54.705,117.326,1.0
6.9166,128.197379,37.917676,6248.5405128,-137.662,-54.838,117.147,1.0
6.9333,128.19741,37.917658,6244.3495128,-137.552,-54.97,116.966,1.0
6.95,128.197442,37.917639,6240.1484544,-137.441,-55.103,116.784,1.0
6.9666,128.197474,37.917621,6235.937947200001,-137.328,-55.235,116.601,1.0
6.9833,128.197505,37.917603,6231.7173816,-137.213,-55.367,116.417,1.0
7.0,128.197537,37.917585,6227.4873672,-137.097,-55.499,116.231,1.0
7.0166,128.197568,37.917567,6223.2475992,-136.979,-55.631,116.044,1.0
7.0333,128.1976,37.91755,6218.9980776,-136.86,-55.762,115.856,1.0
7.05,128.197631,37.917532,6214.7391072,-136.739,-55.893,115.667,1.0
7.0666,128.197663,37.917515,6210.470078400001,-136.617,-56.024,115.477,1.0
7.0833,128.197694,37.917497,6206.191905600001,-136.493,-56.155,115.285,1.0
7.1,128.197726,37.91748,6201.9036744,-136.368,-56.286,115.091,1.0
7.1166,128.197757,37.917463,6197.6062992,-136.241,-56.416,114.897,1.0
7.1333,128.197788,37.917446,6193.299170400001,-136.113,-56.546,114.701,1.0
7.15,128.19782,37.917429,6188.982592800001,-135.983,-56.676,114.504,1.0
7.1666,128.197851,37.917412,6184.6562616,-135.851,-56.806,114.305,1.0
7.1833,128.197882,37.917395,6180.3207864000005,-135.718,-56.935,114.105,1.0
7.2,128.197914,37.917379,6175.9755576,-135.583,-57.064,113.904,1.0
7.2166,128.197945,37.917362,6171.6211848,-135.446,-57.193,113.701,1.0
7.2333,128.197976,37.917346,6167.2570584000005,-135.308,-57.322,113.496,1.0
7.25,128.198007,37.917329,6162.883788000001,-135.168,-57.45,113.291,1.0
7.2666,128.198038,37.917313,6158.5010688,-135.027,-57.578,113.083,1.0
7.2833,128.198069,37.917297,6154.109205600001,-134.883,-57.706,112.875,1.0
7.3,128.198101,37.917281,6149.7078936,-134.738,-57.833,112.664,1.0
7.3166,128.198132,37.917266,6145.2971328,-134.591,-57.961,112.453,1.0
7.3333,128.198163,37.91725,6140.877228,-134.443,-58.088,112.239,1.0
7.35,128.198193,37.917234,6136.448179200001,-134.293,-58.215,112.025,1.0
7.3666,128.198224,37.917219,6132.0099864,-134.141,-58.341,111.808,1.0
7.3833,128.198255,37.917204,6127.562344800001,-133.988,-58.467,111.59,1.0
7.4,128.198286,37.917188,6123.1055592,-133.832,-58.593,111.371,1.0
7.4166,128.198317,37.917173,6118.6399344,-133.675,-58.719,111.15,1.0
7.4333,128.198348,37.917158,6114.1648608000005,-133.517,-58.844,110.927,1.0
7.45,128.198379,37.917144,6109.680948,-133.356,-58.969,110.703,1.0
7.4666,128.198409,37.917129,6105.1878912,-133.194,-59.093,110.477,1.0
7.4833,128.19844,37.917114,6100.685690400001,-133.03,-59.218,110.249,1.0
7.5,128.198471,37.9171,6096.1746504,-132.864,-59.342,110.019,1.0
7.5166,128.198501,37.917085,6091.6544664,-132.696,-59.465,109.788,1.0
7.5333,128.198532,37.917071,6087.1254432,-132.526,-59.589,109.555,1.0
7.55,128.198562,37.917057,6082.5875808,-132.354,-59.712,109.321,1.0
7.5666,128.198593,37.917043,6078.040879200001,-132.18,-59.834,109.084,1.0
7.5833,128.198623,37.917029,6073.485033600001,-132.005,-59.956,108.846,1.0
7.6,128.198654,37.917015,6068.9203488,-131.827,-60.078,108.606,1.0
7.6166,128.198684,37.917001,6064.3471296,-131.648,-60.2,108.364,1.0
7.6333,128.198714,37.916988,6059.7650711999995,-131.466,-60.321,108.121,1.0
7.65,128.198745,37.916975,6055.1741736,-131.283,-60.442,107.875,1.0
7.6666,128.198775,37.916961,6050.5744368000005,-131.097,-60.562,107.628,1.0
7.6833,128.198805,37.916948,6045.966165600001,-130.909,-60.683,107.379,1.0
7.7,128.198835,37.916935,6041.3490552,-130.72,-60.802,107.128,1.0
7.7166,128.198865,37.916922,6036.723410400001,-130.528,-60.921,106.875,1.0
7.7333,128.198895,37.916909,6032.0892312000005,-130.335,-61.04,106.62,1.0
7.75,128.198925,37.916896,6027.4462128000005,-130.139,-61.159,106.363,1.0
7.7666,128.198955,37.916884,6022.7949648,-129.941,-61.277,106.104,1.0
7.7833,128.198985,37.916871,6018.1348776,-129.742,-61.395,105.843,1.0
7.8,128.199015,37.916859,6013.4665608000005,-129.54,-61.512,105.581,1.0
7.8166,128.199045,37.916847,6008.789404800001,-129.336,-61.629,105.316,1.0
7.8333,128.199075,37.916835,6004.104324000001,-129.13,-61.745,105.049,1.0
7.85,128.199105,37.916823,5999.410404,-128.922,-61.861,104.78,1.0
7.8666,128.199134,37.916811,5994.7082544,-128.711,-61.977,104.509,1.0
7.8833,128.199164,37.916799,5989.9978752,-128.499,-62.092,104.235,1.0
7.9,128.199194,37.916788,5985.2789616,-128.284,-62.206,103.96,1.0
7.9166,128.199223,37.916776,5980.5521232,-128.067,-62.32,103.683,1.0
7.9333,128.199253,37.916765,5975.8167504,-127.848,-62.434,103.403,1.0
7.95,128.199282,37.916754,5971.0731479999995,-127.626,-62.547,103.121,1.0
7.9666,128.199312,37.916743,5966.321316,-127.402,-62.66,102.837,1.0
7.9833,128.199341,37.916732,5961.5615592,-127.176,-62.772,102.551,1.0
8.0,128.19937,37.916721,5956.7935728,-126.948,-62.884,102.263,1.0
8.0166,128.1994,37.91671,5952.017356800001,-126.717,-62.995,101.972,1.0
8.0333,128.199429,37.916699,5947.233216,-126.483,-63.105,101.679,1.0
8.05,128.199458,37.916689,5942.4408456,-126.248,-63.216,101.384,1.0
8.0666,128.199487,37.916679,5937.6408552,-126.01,-63.325,101.086,1.0
8.0833,128.199516,37.916668,5932.8326352,-125.769,-63.434,100.786,1.0
8.1,128.199545,37.916658,5928.0164904,-125.526,-63.543,100.484,1.0
8.1166,128.199574,37.916648,5923.1924208,-125.281,-63.651,100.179,1.0
8.1333,128.199603,37.916639,5918.3604264000005,-125.033,-63.758,99.872,1.0
8.15,128.199632,37.916629,5913.520812,-124.782,-63.865,99.563,1.0
8.1666,128.199661,37.916619,5908.673272800001,-124.53,-63.971,99.251,1.0
8.1833,128.19969,37.91661,5903.8181136,-124.274,-64.076,98.937,1.0
8.2,128.199719,37.9166,5898.9550296,-124.016,-64.181,98.62,1.0
8.2166,128.199747,37.916591,5894.0843256,-123.755,-64.286,98.301,1.0
8.2333,128.199776,37.916582,5889.2060016000005,-123.492,-64.39,97.979,1.0
8.25,128.199804,37.916573,5884.3200576,-123.227,-64.493,97.655,1.0
8.2666,128.199833,37.916564,5879.4264936,-122.959,-64.595,97.328,1.0
8.2833,128.199861,37.916556,5874.525309600001,-122.688,-64.697,96.999,1.0
8.3,128.19989,37.916547,5869.616505600001,-122.415,-64.798,96.667,1.0
8.3166,128.199918,37.916539,5864.700386400001,-122.139,-64.899,96.333,1.0
8.3333,128.199946,37.91653,5859.7766472,-121.861,-64.999,95.996,1.0
8.35,128.199974,37.916522,5854.8455928,-121.58,-65.098,95.657,1.0
8.3666,128.200003,37.916514,5849.907223200001,-121.296,-65.197,95.314,1.0
8.3833,128.200031,37.916506,5844.961538400001,-121.01,-65.294,94.97,1.0
8.4,128.200059,37.916499,5840.0082336000005,-120.721,-65.392,94.622,1.0
8.4166,128.200087,37.916491,5835.0479184000005,-120.429,-65.488,94.272,1.0
8.4333,128.200115,37.916483,5830.080288000001,-120.134,-65.584,93.919,1.0
8.45,128.200142,37.916476,5825.105647200001,-119.837,-65.679,93.564,1.0
8.4666,128.20017,37.916469,5820.1236912,-119.537,-65.773,93.206,1.0
8.4833,128.200198,37.916462,5815.13442,-119.234,-65.866,92.845,1.0
8.5,128.200226,37.916455,5810.138138400001,-118.929,-65.959,92.482,1.0
8.5166,128.200253,37.916448,5805.135151200001,-118.62,-66.051,92.115,1.0
8.5333,128.200281,37.916441,5800.1248488,-118.309,-66.142,91.746,1.0
8.55,128.200308,37.916434,5795.107536,-117.995,-66.232,91.375,1.0
8.5666,128.200336,37.916428,5790.0832128,-117.678,-66.321,91.0,1.0
8.5833,128.200363,37.916422,5785.052184000001,-117.359,-66.41,90.623,1.0
8.6,128.20039,37.916415,5780.0141448,-117.037,-66.498,90.243,1.0
8.6166,128.200418,37.916409,5774.9694,-116.711,-66.585,89.86,1.0
8.6333,128.200445,37.916403,5769.917949600001,-116.383,-66.671,89.474,1.0
8.65,128.200472,37.916398,5764.8594888,-116.053,-66.756,89.086,1.0
8.6666,128.200499,37.916392,5759.7943224,-115.719,-66.841,88.695,1.0
8.6833,128.200526,37.916386,5754.7227552,-115.383,-66.924,88.301,1.0
8.7,128.200553,37.916381,5749.6444824,-115.043,-67.007,87.904,1.0
8.7166,128.200579,37.916376,5744.559504,-114.701,-67.088,87.505,1.0
8.7333,128.200606,37.916371,5739.467820000001,-114.356,-67.169,87.102,1.0
8.75,128.200633,37.916366,5734.37004,-114.008,-67.249,86.697,1.0
8.7666,128.20066,37.916361,5729.2655544,-113.658,-67.328,86.289,1.0
8.7833,128.200686,37.916356,5724.1543632,-113.304,-67.406,85.878,1.0
8.8,128.200713,37.916351,5719.037076,-112.948,-67.482,85.465,1.0
8.8166,128.200739,37.916347,5713.913388000001,-112.589,-67.558,85.048,1.0
8.8333,128.200765,37.916342,5708.783604,-112.227,-67.633,84.629,1.0
8.85,128.200792,37.916338,5703.647114400001,-111.862,-67.707,84.207,1.0
8.8666,128.200818,37.916334,5698.504833600001,-111.494,-67.78,83.782,1.0
8.8833,128.200844,37.91633,5693.356152000001,-111.124,-67.852,83.355,1.0
8.9,128.20087,37.916326,5688.201069600001,-110.751,-67.923,82.925,1.0
8.9166,128.200896,37.916323,5683.040196000001,-110.375,-67.993,82.492,1.0
8.9333,128.200922,37.916319,5677.8732264,-109.996,-68.062,82.056,1.0
8.95,128.200948,37.916316,5672.700160800001,-109.615,-68.129,81.617,1.0
8.9666,128.200974,37.916313,5667.5209992,-109.231,-68.196,81.176,1.0
8.9833,128.200999,37.91631,5662.336046400001,-108.844,-68.261,80.732,1.0
9.0,128.201025,37.916307,5657.145302399999,-108.454,-68.326,80.286,1.0
9.0166,128.20105,37.916304,5651.9484624,-108.062,-68.389,79.837,1.0
9.0333,128.201076,37.916301,5646.746136,-107.667,-68.451,79.385,1.0
9.05,128.201101,37.916298,5641.537713600001,-107.27,-68.512,78.93,1.0
9.0666,128.201127,37.916296,5636.3238048,-106.87,-68.572,78.473,1.0
9.0833,128.201152,37.916294,5631.104104800001,-106.467,-68.631,78.014,1.0
9.1,128.201177,37.916292,5625.8786136,-106.062,-68.688,77.552,1.0
9.1166,128.201202,37.916289,5620.647636000001,-105.654,-68.744,77.087,1.0
9.1333,128.201227,37.916288,5615.411172,-105.244,-68.799,76.62,1.0
9.15,128.201252,37.916286,5610.1692216,-104.831,-68.853,76.15,1.0
9.1666,128.201277,37.916284,5604.9217848,-104.416,-68.906,75.678,1.0
9.1833,128.201302,37.916283,5599.6688616,-103.998,-68.957,75.204,1.0
9.2,128.201326,37.916281,5594.410452000001,-103.578,-69.008,74.727,1.0
9.2166,128.201351,37.91628,5589.1468608000005,-103.155,-69.056,74.248,1.0
9.2333,128.201375,37.916279,5583.878088,-102.731,-69.104,73.766,1.0
9.25,128.2014,37.916278,5578.603828800001,-102.304,-69.151,73.283,1.0
9.2666,128.201424,37.916277,5573.324388000001,-101.875,-69.196,72.797,1.0
9.2833,128.201449,37.916277,5568.040070400001,-101.443,-69.239,72.309,1.0
9.3,128.201473,37.916276,5562.7505712,-101.01,-69.282,71.819,1.0
9.3166,128.201497,37.916276,5557.4558904000005,-100.574,-69.323,71.326,1.0
9.3333,128.201521,37.916276,5552.156028,-100.137,-69.363,70.832,1.0
9.35,128.201545,37.916276,5546.851593599999,-99.697,-69.401,70.336,1.0
9.3666,128.201569,37.916276,5541.541977600001,-99.255,-69.438,69.837,1.0
9.3833,128.201593,37.916276,5536.2274848,-98.811,-69.474,69.337,1.0
9.4,128.201616,37.916276,5530.908420000001,-98.366,-69.509,68.835,1.0
9.4166,128.20164,37.916277,5525.5841736,-97.918,-69.542,68.332,1.0
9.4333,128.201664,37.916277,5520.255355200001,-97.469,-69.573,67.826,1.0
9.45,128.201687,37.916278,5514.921964800001,-97.018,-69.603,67.319,1.0
9.4666,128.20171,37.916279,5509.5840024,-96.566,-69.632,66.811,1.0
9.4833,128.201734,37.91628,5504.2411632,-96.112,-69.66,66.3,1.0
9.5,128.201757,37.916281,5498.894056800001,-95.656,-69.686,65.789,1.0
9.5166,128.20178,37.916282,5493.5423784,-95.199,-69.71,65.275,1.0
9.5333,128.201803,37.916284,5488.186128,-94.741,-69.733,64.761,1.0
9.55,128.201826,37.916285,5482.8256104,-94.281,-69.755,64.245,1.0
9.5666,128.201849,37.916287,5477.460520799999,-93.821,-69.775,63.728,1.0
9.5833,128.201872,37.916289,5472.091164,-93.359,-69.794,63.21,1.0
9.6,128.201894,37.916291,5466.7178448,-92.896,-69.812,62.69,1.0
9.6166,128.201917,37.916293,5461.3399536,-92.432,-69.828,62.17,1.0
9.6333,128.201939,37.916296,5455.9581,-91.966,-69.842,61.648,1.0
9.65,128.201962,37.916298,5450.572284000001,-91.5,-69.855,61.126,1.0
9.6666,128.201984,37.916301,5445.182200800001,-91.034,-69.866,60.603,1.0
9.6833,128.202006,37.916303,5439.788155200001,-90.566,-69.876,60.079,1.0
9.7,128.202028,37.916306,5434.390147200001,-90.098,-69.885,59.555,1.0
9.7166,128.20205,37.916309,5428.9881768000005,-89.629,-69.892,59.03,1.0
9.7333,128.202072,37.916312,5423.5825488,-89.16,-69.897,58.504,1.0
9.75,128.202094,37.916316,5418.1729584,-88.69,-69.902,57.978,1.0
9.7666,128.202116,37.916319,5412.759710400001,-88.22,-69.904,57.452,1.0
9.7833,128.202138,37.916323,5407.342500000001,-87.75,-69.905,56.925,1.0
9.8,128.202159,37.916326,5401.9219368,-87.279,-69.905,56.399,1.0
9.8166,128.202181,37.91633,5396.497716,-86.809,-69.903,55.872,1.0
9.8333,128.202202,37.916334,5391.069837600001,-86.338,-69.899,55.345,1.0
9.85,128.202223,37.916338,5385.638606400001,-85.867,-69.894,54.818,1.0
9.8666,128.202244,37.916343,5380.2037176,-85.396,-69.888,54.291,1.0
9.8833,128.202265,37.916347,5374.765476,-84.926,-69.88,53.764,1.0
9.9,128.202286,37.916352,5369.3238816,-84.456,-69.87,53.238,1.0
9.9166,128.202307,37.916356,5363.8792392,-83.985,-69.859,52.711,1.0
9.9333,128.202328,37.916361,5358.431244,-83.516,-69.847,52.185,1.0
9.95,128.202349,37.916366,5352.979896000001,-83.047,-69.833,51.66,1.0
9.9666,128.202369,37.916371,5347.525500000001,-82.578,-69.817,51.135,1.0
9.9833,128.20239,37.916377,5342.068056000001,-82.11,-69.8,50.611,1.0
10.0,128.20241,37.916382,5336.607564,-81.643,-69.782,50.087,1.0
10.0166,128.202431,37.916388,5331.144024,-81.176,-69.762,49.564,1.0
10.0333,128.202451,37.916393,5325.6777408,-80.71,-69.74,49.042,1.0
10.05,128.202471,37.916399,5320.208409600001,-80.246,-69.717,48.52,1.0
10.0666,128.202491,37.916405,5314.7363352,-79.782,-69.693,48.0,1.0
10.0833,128.202511,37.916411,5309.2615176,-79.319,-69.667,47.481,1.0
10.1,128.202531,37.916418,5303.783956800001,-78.857,-69.639,46.962,1.0
10.1166,128.20255,37.916424,5298.3036528,-78.396,-69.61,46.445,1.0
10.1333,128.20257,37.916431,5292.820910400001,-77.937,-69.58,45.929,1.0
10.15,128.202589,37.916437,5287.3357295999995,-77.479,-69.548,45.414,1.0
10.1666,128.202609,37.916444,5281.8478056,-77.022,-69.514,44.901,1.0
10.1833,128.202628,37.916451,5276.3574432,-76.567,-69.48,44.389,1.0
10.2,128.202647,37.916458,5270.864947200001,-76.113,-69.443,43.878,1.0
10.2166,128.202666,37.916466,5265.3700128,-75.66,-69.406,43.369,1.0
10.2333,128.202685,37.916473,5259.87264,-75.209,-69.367,42.861,1.0
10.25,128.202704,37.916481,5254.373133600001,-74.76,-69.326,42.355,1.0
10.2666,128.202723,37.916488,5248.8714936,-74.312,-69.284,41.851,1.0
10.2833,128.202742,37.916496,5243.367720000001,-73.866,-69.24,41.348,1.0
10.3,128.20276,37.916504,5237.8621176,-73.422,-69.196,40.848,1.0
10.3166,128.202779,37.916512,5232.3543816,-72.98,-69.149,40.349,1.0
10.3333,128.202797,37.916521,5226.844512,-72.539,-69.102,39.852,1.0
10.35,128.202815,37.916529,5221.3328136,-72.101,-69.053,39.357,1.0
10.3666,128.202833,37.916538,5215.8195912,-71.664,-69.002,38.863,1.0
10.3833,128.202851,37.916546,5210.3042352,-71.23,-68.95,38.372,1.0
10.4,128.202869,37.916555,5204.7873552,-70.797,-68.897,37.883,1.0
10.4166,128.202887,37.916564,5199.268951200001,-70.367,-68.843,37.396,1.0
10.4333,128.202905,37.916573,5193.7487184,-69.939,-68.787,36.912,1.0
10.45,128.202922,37.916583,5188.226961599999,-69.514,-68.73,36.429,1.0
10.4666,128.20294,37.916592,5182.7039856,-69.09,-68.671,35.949,1.0
10.4833,128.202957,37.916602,5177.1791808,-68.669,-68.611,35.471,1.0
10.5,128.202974,37.916611,5171.6534616,-68.25,-68.55,34.995,1.0
10.5166,128.202991,37.916621,5166.1259136,-67.834,-68.488,34.522,1.0
10.5333,128.203008,37.916631,5160.5974512,-67.42,-68.424,34.051,1.0
10.55,128.203025,37.916642,5155.0677696,-67.008,-68.359,33.582,1.0
10.5666,128.203042,37.916652,5149.536868800001,-66.599,-68.292,33.116,1.0
10.5833,128.203059,37.916662,5144.0050536,-66.193,-68.225,32.652,1.0
10.6,128.203075,37.916673,5138.4720192,-65.789,-68.156,32.191,1.0
10.6166,128.203092,37.916684,5132.9380704000005,-65.388,-68.086,31.733,1.0
10.6333,128.203108,37.916695,5127.4032072,-64.989,-68.015,31.276,1.0
10.65,128.203124,37.916706,5121.8674296,-64.593,-67.942,30.823,1.0
10.6666,128.20314,37.916717,5116.331042400001,-64.199,-67.868,30.372,1.0
10.6833,128.203156,37.916728,5110.794045600001,-63.808,-67.793,29.924,1.0
10.7,128.203172,37.91674,5105.2561344,-63.42,-67.717,29.478,1.0
10.7166,128.203188,37.916751,5099.7176136,-63.035,-67.64,29.035,1.0
10.7333,128.203204,37.916763,5094.1784832,-62.652,-67.561,28.594,1.0
10.75,128.203219,37.916775,5088.639048,-62.272,-67.482,28.157,1.0
10.7666,128.203235,37.916787,5083.0990032,-61.895,-67.401,27.722,1.0
10.7833,128.20325,37.916799,5077.5589584,-61.52,-67.319,27.289,1.0
10.8,128.203265,37.916811,5072.018304,-61.148,-67.236,26.86,1.0
10.8166,128.20328,37.916824,5066.4773448000005,-60.779,-67.152,26.433,1.0
10.8333,128.203295,37.916836,5060.9363856,-60.412,-67.066,26.008,1.0
10.85,128.20331,37.916849,5055.3951216,-60.048,-66.98,25.587,1.0
10.8666,128.203325,37.916862,5049.8538576,-59.688,-66.892,25.168,1.0
10.8833,128.203339,37.916875,5044.3125936,-59.329,-66.804,24.752,1.0
10.9,128.203354,37.916888,5038.771329599999,-58.974,-66.714,24.339,1.0
10.9166,128.203368,37.916902,5033.2303704000005,-58.622,-66.623,23.929,1.0
10.9333,128.203382,37.916915,5027.689411200001,-58.272,-66.532,23.521,1.0
10.95,128.203396,37.916929,5022.148452,-57.925,-66.439,23.116,1.0
10.9666,128.20341,37.916942,5016.6081024,-57.581,-66.345,22.714,1.0
10.9833,128.203424,37.916956,5011.0680575999995,-57.24,-66.251,22.315,1.0
11.0,128.203438,37.91697,5005.5283176,-56.902,-66.155,21.919,1.0
11.0166,128.203451,37.916985,4999.989187200001,-56.567,-66.058,21.526,1.0
11.0333,128.203465,37.916999,4994.4506664,-56.234,-65.961,21.135,1.0
11.05,128.203478,37.917013,4988.9124504,-55.905,-65.862,20.747,1.0
11.0666,128.203491,37.917028,4983.375148800001,-55.578,-65.763,20.362,1.0
11.0833,128.203505,37.917043,4977.8384568,-55.254,-65.662,19.979,1.0
11.1,128.203518,37.917058,4972.3026792,-54.933,-65.561,19.6,1.0
11.1166,128.20353,37.917073,4966.767511200001,-54.615,-65.459,19.223,1.0
11.1333,128.203543,37.917088,4961.233562400001,-54.3,-65.355,18.849,1.0
11.15,128.203556,37.917103,4955.7002232,-53.987,-65.251,18.478,1.0
11.1666,128.203568,37.917119,4950.168103200001,-53.677,-65.146,18.109,1.0
11.1833,128.203581,37.917134,4944.6368976,-53.369,-65.041,17.743,1.0
11.2,128.203593,37.91715,4939.1069112000005,-53.064,-64.934,17.38,1.0
11.2166,128.203605,37.917166,4933.578448800001,-52.762,-64.826,17.019,1.0
11.2333,128.203617,37.917182,4928.050900800001,-52.462,-64.718,16.662,1.0
11.25,128.203629,37.917198,4922.524572,-52.164,-64.608,16.307,1.0
11.2666,128.20364,37.917214,4917.000072,-51.868,-64.498,15.955,1.0
11.2833,128.203652,37.917231,4911.4764864,-51.574,-64.387,15.605,1.0
11.3,128.203663,37.917248,4905.9547296,-51.283,-64.275,15.258,1.0
11.3166,128.203675,37.917264,4900.4344968,-50.993,-64.162,14.914,1.0
11.3333,128.203686,37.917281,4894.9160928,-50.705,-64.049,14.573,1.0
11.35,128.203697,37.917298,4889.398908,-50.418,-63.934,14.235,1.0
11.3666,128.203708,37.917315,4883.8838568,-50.131,-63.818,13.899,1.0
11.3833,128.203719,37.917333,4878.3703296,-49.845,-63.702,13.567,1.0
11.4,128.20373,37.91735,4872.8589360000005,-49.561,-63.585,13.236,1.0
11.4166,128.20374,37.917368,4867.349371200001,-49.277,-63.467,12.909,1.0
11.4333,128.20375,37.917385,4861.8416352,-48.992,-63.348,12.585,1.0
11.45,128.203761,37.917403,4856.336032800001,-48.704,-63.228,12.264,1.0
11.4666,128.203771,37.917421,4850.832564,-48.415,-63.107,11.947,1.0
11.4833,128.203781,37.917439,4845.3312288,-48.124,-62.985,11.633,1.0
11.5,128.203791,37.917458,4839.8320272,-47.832,-62.863,11.32,1.0
11.5166,128.203801,37.917476,4834.335264,-47.539,-62.74,11.01,1.0
11.5333,128.20381,37.917495,4828.840329600001,-47.239,-62.616,10.705,1.0
11.55,128.20382,37.917513,4823.348138400001,-46.931,-62.489,10.405,1.0
11.5666,128.203829,37.917532,4817.8580808,-46.616,-62.362,10.109,1.0
11.5833,128.203838,37.917551,4812.3707664,-46.294,-62.235,9.814,1.0
11.6,128.203848,37.91757,4806.8858904,-45.967,-62.107,9.523,1.0
11.6166,128.203857,37.91759,4801.4037576,-45.637,-61.978,9.233,1.0
11.6333,128.203865,37.917609,4795.9237584,-45.294,-61.848,8.949,1.0
11.65,128.203874,37.917629,4790.4468072,-44.938,-61.716,8.671,1.0
11.6666,128.203883,37.917648,4784.9722944,-44.572,-61.583,8.397,1.0
11.6833,128.203891,37.917668,4779.5011344,-44.196,-61.45,8.126,1.0
11.7,128.2039,37.917688,4774.0327176,-43.812,-61.316,7.857,1.0
11.7166,128.203908,37.917708,4768.5673488,-43.422,-61.182,7.591,1.0
11.7333,128.203916,37.917728,4763.1044184,-43.007,-61.045,7.332,1.0
11.75,128.203924,37.917749,4757.644536,-42.567,-60.906,7.083,1.0
11.7666,128.203932,37.917769,4752.1877016,-42.106,-60.765,6.839,1.0
11.7833,128.203939,37.91779,4746.73422,-41.624,-60.624,6.598,1.0
11.8,128.203947,37.91781,4741.284396,-41.125,-60.482,6.359,1.0
11.8166,128.203955,37.917831,4735.8379248,-40.615,-60.341,6.122,1.0
11.8333,128.203962,37.917852,4730.393892,-40.058,-60.197,5.896,1.0
11.85,128.203969,37.917873,4724.953212,-39.461,-60.048,5.683,1.0
11.8666,128.203976,37.917895,4719.51558,-38.826,-59.898,5.478,1.0
11.8833,128.203983,37.917916,4714.0819104,-38.156,-59.748,5.276,1.0
11.9,128.20399,37.917938,4708.6522032,-37.458,-59.598,5.076,1.0
11.9166,128.203997,37.917959,4703.2261536,-36.739,-59.449,4.878,1.0
11.9333,128.204004,37.917981,4697.8052856,-36.024,-59.3,4.682,1.0
11.95,128.20401,37.918003,4692.3886848,-35.318,-59.151,4.489,1.0
11.9666,128.204016,37.918025,4686.976656,-34.625,-59.001,4.301,1.0
11.9833,128.204023,37.918048,4681.569504,-33.946,-58.849,4.12,1.0
12.0,128.204029,37.91807,4676.166924,-33.28,-58.695,3.946,1.0
12.0166,128.204035,37.918093,4670.769525600001,-32.624,-58.539,3.778,1.0
12.0333,128.204041,37.918115,4665.3779184,-32.002,-58.383,3.61,1.0
12.05,128.204047,37.918138,4659.9924072,-31.412,-58.227,3.441,1.0
12.0666,128.204053,37.918161,4654.612382400001,-30.851,-58.07,3.274,1.0
12.0833,128.204058,37.918185,4649.237844,-30.32,-57.91,3.114,1.0
12.1,128.204064,37.918208,4643.868792,-29.813,-57.749,2.96,1.0
12.1166,128.204069,37.918231,4638.5055312,-29.325,-57.585,2.812,1.0
12.1333,128.204074,37.918255,4633.1495856,-28.87,-57.42,2.665,1.0
12.15,128.204079,37.918279,4627.7994312,-28.444,-57.255,2.516,1.0
12.1666,128.204085,37.918303,4622.4556776,-28.043,-57.089,2.368,1.0
12.1833,128.20409,37.918327,4617.11802,-27.667,-56.921,2.225,1.0
12.2,128.204094,37.918351,4611.7867632,-27.311,-56.752,2.087,1.0
12.2166,128.204099,37.918375,4606.4619072000005,-26.97,-56.581,1.953,1.0
12.2333,128.204104,37.9184,4601.144671200001,-26.653,-56.41,1.819,1.0
12.25,128.204108,37.918425,4595.8335312,-26.355,-56.238,1.685,1.0
12.2666,128.204113,37.91845,4590.5294016,-26.074,-56.065,1.552,1.0
12.2833,128.204117,37.918475,4585.2322824,-25.809,-55.892,1.422,1.0
12.3,128.204121,37.9185,4579.941564000001,-25.557,-55.717,1.296,1.0
12.3166,128.204125,37.918525,4574.6581608,-25.315,-55.542,1.172,1.0
12.3333,128.20413,37.918551,4569.3820728,-25.087,-55.366,1.049,1.0
12.35,128.204133,37.918576,4564.1129952,-24.871,-55.189,0.926,1.0
12.3666,128.204137,37.918602,4558.851232800001,-24.665,-55.013,0.803,1.0
12.3833,128.204141,37.918628,4553.5967856,-24.469,-54.836,0.683,1.0
12.4,128.204145,37.918654,4548.3496536,-24.281,-54.658,0.565,1.0
12.4166,128.204148,37.91868,4543.1098368,-24.098,-54.48,0.449,1.0
12.4333,128.204152,37.918707,4537.8779448000005,-23.924,-54.302,0.334,1.0
12.45,128.204155,37.918733,4532.6536728,-23.756,-54.123,0.219,1.0
12.4666,128.204158,37.91876,4527.436716,-23.593,-53.944,0.105,1.0
12.4833,128.204161,37.918787,4522.227684,-23.435,-53.765,359.992,1.0
12.5,128.204165,37.918814,4517.026272,-23.282,-53.585,359.881,1.0
12.5166,128.204168,37.918841,4511.833089600001,-23.132,-53.405,359.772,1.0
12.5333,128.20417,37.918868,4506.6475272,-22.986,-53.225,359.663,1.0
12.55,128.204173,37.918895,4501.4701944,-22.843,-53.045,359.555,1.0
12.5666,128.204176,37.918923,4496.3010912,-22.704,-52.865,359.448,1.0
12.5833,128.204178,37.918951,4491.1399128,-22.567,-52.684,359.341,1.0
12.6,128.204181,37.918979,4485.986964000001,-22.433,-52.503,359.236,1.0
12.6166,128.204183,37.919007,4480.8425496,-22.301,-52.322,359.132,1.0
12.6333,128.204186,37.919035,4475.7066696,-22.172,-52.141,359.029,1.0
12.65,128.204188,37.919063,4470.5790192,-22.048,-51.96,358.925,1.0
12.6666,128.20419,37.919092,4465.4602079999995,-21.927,-51.779,358.823,1.0
12.6833,128.204192,37.91912,4460.3496264,-21.809,-51.598,358.721,1.0
12.7,128.204194,37.919149,4455.2481888,-21.695,-51.416,358.62,1.0
12.7166,128.204196,37.919178,4450.1552856,-21.583,-51.235,358.521,1.0
12.7333,128.204197,37.919207,4445.0718312,-21.476,-51.053,358.421,1.0
12.75,128.204199,37.919236,4439.9969112,-21.374,-50.871,358.32,1.0
12.7666,128.204201,37.919266,4434.9311352,-21.277,-50.69,358.22,1.0
12.7833,128.204202,37.919295,4429.874808,-21.186,-50.508,358.121,1.0
12.8,128.204203,37.919325,4424.82732,-21.099,-50.326,358.023,1.0
12.8166,128.204205,37.919355,4419.788976000001,-21.015,-50.144,357.926,1.0
12.8333,128.204206,37.919385,4414.7603856,-20.935,-49.961,357.829,1.0
12.85,128.204207,37.919415,4409.7409392,-20.858,-49.779,357.732,1.0
12.8666,128.204208,37.919445,4404.730941600001,-20.783,-49.597,357.635,1.0
12.8833,128.204209,37.919475,4399.7303928,-20.711,-49.414,357.539,1.0
12.9,128.20421,37.919506,4394.7395976,-20.641,-49.231,357.444,1.0
12.9166,128.20421,37.919537,4389.758556,-20.573,-49.049,357.349,1.0
12.9333,128.204211,37.919567,4384.7869632,-20.506,-48.866,357.254,1.0
12.95,128.204212,37.919598,4379.8254288,-20.44,-48.683,357.158,1.0
12.9666,128.204212,37.919629,4374.873648000001,-20.376,-48.501,357.063,1.0
12.9833,128.204212,37.919661,4369.9316208,-20.313,-48.318,356.968,1.0
13.0,128.204212,37.919692,4364.9999568,-20.253,-48.135,356.874,1.0
13.0166,128.204213,37.919724,4360.078046400001,-20.194,-47.952,356.781,1.0
13.0333,128.204213,37.919755,4355.1671088,-20.143,-47.77,356.685,1.0
13.0499,128.204213,37.919787,4350.2662296,-20.098,-47.588,356.588,1.0
13.0666,128.204212,37.919819,4345.3757136,-20.061,-47.406,356.49,1.0
13.0833,128.204212,37.919851,4340.4958656,-20.032,-47.224,356.392,1.0
13.1,128.204212,37.919884,4335.6263808,-20.011,-47.041,356.297,1.0
13.1166,128.204211,37.919916,4330.7672592,-19.995,-46.858,356.202,1.0
13.1333,128.204211,37.919949,4325.9206344,-20.0,-46.679,356.09,1.0
13.15,128.20421,37.919981,4321.085592,-20.022,-46.504,355.96,1.0
13.1666,128.20421,37.920014,4316.2618272,-20.076,-46.331,355.823,1.0
13.1833,128.204209,37.920047,4311.44934,-20.169,-46.156,355.689,1.0
13.2,128.204208,37.92008,4306.648130400001,-20.302,-45.98,355.561,1.0
13.2166,128.204207,37.920114,4301.8581984,-20.463,-45.802,355.438,1.0
13.2333,128.204206,37.920147,4297.081068,-20.701,-45.626,355.307,1.0
13.25,128.204204,37.920181,4292.3167392000005,-21.004,-45.451,355.165,1.0
13.2666,128.204203,37.920214,4287.565212,-21.365,-45.277,355.018,1.0
13.2833,128.204202,37.920248,4282.824962400001,-21.778,-45.102,354.873,1.0
13.3,128.2042,37.920282,4278.0966,-22.234,-44.926,354.731,1.0
13.3166,128.204198,37.920316,4273.37982,-22.72,-44.749,354.591,1.0
13.3333,128.204196,37.920351,4268.6740128,-23.19,-44.57,354.456,1.0
13.35,128.204194,37.920385,4263.9785688,-23.636,-44.389,354.323,1.0
13.3666,128.204192,37.920419,4259.2940976,-24.055,-44.21,354.188,1.0
13.3833,128.20419,37.920454,4254.6212088,-24.446,-44.031,354.047,1.0
13.4,128.204188,37.920489,4249.958988,-24.817,-43.855,353.902,1.0
13.4166,128.204186,37.920524,4245.3083496,-25.174,-43.68,353.752,1.0
13.4333,128.204183,37.920559,4240.6674648,-25.504,-43.506,353.602,1.0
13.45,128.20418,37.920594,4236.0378576,-25.811,-43.332,353.455,1.0
13.4666,128.204178,37.920629,4231.419528,-26.099,-43.158,353.307,1.0
13.4833,128.204175,37.920665,4226.8118664,-26.371,-42.985,353.157,1.0
13.5,128.204172,37.9207,4222.215787200001,-26.628,-42.814,353.005,1.0
13.5166,128.204169,37.920736,4217.6309856,-26.876,-42.644,352.85,1.0
13.5333,128.204165,37.920772,4213.0559376,-27.1,-42.474,352.696,1.0
13.55,128.204162,37.920807,4208.492472,-27.303,-42.305,352.544,1.0
13.5666,128.204159,37.920843,4203.9399792,-27.489,-42.135,352.392,1.0
13.5833,128.204155,37.92088,4199.398459200001,-27.659,-41.967,352.239,1.0
13.6,128.204151,37.920916,4194.8685216,-27.817,-41.799,352.083,1.0
13.6166,128.204147,37.920952,4190.349861600001,-27.966,-41.633,351.927,1.0
13.6333,128.204143,37.920989,4185.8421744,-28.104,-41.467,351.77,1.0
13.65,128.204139,37.921025,4181.3457648,-28.232,-41.301,351.614,1.0
13.6666,128.204135,37.921062,4176.8609376,-28.354,-41.136,351.458,1.0
13.6833,128.20413,37.921099,4172.3876928,-28.469,-40.971,351.302,1.0
13.7,128.204126,37.921136,4167.9257256,-28.58,-40.807,351.145,1.0
13.7166,128.204121,37.921173,4163.4756456000005,-28.689,-40.643,350.988,1.0
13.7333,128.204116,37.92121,4159.0368432000005,-28.794,-40.479,350.83,1.0
13.75,128.204111,37.921247,4154.609928000001,-28.898,-40.316,350.672,1.0
13.7666,128.204106,37.921284,4150.194595200001,-29.002,-40.154,350.514,1.0
13.7833,128.204101,37.921322,4145.7908448,-29.106,-39.991,350.355,1.0
13.8,128.204095,37.921359,4141.3992864,-29.21,-39.829,350.197,1.0
13.8166,128.20409,37.921397,4137.0193104,-29.314,-39.666,350.039,1.0
13.8333,128.204084,37.921435,4132.6509168,-29.416,-39.504,349.881,1.0
13.85,128.204078,37.921473,4128.2944104,-29.514,-39.342,349.723,1.0
13.8666,128.204072,37.921511,4123.9500960000005,-29.611,-39.181,349.565,1.0
13.8833,128.204066,37.921549,4119.617364000001,-29.705,-39.019,349.406,1.0
13.9,128.20406,37.921587,4115.296824,-29.799,-38.858,349.248,1.0
13.9166,128.204053,37.921625,4110.988171200001,-29.892,-38.697,349.089,1.0
13.9333,128.204046,37.921664,4106.691100800001,-29.98,-38.536,348.931,1.0
13.95,128.20404,37.921702,4102.4059176,-30.063,-38.375,348.774,1.0
13.9666,128.204033,37.921741,4098.1329264,-30.141,-38.215,348.616,1.0
13.9833,128.204026,37.92178,4093.8721272000003,-30.215,-38.054,348.459,1.0
14.0,128.204019,37.921818,4089.62352,-30.287,-37.894,348.301,1.0
14.0166,128.204011,37.921857,4085.3868,-30.357,-37.734,348.143,1.0
14.0333,128.204004,37.921896,4081.162272,-30.421,-37.574,347.985,1.0
14.05,128.203996,37.921935,4076.9496312,-30.48,-37.415,347.828,1.0
14.0666,128.203988,37.921975,4072.7494872,-30.534,-37.255,347.672,1.0
14.0833,128.20398,37.922014,4068.5612304000006,-30.585,-37.095,347.515,1.0
14.1,128.203972,37.922053,4064.3857752000004,-30.633,-36.936,347.359,1.0
14.1166,128.203964,37.922093,4060.2225120000003,-30.679,-36.777,347.202,1.0
14.1333,128.203955,37.922132,4056.071136,-30.721,-36.618,347.046,1.0
14.15,128.203947,37.922172,4051.9325616,-30.759,-36.459,346.891,1.0
14.1666,128.203938,37.922212,4047.8061792000003,-30.795,-36.3,346.735,1.0
14.1833,128.203929,37.922252,4043.6922936,-30.828,-36.141,346.58,1.0
14.2,128.20392,37.922292,4039.5912096,-30.859,-35.982,346.425,1.0
14.2166,128.203911,37.922332,4035.5026224000003,-30.889,-35.824,346.27,1.0
14.2333,128.203901,37.922372,4031.4262272,-30.916,-35.665,346.116,1.0
14.25,128.203892,37.922412,4027.3629384,-30.941,-35.507,345.962,1.0
14.2666,128.203882,37.922452,4023.3118416,-30.963,-35.348,345.809,1.0
14.2833,128.203872,37.922493,4019.2738512,-30.984,-35.189,345.655,1.0
