Time,Longitude,Latitude,Altitude,Roll (deg),Pitch (deg),Yaw (deg),Health
0.0,128.181881,37.923646,7000.146528,0.0,-0.003,0.0,1.0
0.0166,128.181881,37.923691,7000.1605488000005,0.0,-0.012,0.0,1.0
0.0333,128.181881,37.923736,7000.173960000001,0.0,-0.025,0.0,1.0
0.05,128.181881,37.923781,7000.186152000001,0.0,-0.04,359.999,1.0
0.0666,128.181881,37.923826,7000.1977344,0.0,-0.055,359.999,1.0
0.0833,128.181881,37.923871,7000.2084024,0.0,-0.071,0.0,1.0
0.1,128.181881,37.923916,7000.218156000001,0.0,-0.086,0.0,1.0
0.1166,128.181881,37.923961,7000.226995200001,0.0,-0.101,0.0,1.0
0.1333,128.181881,37.924006,7000.235224800001,0.0,-0.113,0.0,1.0
0.15,128.181881,37.924051,7000.24254,0.0,-0.124,0.0,1.0
0.1666,128.181881,37.924096,7000.248636,0.0,-0.133,0.0,1.0
0.1833,128.181881,37.924141,7000.2544272000005,0.0,-0.141,0.0,1.0
0.2,128.181881,37.924186,7000.2589992,0.0,-0.146,0.0,1.0
0.2166,128.181881,37.924231,7000.2629615999995,0.0,-0.15,0.0,1.0
0.2333,128.181881,37.924276,7000.266009600001,0.0,-0.153,0.0,1.0
0.25,128.181881,37.924321,7000.268448,0.0,-0.154,0.0,1.0
0.2666,128.181881,37.924366,7000.2696672,0.0,-0.155,0.0,1.0
0.2833,128.181881,37.924411,7000.270581600001,0.0,-0.155,0.0,1.0
0.3,128.181881,37.924456,7000.270581600001,0.0,-0.154,0.0,1.0
0.3166,128.181881,37.924501,7000.2696672,0.0,-0.152,0.0,1.0
0.3333,128.181881,37.924546,7000.2681432,0.0,-0.151,0.0,1.0
0.35,128.181881,37.924591,7000.266009600001,0.001,-0.15,0.0,1.0
0.3666,128.181881,37.924636,7000.2629615999995,0.001,-0.148,0.0,1.0
0.3833,128.181881,37.924682,7000.259304,0.001,-0.147,0.0,1.0
0.4,128.181881,37.924727,7000.2550368,0.001,-0.146,0.0,1.0
0.4166,128.181881,37.924772,7000.249855200001,0.001,-0.145,0.0,1.0
0.4333,128.181881,37.924817,7000.244064,0.001,-0.144,0.0,1.0
0.45,128.181881,37.924862,7000.2376632000005,0.001,-0.144,0.0,1.0
0.4666,128.181881,37.924907,7000.2306528,0.001,-0.144,0.0,1.0
0.4833,128.181881,37.924952,7000.2230328000005,0.001,-0.144,0.0,1.0
0.5,128.181881,37.924998,7000.2148032000005,0.002,-0.144,0.0,1.0
0.5166,128.181881,37.925043,7000.205659200001,0.002,-0.144,0.0,1.0
0.5333,128.181881,37.925088,7000.1962104,0.002,-0.144,0.0,1.0
0.55,128.181881,37.925133,7000.186152000001,0.002,-0.145,0.0,1.0
0.5666,128.181881,37.925179,7000.175484000001,0.002,-0.145,0.0,1.0
0.5833,128.181881,37.925224,7000.164206400001,0.002,-0.146,0.0,1.0
0.6,128.181881,37.925269,7000.1523192,0.003,-0.147,0.0,1.0
0.6166,128.181881,37.925314,7000.1398224,0.003,-0.147,0.0,1.0
0.6333,128.181881,37.92536,7000.126716,0.003,-0.148,0.0,1.0
0.65,128.181881,37.925405,7000.1133048,0.003,-0.149,0.0,1.0
0.6666,128.181881,37.92545,7000.098979200001,0.003,-0.149,0.0,1.0
0.6833,128.181881,37.925495,7000.0843488,0.004,-0.15,0.0,1.0
0.7,128.181881,37.925541,7000.0691088,0.004,-0.15,0.0,1.0
0.7166,128.181881,37.925586,7000.053564000001,0.004,-0.15,0.0,1.0
0.7333,128.181881,37.925631,7000.0374096000005,0.004,-0.15,0.0,1.0
0.75,128.181881,37.925677,7000.0206456000005,0.004,-0.151,0.0,1.0
0.7666,128.181881,37.925722,7000.0035768,0.005,-0.151,0.001,1.0
0.7833,128.181881,37.925767,6999.9858984,0.005,-0.151,0.001,1.0
0.8,128.181881,37.925813,6999.967610400001,0.005,-0.151,0.001,1.0
0.8166,128.181881,37.925858,6999.9490176,0.005,-0.151,0.001,1.0
0.8333,128.181881,37.925903,6999.930120000001,0.006,-0.151,0.001,1.0
0.85,128.181881,37.925949,6999.9106128,0.006,-0.151,0.001,1.0
0.8666,128.181881,37.925994,6999.890496000001,0.006,-0.152,0.001,1.0
0.8833,128.181881,37.92604,6999.870074400001,0.006,-0.152,0.001,1.0
0.9,128.181881,37.926085,6999.849348,0.007,-0.152,0.001,1.0
0.9166,128.181881,37.92613,6999.828012,0.007,-0.152,0.001,1.0
0.9333,128.181881,37.926176,6999.8063712,0.007,-0.152,0.001,1.0
0.95,128.181881,37.926221,6999.7841208,0.008,-0.152,0.0,1.0
0.9666,128.181881,37.926267,6999.761565600001,0.008,-0.152,0.0,1.0
0.9833,128.181881,37.926312,6999.738705600001,0.008,-0.152,0.0,1.0
1.0,128.181881,37.926358,6999.7155408,0.009,-0.152,0.0,1.0
1.0166,128.181881,37.926403,6999.6917664,0.009,-0.151,0.0,1.0
1.0333,128.181881,37.926449,6999.667687200001,0.009,-0.151,0.0,1.0
1.05,128.181881,37.926494,6999.6433032,0.009,-0.151,0.0,1.0
1.0666,128.181881,37.92654,6999.6186144,0.01,-0.151,0.001,1.0
1.0833,128.181881,37.926585,6999.5933159999995,0.01,-0.151,0.001,1.0
1.1,128.181881,37.926631,6999.5680176000005,0.01,-0.15,0.001,1.0
1.1166,128.181881,37.926676,6999.542109600001,0.011,-0.15,0.001,1.0
1.1333,128.181881,37.926722,6999.5158968000005,0.011,-0.15,0.001,1.0
1.15,128.181881,37.926767,6999.489379200001,0.011,-0.15,0.001,1.0
1.1666,128.181881,37.926813,6999.462556800001,0.012,-0.15,0.001,1.0
1.1833,128.181881,37.926858,6999.4354296,0.012,-0.15,0.001,1.0
1.2,128.181881,37.926904,6999.407997600001,0.012,-0.15,0.001,1.0
1.2166,128.181881,37.926949,6999.3802608000005,0.013,-0.149,0.001,1.0
1.2333,128.181881,37.926995,6999.352219200001,0.013,-0.149,0.001,1.0
1.25,128.181881,37.927041,6999.323568000001,0.014,-0.149,0.0,1.0
1.2666,128.181881,37.927086,6999.2949168000005,0.014,-0.149,0.0,1.0
1.2833,128.181881,37.927132,6999.2659608,0.014,-0.149,0.0,1.0
1.3,128.181881,37.927177,6999.2367,0.015,-0.149,0.0,1.0
1.3166,128.181881,37.927223,6999.2074391999995,0.015,-0.148,0.0,1.0
1.3333,128.181881,37.927269,6999.177568800001,0.016,-0.148,0.001,1.0
1.35,128.181881,37.927314,6999.1473936,0.016,-0.148,0.001,1.0
1.3666,128.181881,37.92736,6999.117218400001,0.016,-0.148,0.001,1.0
1.3833,128.181881,37.927406,6999.086738400001,0.017,-0.147,0.001,1.0
1.4,128.181881,37.927451,6999.0556488,0.017,-0.147,0.001,1.0
1.4166,128.181881,37.927497,6999.024864000001,0.018,-0.147,0.001,1.0
1.4333,128.181881,37.927543,6998.993469600001,0.018,-0.146,0.001,1.0
1.45,128.181881,37.927588,6998.961770400001,0.019,-0.146,0.001,1.0
1.4666,128.181881,37.927634,6998.9300712,0.019,-0.146,0.001,1.0
1.4833,128.181881,37.92768,6998.8980672,0.02,-0.146,0.001,1.0
1.5,128.181881,37.927726,6998.8660632,0.02,-0.145,0.001,1.0
1.5166,128.181881,37.927771,6998.833449600001,0.021,-0.145,0.001,1.0
1.5333,128.181881,37.927817,6998.800836,0.021,-0.145,0.001,1.0
1.55,128.181881,37.927863,6998.7682224,0.022,-0.145,0.001,1.0
1.5666,128.181881,37.927909,6998.7349992,0.022,-0.144,0.001,1.0
1.5833,128.181881,37.927955,6998.701776,0.023,-0.144,0.001,1.0
1.6,128.181881,37.928,6998.668248,0.023,-0.144,0.001,1.0
1.6166,128.181881,37.928046,6998.634720000001,0.024,-0.144,0.001,1.0
1.6333,128.181881,37.928092,6998.6008872,0.024,-0.143,0.001,1.0
1.65,128.181881,37.928138,6998.5670544,0.025,-0.143,0.001,1.0
1.6666,128.181881,37.928184,6998.5329168,0.025,-0.143,0.001,1.0
1.6833,128.181881,37.928229,6998.498474400001,0.026,-0.142,0.001,1.0
1.7,128.181881,37.928275,6998.464032000001,0.026,-0.142,0.001,1.0
1.7166,128.181881,37.928321,6998.4292848,0.027,-0.142,0.001,1.0
1.7333,128.181881,37.928367,6998.394537600001,0.027,-0.141,0.001,1.0
1.75,128.181881,37.928413,6998.3594856,0.028,-0.141,0.001,1.0
1.7666,128.181881,37.928459,6998.324433600001,0.029,-0.141,0.001,1.0
1.7833,128.181881,37.928505,6998.289076800001,0.029,-0.14,0.001,1.0
1.8,128.181881,37.928551,6998.253720000001,0.03,-0.14,0.001,1.0
1.8166,128.181881,37.928596,6998.2180584,0.03,-0.14,0.001,1.0
1.8333,128.181881,37.928642,6998.182396800001,0.031,-0.14,0.001,1.0
1.85,128.181881,37.928688,6998.1464304,0.032,-0.139,0.001,1.0
1.8666,128.181881,37.928734,6998.110464,0.032,-0.139,0.001,1.0
1.8833,128.181881,37.92878,6998.074192800001,0.033,-0.139,0.001,1.0
1.9,128.181881,37.928826,6998.0379216,0.033,-0.138,0.001,1.0
1.9166,128.181881,37.928872,6998.0016504000005,0.034,-0.138,0.001,1.0
1.9333,128.181881,37.928918,6997.965379200001,0.035,-0.138,0.001,1.0
1.95,128.181881,37.928964,6997.9284984,0.035,-0.137,0.001,1.0
1.9666,128.181881,37.92901,6997.8919224,0.036,-0.137,0.001,1.0
1.9833,128.181881,37.929056,6997.855041600001,0.037,-0.137,0.001,1.0
2.0,128.181881,37.929102,6997.8181608,0.037,-0.136,0.001,1.0
2.0166,128.181881,37.929148,6997.78128,0.038,-0.136,0.001,1.0
2.0333,128.181881,37.929194,6997.7440944,0.039,-0.136,0.001,1.0
2.05,128.181881,37.92924,6997.7069088,0.039,-0.136,0.001,1.0
2.0666,128.181881,37.929286,6997.669418400001,0.04,-0.136,0.001,1.0
2.0833,128.181881,37.929332,6997.631928000001,0.041,-0.137,0.001,1.0
2.1,128.181881,37.929379,6997.594437600001,0.041,-0.138,0.001,1.0
2.1166,128.181881,37.929425,6997.556947200001,0.042,-0.138,0.001,1.0
2.1333,128.181881,37.929471,6997.519152000001,0.043,-0.14,0.001,1.0
2.15,128.181881,37.929517,6997.481356800001,0.043,-0.141,0.001,1.0
2.1666,128.181881,37.929563,6997.4435616,0.044,-0.142,0.001,1.0
2.1833,128.181881,37.929609,6997.4054616,0.045,-0.143,0.001,1.0
2.2,128.181882,37.929655,6997.3673616,0.046,-0.145,0.001,1.0
2.2166,128.181882,37.929701,6997.3292616,0.046,-0.146,0.001,1.0
2.2333,128.181882,37.929748,6997.290856800001,0.047,-0.147,0.001,1.0
2.25,128.181882,37.929794,6997.2527568000005,0.048,-0.149,0.001,1.0
2.2666,128.181882,37.92984,6997.214352000001,0.049,-0.15,0.001,1.0
2.2833,128.181882,37.929886,6997.1756424000005,0.049,-0.152,0.001,1.0
2.3,128.181882,37.929932,6997.137237600001,0.05,-0.153,0.001,1.0
2.3166,128.181882,37.929978,6997.098528,0.051,-0.154,0.001,1.0
2.3333,128.181882,37.930025,6997.0595136,0.052,-0.155,0.001,1.0
2.35,128.181882,37.930071,6997.020804,0.052,-0.157,0.001,1.0
2.3666,128.181882,37.930117,6996.9817896,0.053,-0.158,0.001,1.0
2.3833,128.181882,37.930163,6996.9427752,0.054,-0.159,0.001,1.0
2.4,128.181882,37.93021,6996.903760800001,0.055,-0.16,0.001,1.0
2.4166,128.181882,37.930256,6996.864441600001,0.056,-0.161,0.001,1.0
2.4333,128.181882,37.930302,6996.8251224000005,0.056,-0.162,0.001,1.0
2.45,128.181882,37.930348,6996.7858032,0.057,-0.163,0.001,1.0
2.4666,128.181882,37.930395,6996.746484000001,0.058,-0.164,0.002,1.0
2.4833,128.181882,37.930441,6996.70686,0.059,-0.165,0.002,1.0
2.5,128.181882,37.930487,6996.6675408,0.06,-0.166,0.002,1.0
2.5166,128.181882,37.930534,6996.627612,0.061,-0.167,0.002,1.0
2.5333,128.181882,37.93058,6996.587988000001,0.061,-0.168,0.002,1.0
2.55,128.181882,37.930626,6996.548364,0.062,-0.169,0.002,1.0
2.5666,128.181882,37.930673,6996.5084352,0.063,-0.17,0.002,1.0
2.5833,128.181882,37.930719,6996.4685064000005,0.064,-0.171,0.002,1.0
2.6,128.181882,37.930765,6996.428577600001,0.065,-0.172,0.002,1.0
2.6166,128.181882,37.930812,6996.388344,0.066,-0.173,0.002,1.0
2.6333,128.181882,37.930858,6996.3481104,0.066,-0.174,0.002,1.0
2.65,128.181882,37.930905,6996.3078768000005,0.067,-0.175,0.001,1.0
2.6666,128.181882,37.930951,6996.2676432,0.068,-0.176,0.001,1.0
2.6833,128.181882,37.930997,6996.2274096,0.069,-0.177,0.001,1.0
2.7,128.181882,37.931044,6996.1868712,0.069,-0.178,0.001,1.0
2.7166,128.181882,37.93109,6996.146332800001,0.07,-0.179,0.001,1.0
2.7333,128.181882,37.931137,6996.1057944,0.071,-0.18,0.001,1.0
2.75,128.181882,37.931183,6996.065256000001,0.072,-0.181,0.001,1.0
2.7666,128.181882,37.93123,6996.0247176,0.073,-0.181,0.002,1.0
2.7833,128.181882,37.931276,6995.983874400001,0.074,-0.182,0.002,1.0
2.8,128.181882,37.931323,6995.9430312,0.075,-0.182,0.002,1.0
2.8166,128.181882,37.931369,6995.902188000001,0.075,-0.183,0.002,1.0
2.8333,128.181882,37.931416,6995.861344800001,0.076,-0.184,0.002,1.0
2.85,128.181882,37.931462,6995.820501600001,0.077,-0.185,0.002,1.0
2.8666,128.181882,37.931509,6995.7793536,0.078,-0.185,0.002,1.0
2.8833,128.181882,37.931555,6995.738205600001,0.079,-0.186,0.002,1.0
2.9,128.181882,37.931602,6995.6973624,0.08,-0.187,0.002,1.0
2.9166,128.181882,37.931648,6995.6559096,0.081,-0.188,0.002,1.0
2.9333,128.181882,37.931695,6995.6147616,0.082,-0.188,0.002,1.0
2.95,128.181882,37.931742,6995.5736136000005,0.083,-0.189,0.001,1.0
2.9666,128.181882,37.931788,6995.5321608,0.084,-0.19,0.001,1.0
2.9833,128.181882,37.931835,6995.490708,0.085,-0.191,0.001,1.0
3.0,128.181882,37.931881,6995.449560000001,0.086,-0.191,0.001,1.0
3.0166,128.181882,37.931928,6995.4081072,0.087,-0.192,0.002,1.0
3.0333,128.181882,37.931975,6995.3663496,0.088,-0.193,0.002,1.0
3.05,128.181882,37.932021,6995.324896800001,0.088,-0.193,0.002,1.0
3.0666,128.181882,37.932068,6995.283444,0.089,-0.194,0.002,1.0
3.0833,128.181882,37.932115,6995.241686400001,0.09,-0.194,0.002,1.0
3.1,128.181882,37.932161,6995.199928800001,0.091,-0.195,0.002,1.0
3.1166,128.181882,37.932208,6995.1581712,0.092,-0.195,0.002,1.0
3.1333,128.181882,37.932255,6995.116413600001,0.094,-0.196,0.002,1.0
3.15,128.181882,37.932301,6995.074656000001,0.095,-0.197,0.002,1.0
3.1666,128.181882,37.932348,6995.0328984,0.096,-0.197,0.002,1.0
3.1833,128.181882,37.932395,6994.990836,0.097,-0.198,0.002,1.0
3.2,128.181882,37.932442,6994.949078400001,0.098,-0.199,0.002,1.0
3.2166,128.181882,37.932488,6994.907016,0.099,-0.199,0.002,1.0
3.2333,128.181882,37.932535,6994.8652584,0.1,-0.2,0.002,1.0
3.25,128.181882,37.932582,6994.823196,0.101,-0.201,0.002,1.0
3.2666,128.181882,37.932629,6994.7811336,0.102,-0.201,0.002,1.0
3.2833,128.181882,37.932675,6994.7390712,0.103,-0.202,0.002,1.0
3.3,128.181882,37.932722,6994.697008800001,0.104,-0.202,0.002,1.0
3.3166,128.181882,37.932769,6994.6546416,0.105,-0.203,0.002,1.0
3.3333,128.181882,37.932816,6994.612579200001,0.106,-0.204,0.002,1.0
3.35,128.181882,37.932863,6994.570212,0.107,-0.204,0.002,1.0
3.3666,128.181882,37.93291,6994.528149600001,0.108,-0.205,0.002,1.0
3.3833,128.181883,37.932956,6994.4857824,0.109,-0.205,0.002,1.0
3.4,128.181883,37.933003,6994.443720000001,0.11,-0.206,0.002,1.0
3.4166,128.181883,37.93305,6994.4013528,0.111,-0.206,0.002,1.0
3.4333,128.181883,37.933097,6994.3589856,0.113,-0.207,0.002,1.0
3.45,128.181883,37.933144,6994.3166184,0.114,-0.207,0.002,1.0
3.4666,128.181883,37.933191,6994.2742512,0.115,-0.208,0.002,1.0
3.4833,128.181883,37.933238,6994.231884000001,0.116,-0.208,0.002,1.0
3.5,128.181883,37.933285,6994.189212,0.117,-0.209,0.002,1.0
3.5166,128.181883,37.933332,6994.1468448000005,0.118,-0.209,0.002,1.0
3.5333,128.181883,37.933379,6994.104477600001,0.119,-0.21,0.002,1.0
3.55,128.181883,37.933425,6994.0618056,0.121,-0.21,0.002,1.0
3.5666,128.181883,37.933472,6994.019438400001,0.122,-0.211,0.002,1.0
3.5833,128.181883,37.933519,6993.9767664,0.123,-0.212,0.002,1.0
3.6,128.181883,37.933566,6993.9343992,0.124,-0.212,0.002,1.0
3.6166,128.181883,37.933613,6993.891727200001,0.125,-0.213,0.002,1.0
3.6333,128.181883,37.93366,6993.8490552,0.126,-0.213,0.002,1.0
3.65,128.181883,37.933707,6993.806688000001,0.128,-0.214,0.002,1.0
3.6666,128.181883,37.933754,6993.764016,0.129,-0.215,0.002,1.0
3.6833,128.181883,37.933802,6993.721344,0.13,-0.215,0.002,1.0
3.7,128.181883,37.933849,6993.678672,0.131,-0.216,0.002,1.0
3.7166,128.181883,37.933896,6993.636,0.133,-0.217,0.002,1.0
3.7333,128.181883,37.933943,6993.593328000001,0.134,-0.217,0.002,1.0
3.75,128.181883,37.93399,6993.550656,0.135,-0.218,0.002,1.0
3.7666,128.181883,37.934037,6993.507679200001,0.136,-0.219,0.002,1.0
3.7833,128.181883,37.934084,6993.4650071999995,0.138,-0.219,0.002,1.0
3.8,128.181883,37.934131,6993.4223352,0.139,-0.22,0.002,1.0
3.8166,128.181883,37.934178,6993.3796632,0.14,-0.221,0.002,1.0
3.8333,128.181883,37.934225,6993.3366864,0.141,-0.222,0.002,1.0
3.85,128.181883,37.934273,6993.2940144,0.143,-0.222,0.002,1.0
3.8666,128.181883,37.93432,6993.251342400001,0.144,-0.223,0.002,1.0
3.8833,128.181883,37.934367,6993.2083656,0.145,-0.224,0.002,1.0
3.9,128.181883,37.934414,6993.1656936,0.147,-0.224,0.002,1.0
3.9166,128.181883,37.934461,6993.1227168,0.148,-0.225,0.002,1.0
3.9333,128.181883,37.934508,6993.0800448,0.149,-0.226,0.002,1.0
3.95,128.181883,37.934556,6993.0370680000005,0.151,-0.227,0.002,1.0
3.9666,128.181883,37.934603,6992.9940912,0.152,-0.227,0.002,1.0
3.9833,128.181883,37.93465,6992.951419200001,0.153,-0.228,0.002,1.0
4.0,128.181883,37.934697,6992.908442400001,0.155,-0.229,0.002,1.0
4.0166,128.181883,37.934745,6992.865465600001,0.156,-0.23,0.002,1.0
4.0333,128.181883,37.934792,6992.8224887999995,0.157,-0.23,0.003,1.0
4.05,128.181883,37.934839,6992.7801216,0.153,-0.232,0.002,1.0
4.0666,128.181883,37.934886,6992.7377544,0.143,-0.235,0.0,1.0
4.0833,128.181883,37.934934,6992.6953872,0.127,-0.239,359.998,1.0
4.1,128.181883,37.934981,6992.6533248000005,0.106,-0.243,359.996,1.0
4.1166,128.181883,37.935028,6992.6109576,0.082,-0.248,359.994,1.0
4.1333,128.181883,37.935076,6992.5688952,0.055,-0.251,359.991,1.0
4.15,128.181883,37.935123,6992.526528,0.027,-0.255,359.99,1.0
4.1666,128.181883,37.93517,6992.4844656000005,0.0,-0.257,359.988,1.0
4.1833,128.181883,37.935218,6992.4420984,-0.026,-0.259,359.987,1.0
4.2,128.181883,37.935265,6992.3997312,-0.05,-0.26,359.986,1.0
4.2166,128.181884,37.935313,6992.357364,-0.073,-0.261,359.985,1.0
4.2333,128.181884,37.93536,6992.314692000001,-0.094,-0.26,359.984,1.0
4.25,128.181884,37.935407,6992.272020000001,-0.113,-0.26,359.983,1.0
4.2666,128.181884,37.935455,6992.229348,-0.129,-0.259,359.983,1.0
4.2833,128.181884,37.935502,6992.186676,-0.144,-0.258,359.982,1.0
4.3,128.181884,37.93555,6992.144004,-0.158,-0.257,359.981,1.0
4.3166,128.181884,37.935597,6992.101332,-0.169,-0.256,359.98,1.0
4.3333,128.181884,37.935645,6992.058355200001,-0.18,-0.255,359.98,1.0
4.35,128.181884,37.935692,6992.0156832,-0.189,-0.254,359.979,1.0
4.3666,128.181884,37.93574,6991.972706400001,-0.198,-0.254,359.978,1.0
4.3833,128.181884,37.935787,6991.9297295999995,-0.205,-0.254,359.977,1.0
4.4,128.181884,37.935835,6991.8867528,-0.211,-0.254,359.976,1.0
4.4166,128.181884,37.935882,6991.843776,-0.217,-0.254,359.976,1.0
4.4333,128.181884,37.93593,6991.8007992,-0.222,-0.254,359.975,1.0
4.45,128.181884,37.935977,6991.7578224,-0.226,-0.255,359.975,1.0
4.4666,128.181884,37.936025,6991.7148456,-0.23,-0.255,359.974,1.0
4.4833,128.181884,37.936072,6991.6718688,-0.233,-0.256,359.974,1.0
4.5,128.181884,37.93612,6991.628587200001,-0.235,-0.256,359.973,1.0
4.5166,128.181884,37.936167,6991.5856104,-0.237,-0.257,359.973,1.0
4.5333,128.181884,37.936215,6991.542633600001,-0.239,-0.257,359.973,1.0
4.55,128.181884,37.936263,6991.499352000001,-0.24,-0.258,359.972,1.0
4.5666,128.181884,37.93631,6991.4563751999995,-0.24,-0.259,359.972,1.0
4.5833,128.181884,37.936358,6991.4130936,-0.24,-0.26,359.972,1.0
4.6,128.181884,37.936406,6991.3701168,-0.24,-0.26,359.972,1.0
4.6166,128.181884,37.936453,6991.3268352000005,-0.24,-0.261,359.972,1.0
4.6333,128.181884,37.936501,6991.2835536,-0.24,-0.262,359.972,1.0
4.65,128.181884,37.936549,6991.2405768,-0.239,-0.263,359.972,1.0
4.6666,128.181884,37.936596,6991.197295200001,-0.238,-0.264,359.972,1.0
4.6833,128.181884,37.936644,6991.1543184,-0.237,-0.264,359.971,1.0
4.7,128.181884,37.936692,6991.111036800001,-0.236,-0.265,359.971,1.0
4.7166,128.181884,37.936739,6991.067755200001,-0.235,-0.266,359.971,1.0
4.7333,128.181884,37.936787,6991.0247784,-0.234,-0.267,359.971,1.0
4.75,128.181884,37.936835,6990.981496800001,-0.233,-0.268,359.971,1.0
4.7666,128.181884,37.936883,6990.938215200001,-0.232,-0.269,359.971,1.0
4.7833,128.181884,37.93693,6990.895238400001,-0.231,-0.271,359.971,1.0
4.8,128.181884,37.936978,6990.851956800001,-0.23,-0.272,359.971,1.0
4.8166,128.181884,37.937026,6990.8086752,-0.229,-0.273,359.971,1.0
4.8333,128.181884,37.937074,6990.7653936,-0.228,-0.274,359.971,1.0
4.85,128.181884,37.937122,6990.7224168,-0.227,-0.275,359.971,1.0
4.8666,128.181884,37.937169,6990.6791352,-0.226,-0.276,359.97,1.0
4.8833,128.181884,37.937217,6990.6358536,-0.225,-0.277,359.97,1.0
4.9,128.181884,37.937265,6990.5925720000005,-0.225,-0.278,359.97,1.0
4.9166,128.181884,37.937313,6990.5492904,-0.224,-0.279,359.97,1.0
4.9333,128.181884,37.937361,6990.506313600001,-0.223,-0.281,359.97,1.0
4.95,128.181884,37.937409,6990.463032000001,-0.223,-0.282,359.97,1.0
4.9666,128.181884,37.937457,6990.4197504,-0.222,-0.283,359.97,1.0
4.9833,128.181884,37.937504,6990.3764688,-0.222,-0.284,359.969,1.0
5.0,128.181884,37.937552,6990.333187200001,-0.221,-0.285,359.969,1.0
5.0166,128.181884,37.9376,6990.289905600001,-0.221,-0.286,359.969,1.0
5.0333,128.181884,37.937648,6990.246624,-0.221,-0.287,359.969,1.0
5.05,128.181884,37.937696,6990.203342400001,-0.221,-0.288,359.969,1.0
5.0666,128.181884,37.937744,6990.160060800001,-0.221,-0.289,359.968,1.0
5.0833,128.181884,37.937792,6990.116779200001,-0.221,-0.29,359.968,1.0
5.1,128.181885,37.93784,6990.073497600001,-0.22,-0.292,359.968,1.0
5.1166,128.181885,37.937888,6990.029911200001,-0.22,-0.293,359.968,1.0
5.1333,128.181885,37.937936,6989.9866296,-0.22,-0.294,359.968,1.0
5.15,128.181885,37.937984,6989.943348,-0.22,-0.295,359.967,1.0
5.1666,128.181885,37.938032,6989.9000664,-0.221,-0.296,359.967,1.0
5.1833,128.181885,37.93808,6989.8564799999995,-0.221,-0.297,359.967,1.0
5.2,128.181885,37.938128,6989.813808,-0.221,-0.283,359.967,1.0
5.2166,128.181885,37.938176,6989.7714408,-0.222,-0.237,359.968,1.0
5.2333,128.181885,37.938224,6989.730292800001,-0.222,-0.146,359.969,1.0
5.25,128.181885,37.938272,6989.690973600001,-0.223,0.004,359.97,1.0
5.2666,128.181885,37.938321,6989.653483200001,-0.223,0.225,359.971,1.0
5.2833,128.181885,37.938369,6989.6190408,-0.222,0.523,359.971,1.0
5.3,128.181885,37.938417,6989.588560800001,-0.222,0.904,359.972,1.0
5.3166,128.181885,37.938465,6989.561433600001,-0.22,1.353,359.972,1.0
5.3333,128.181885,37.938513,6989.538878400001,-0.219,1.855,359.972,1.0
5.35,128.181885,37.938561,6989.5212,-0.218,2.394,359.972,1.0
5.3666,128.181885,37.938609,6989.5093128,-0.216,2.948,359.971,1.0
5.3833,128.181885,37.938657,6989.5038264,-0.215,3.497,359.971,1.0
5.4,128.181885,37.938705,6989.504436,-0.213,4.022,359.971,1.0
5.4166,128.181885,37.938754,6989.5120560000005,-0.212,4.503,359.971,1.0
5.4333,128.181885,37.938802,6989.527296,-0.21,4.938,359.972,1.0
5.45,128.181885,37.93885,6989.550156000001,-0.209,5.331,359.973,1.0
5.4666,128.181885,37.938898,6989.5818552,-0.208,5.69,359.973,1.0
5.4833,128.181885,37.938946,6989.621784000001,-0.207,6.02,359.974,1.0
5.5,128.181885,37.938994,6989.670856800001,-0.206,6.325,359.975,1.0
5.5166,128.181885,37.939043,6989.7293784,-0.205,6.61,359.977,1.0
5.5333,128.181885,37.939091,6989.797044,-0.204,6.876,359.978,1.0
5.55,128.181885,37.939139,6989.874768000001,-0.203,7.127,359.979,1.0
5.5666,128.181885,37.939187,6989.961940800001,-0.203,7.364,359.981,1.0
5.5833,128.181885,37.939235,6990.0594768,-0.202,7.589,359.982,1.0
5.6,128.181885,37.939283,6990.1667664,-0.201,7.803,359.984,1.0
5.6166,128.181885,37.939332,6990.284724000001,-0.2,8.007,359.985,1.0
5.6333,128.181885,37.93938,6990.41274,-0.2,8.203,359.987,1.0
5.65,128.181885,37.939428,6990.551424,-0.199,8.391,359.988,1.0
5.6666,128.181885,37.939476,6990.700776,-0.198,8.572,359.989,1.0
5.6833,128.181885,37.939524,6990.8604912,-0.198,8.748,359.991,1.0
5.7,128.181885,37.939572,6991.031179200001,-0.197,8.917,359.992,1.0
5.7166,128.181885,37.939621,6991.2125352,-0.197,9.082,359.993,1.0
5.7333,128.181885,37.939669,6991.404864,-0.196,9.242,359.995,1.0
5.75,128.181885,37.939717,6991.607860800001,-0.196,9.397,359.996,1.0
5.7666,128.181885,37.939765,6991.8218304,-0.196,9.548,359.997,1.0
5.7833,128.181885,37.939813,6992.0467728,-0.196,9.696,359.999,1.0
5.8,128.181885,37.939861,6992.282688000001,-0.196,9.84,0.0,1.0
5.8166,128.181885,37.939909,6992.5298808,-0.196,9.982,0.001,1.0
5.8333,128.181885,37.939957,6992.7877416,-0.196,10.121,0.002,1.0
5.85,128.181885,37.940005,6993.05688,-0.196,10.257,0.003,1.0
5.8666,128.181885,37.940053,6993.336991200001,-0.197,10.391,0.005,1.0
5.8833,128.181885,37.940102,6993.62838,-0.197,10.524,0.006,1.0
5.9,128.181885,37.94015,6993.9307416,-0.198,10.655,0.007,1.0
5.9166,128.181885,37.940198,6994.244076,-0.198,10.784,0.008,1.0
5.9333,128.181885,37.940246,6994.568688000001,-0.199,10.912,0.009,1.0
5.95,128.181885,37.940294,6994.9042728,-0.2,11.039,0.01,1.0
5.9666,128.181885,37.940342,6995.2511352,-0.2,11.165,0.011,1.0
5.9833,128.181885,37.94039,6995.6089704000005,-0.201,11.291,0.012,1.0
6.0,128.181885,37.940438,6995.978083200001,-0.202,11.415,0.013,1.0
6.0166,128.181885,37.940486,6996.3581688,-0.203,11.539,0.014,1.0
6.0333,128.181885,37.940534,6996.749532000001,-0.204,11.662,0.015,1.0
6.05,128.181885,37.940582,6997.151868,-0.206,11.785,0.016,1.0
6.0666,128.181885,37.94063,6997.5651768,-0.207,11.907,0.017,1.0
6.0833,128.181885,37.940678,6997.9897632,-0.208,12.029,0.018,1.0
6.1,128.181885,37.940725,6998.4256272,-0.21,12.151,0.019,1.0
6.1166,128.181885,37.940773,6998.872464,-0.211,12.273,0.02,1.0
6.1333,128.181885,37.940821,6999.3302736000005,-0.213,12.394,0.021,1.0
6.15,128.181885,37.940869,6999.799056000001,-0.215,12.515,0.022,1.0
6.1666,128.181885,37.940917,7000.279116,-0.216,12.635,0.022,1.0
6.1833,128.181885,37.940965,7000.7704536,-0.218,12.756,0.023,1.0
6.2,128.181885,37.941013,7001.2724592,-0.22,12.876,0.024,1.0
6.2166,128.181885,37.941061,7001.7857424,-0.222,12.997,0.025,1.0
6.2333,128.181885,37.941108,7002.3099984,-0.224,13.117,0.026,1.0
6.25,128.181885,37.941156,7002.845532,-0.226,13.237,0.026,1.0
6.2666,128.181885,37.941204,7003.3917336,-0.229,13.357,0.027,1.0
6.2833,128.181885,37.941252,7003.9492128,-0.231,13.477,0.028,1.0
6.3,128.181885,37.941299,7004.517664800001,-0.233,13.596,0.029,1.0
6.3166,128.181885,37.941347,7005.0970896,-0.236,13.716,0.03,1.0
6.3333,128.181885,37.941395,7005.687487200001,-0.238,13.836,0.03,1.0
6.35,128.181885,37.941443,7006.2891624,-0.241,13.955,0.031,1.0
6.3666,128.181885,37.94149,7006.901505600001,-0.243,14.075,0.032,1.0
6.3833,128.181885,37.941538,7007.5248216,-0.246,14.194,0.033,1.0
6.4,128.181885,37.941586,7008.159415200001,-0.249,14.314,0.033,1.0
6.4166,128.181885,37.941633,7008.8046768,-0.252,14.433,0.034,1.0
6.4333,128.181885,37.941681,7009.460911200001,-0.255,14.552,0.035,1.0
6.45,128.181885,37.941728,7010.128423200001,-0.258,14.672,0.036,1.0
6.4666,128.181884,37.941776,7010.8066032,-0.261,14.791,0.036,1.0
6.4833,128.181884,37.941823,7011.495756,-0.264,14.91,0.037,1.0
6.5,128.181884,37.941871,7012.195881600001,-0.267,15.029,0.038,1.0
6.5166,128.181884,37.941919,7012.9066752,-0.271,15.148,0.038,1.0
6.5333,128.181884,37.941966,7013.628746400001,-0.274,15.267,0.039,1.0
6.55,128.181884,37.942013,7014.3614856,-0.277,15.386,0.04,1.0
6.5666,128.181884,37.942061,7015.105197600001,-0.281,15.505,0.041,1.0
6.5833,128.181884,37.942108,7015.8595776,-0.285,15.624,0.041,1.0
6.6,128.181884,37.942156,7016.6249304,-0.288,15.743,0.042,1.0
6.6166,128.181884,37.942203,7017.401256000001,-0.292,15.862,0.043,1.0
6.6333,128.181884,37.942251,7018.1882496,-0.296,15.981,0.044,1.0
6.65,128.181884,37.942298,7018.986216,-0.3,16.1,0.044,1.0
6.6666,128.181884,37.942345,7019.7951552,-0.304,16.219,0.045,1.0
6.6833,128.181884,37.942393,7020.6144576,-0.308,16.337,0.046,1.0
6.7,128.181884,37.94244,7021.4450376,-0.312,16.456,0.047,1.0
6.7166,128.181884,37.942487,7022.2859808,-0.316,16.575,0.047,1.0
6.7333,128.181884,37.942534,7023.137896800001,-0.32,16.693,0.048,1.0
6.75,128.181884,37.942582,7024.0007856,-0.325,16.812,0.049,1.0
6.7666,128.181884,37.942629,7024.8740376000005,-0.329,16.931,0.05,1.0
6.7833,128.181884,37.942676,7025.7582624,-0.333,17.049,0.05,1.0
6.8,128.181884,37.942723,7026.65346,-0.338,17.168,0.051,1.0
6.8166,128.181884,37.94277,7027.5590208,-0.343,17.286,0.052,1.0
6.8333,128.181884,37.942817,7028.4752496,-0.347,17.405,0.053,1.0
6.85,128.181884,37.942864,7029.4024512000005,-0.352,17.523,0.053,1.0
6.8666,128.181884,37.942911,7030.3403208,-0.357,17.641,0.054,1.0
6.8833,128.181884,37.942958,7031.2885536,-0.362,17.76,0.055,1.0
6.9,128.181884,37.943005,7032.2477592000005,-0.367,17.878,0.056,1.0
6.9166,128.181884,37.943052,7033.2176328000005,-0.372,17.996,0.057,1.0
6.9333,128.181884,37.943099,7034.1981744,-0.377,18.114,0.058,1.0
6.95,128.181884,37.943146,7035.1890792,-0.383,18.233,0.058,1.0
6.9666,128.181884,37.943193,7036.190652000001,-0.388,18.351,0.059,1.0
6.9833,128.181884,37.94324,7037.203197600001,-0.394,18.469,0.06,1.0
7.0,128.181884,37.943287,7038.2261064,-0.399,18.587,0.061,1.0
7.0166,128.181884,37.943334,7039.259378400001,-0.405,18.705,0.062,1.0
7.0333,128.181884,37.943381,7040.3036232,-0.411,18.823,0.063,1.0
7.05,128.181884,37.943427,7041.3582312,-0.416,18.941,0.064,1.0
7.0666,128.181884,37.943474,7042.4232024,-0.422,19.059,0.064,1.0
7.0833,128.181884,37.943521,7043.4991464,-0.428,19.177,0.065,1.0
7.1,128.181884,37.943568,7044.5851488,-0.434,19.294,0.066,1.0
7.1166,128.181884,37.943614,7045.682124000001,-0.441,19.412,0.067,1.0
7.1333,128.181884,37.943661,7046.7891576,-0.447,19.53,0.068,1.0
7.15,128.181884,37.943707,7047.9068592,-0.453,19.648,0.069,1.0
7.1666,128.181883,37.943754,7049.0352288,-0.46,19.765,0.07,1.0
7.1833,128.181883,37.943801,7050.1739615999995,-0.466,19.883,0.071,1.0
7.2,128.181883,37.943847,7051.3230576,-0.473,20.001,0.072,1.0
7.2166,128.181883,37.943894,7052.4825168,-0.48,20.118,0.073,1.0
7.2333,128.181883,37.94394,7053.6523392,-0.487,20.236,0.074,1.0
7.25,128.181883,37.943986,7054.8328296,-0.494,20.353,0.075,1.0
7.2666,128.181883,37.944033,7056.023683200001,-0.501,20.471,0.076,1.0
7.2833,128.181883,37.944079,7057.2249,-0.508,20.588,0.077,1.0
7.3,128.181883,37.944126,7058.4361751999995,-0.515,20.706,0.078,1.0
7.3166,128.181883,37.944172,7059.658118400001,-0.523,20.823,0.079,1.0
7.3333,128.181883,37.944218,7060.890424800001,-0.53,20.94,0.08,1.0
7.35,128.181883,37.944264,7062.1327896,-0.538,21.057,0.081,1.0
7.3666,128.181883,37.944311,7063.3858224000005,-0.545,21.175,0.083,1.0
7.3833,128.181883,37.944357,7064.6489136,-0.553,21.292,0.084,1.0
7.4,128.181883,37.944403,7065.9223680000005,-0.561,21.409,0.085,1.0
7.4166,128.181883,37.944449,7067.2061856,-0.569,21.526,0.086,1.0
7.4333,128.181883,37.944495,7068.5000616,-0.578,21.643,0.087,1.0
7.45,128.181883,37.944541,7069.8043008,-0.586,21.76,0.088,1.0
7.4666,128.181883,37.944587,7071.1185984,-0.594,21.877,0.09,1.0
7.4833,128.181883,37.944633,7072.4432592,-0.603,21.994,0.091,1.0
7.5,128.181883,37.944679,7073.7782832,-0.611,22.111,0.092,1.0
7.5166,128.181883,37.944725,7075.1230608000005,-0.62,22.227,0.093,1.0
7.5333,128.181882,37.944771,7076.478506400001,-0.629,22.344,0.095,1.0
7.55,128.181882,37.944817,7077.8437056,-0.638,22.461,0.096,1.0
7.5666,128.181882,37.944863,7079.219268000001,-0.647,22.578,0.097,1.0
7.5833,128.181882,37.944909,7080.6048888,-0.657,22.694,0.098,1.0
7.6,128.181882,37.944954,7082.000568,-0.666,22.811,0.1,1.0
7.6166,128.181882,37.945,7083.4066104,-0.676,22.927,0.101,1.0
7.6333,128.181882,37.945046,7084.822406400001,-0.685,23.044,0.103,1.0
7.65,128.181882,37.945091,7086.248260800001,-0.695,23.16,0.104,1.0
7.6666,128.181882,37.945137,7087.6844784,-0.705,23.277,0.105,1.0
7.6833,128.181882,37.945183,7089.1304496,-0.715,23.393,0.107,1.0
7.7,128.181882,37.945228,7090.586479200001,-0.725,23.509,0.108,1.0
7.7166,128.181882,37.945274,7092.0525672,-0.736,23.626,0.11,1.0
7.7333,128.181882,37.945319,7093.528713600001,-0.746,23.742,0.111,1.0
7.75,128.181882,37.945365,7095.0149184,-0.757,23.858,0.113,1.0
7.7666,128.181882,37.94541,7096.5108768,-0.768,23.974,0.114,1.0
7.7833,128.181882,37.945455,7098.0168936,-0.779,24.09,0.116,1.0
7.8,128.181881,37.945501,7099.532664,-0.79,24.206,0.118,1.0
7.8166,128.181881,37.945546,7101.058492800001,-0.801,24.322,0.119,1.0
7.8333,128.181881,37.945591,7102.5940752,-0.813,24.438,0.121,1.0
7.85,128.181881,37.945637,7104.139716,-0.824,24.554,0.122,1.0
7.8666,128.181881,37.945682,7105.695110400001,-0.836,24.67,0.124,1.0
7.8833,128.181881,37.945727,7107.260258400001,-0.848,24.786,0.126,1.0
7.9,128.181881,37.945772,7108.8354648,-0.86,24.902,0.128,1.0
7.9166,128.181881,37.945817,7110.420424800001,-0.872,25.017,0.129,1.0
7.9333,128.181881,37.945862,7112.015138400001,-0.884,25.133,0.131,1.0
7.95,128.181881,37.945907,7113.619605600001,-0.897,25.249,0.133,1.0
7.9666,128.181881,37.945952,7115.2338264,-0.91,25.364,0.135,1.0
7.9833,128.181881,37.945997,7116.8578008,-0.922,25.48,0.136,1.0
8.0,128.18188,37.946042,7118.491528800001,-0.935,25.595,0.138,1.0
8.0166,128.18188,37.946087,7120.1350104,-0.948,25.711,0.139,1.0
8.0333,128.18188,37.946132,7121.788245600001,-0.961,25.826,0.141,1.0
8.05,128.18188,37.946176,7123.4509296,-0.974,25.941,0.142,1.0
8.0666,128.18188,37.946221,7125.123672000001,-0.987,26.057,0.143,1.0
8.0833,128.18188,37.946266,7126.8055584,-1.001,26.172,0.145,1.0
8.1,128.18188,37.946311,7128.4975032,-1.014,26.287,0.146,1.0
8.1166,128.18188,37.946355,7130.1988968000005,-1.028,26.402,0.147,1.0
8.1333,128.18188,37.9464,7131.9097392,-1.042,26.517,0.147,1.0
8.15,128.18188,37.946444,7133.6303352,-1.056,26.632,0.148,1.0
8.1666,128.18188,37.946489,7135.3606848,-1.07,26.747,0.149,1.0
8.1833,128.181879,37.946533,7137.100178400001,-1.085,26.862,0.149,1.0
8.2,128.181879,37.946578,7138.8494256,-1.099,26.977,0.15,1.0
8.2166,128.181879,37.946622,7140.6081216,-1.114,27.092,0.15,1.0
8.2333,128.181879,37.946666,7142.3765712,-1.129,27.206,0.151,1.0
8.25,128.181879,37.946711,7144.1541648,-1.144,27.321,0.151,1.0
8.2666,128.181879,37.946755,7145.9412072,-1.16,27.436,0.151,1.0
8.2833,128.181879,37.946799,7147.7380032,-1.175,27.55,0.151,1.0
8.3,128.181879,37.946843,7149.543943199999,-1.191,27.665,0.151,1.0
8.3166,128.181879,37.946887,7151.359332,-1.207,27.779,0.151,1.0
8.3333,128.181878,37.946931,7153.184169600001,-1.223,27.894,0.151,1.0
8.35,128.181878,37.946975,7155.018456000001,-1.239,28.008,0.151,1.0
8.3666,128.181878,37.947019,7156.8618864,-1.256,28.122,0.15,1.0
8.3833,128.181878,37.947063,7158.714765600001,-1.272,28.237,0.15,1.0
8.4,128.181878,37.947107,7160.5770936,-1.289,28.351,0.149,1.0
8.4166,128.181878,37.947151,7162.448565600001,-1.306,28.465,0.149,1.0
8.4333,128.181878,37.947195,7164.3291816,-1.323,28.579,0.148,1.0
8.45,128.181877,37.947239,7166.219246400001,-1.341,28.693,0.147,1.0
8.4666,128.181877,37.947282,7168.11876,-1.358,28.807,0.146,1.0
8.4833,128.181877,37.947326,7170.0271128,-1.376,28.921,0.145,1.0
8.5,128.181877,37.94737,7171.944914400001,-1.393,29.035,0.144,1.0
8.5166,128.181877,37.947413,7173.87186,-1.411,29.149,0.143,1.0
8.5333,128.181877,37.947457,7175.8079496,-1.429,29.262,0.142,1.0
8.55,128.181877,37.9475,7177.7531832,-1.447,29.376,0.141,1.0
8.5666,128.181876,37.947544,7179.7075608000005,-1.466,29.49,0.139,1.0
8.5833,128.181876,37.947587,7181.6710824,-1.484,29.603,0.138,1.0
8.6,128.181876,37.947631,7183.6434432,-1.502,29.717,0.136,1.0
8.6166,128.181876,37.947674,7185.6252527999995,-1.521,29.83,0.135,1.0
8.6333,128.181876,37.947717,7187.615901600001,-1.54,29.944,0.133,1.0
8.65,128.181876,37.947761,7189.6156944,-1.559,30.057,0.131,1.0
8.6666,128.181875,37.947804,7191.6246312,-1.578,30.17,0.129,1.0
8.6833,128.181875,37.947847,7193.6424072,-1.597,30.283,0.127,1.0
8.7,128.181875,37.94789,7195.6690224,-1.616,30.397,0.125,1.0
8.7166,128.181875,37.947933,7197.7047816,-1.636,30.51,0.123,1.0
8.7333,128.181875,37.947976,7199.74938,-1.655,30.623,0.121,1.0
8.75,128.181875,37.948019,7201.803122400001,-1.675,30.736,0.119,1.0
8.7666,128.181874,37.948062,7203.865704,-1.694,30.849,0.116,1.0
8.7833,128.181874,37.948105,7205.937124800001,-1.714,30.961,0.114,1.0
8.8,128.181874,37.948148,7208.0173848,-1.734,31.074,0.111,1.0
8.8166,128.181874,37.94819,7210.106484000001,-1.754,31.187,0.109,1.0
8.8333,128.181874,37.948233,7212.2044224,-1.774,31.3,0.106,1.0
8.85,128.181873,37.948276,7214.3112,-1.794,31.412,0.103,1.0
8.8666,128.181873,37.948319,7216.4268168,-1.814,31.525,0.1,1.0
8.8833,128.181873,37.948361,7218.5512728,-1.834,31.637,0.097,1.0
8.9,128.181873,37.948404,7220.684568000001,-1.854,31.75,0.094,1.0
8.9166,128.181873,37.948446,7222.826397600001,-1.875,31.863,0.091,1.0
8.9333,128.181872,37.948489,7224.9767616,-1.895,31.976,0.088,1.0
8.95,128.181872,37.948531,7227.136269600001,-1.915,32.089,0.085,1.0
8.9666,128.181872,37.948573,7229.304312,-1.936,32.203,0.081,1.0
8.9833,128.181872,37.948616,7231.4808888,-1.956,32.317,0.078,1.0
9.0,128.181872,37.948658,7233.666,-1.977,32.432,0.074,1.0
9.0166,128.181871,37.9487,7235.8599504,-1.998,32.547,0.071,1.0
9.0333,128.181871,37.948742,7238.0624352,-2.018,32.662,0.067,1.0
9.05,128.181871,37.948784,7240.2737592,-2.039,32.778,0.063,1.0
9.0666,128.181871,37.948826,7242.4936176,-2.059,32.894,0.059,1.0
9.0833,128.18187,37.948868,7244.721705600001,-2.08,33.01,0.055,1.0
9.1,128.18187,37.94891,7246.9586328000005,-2.101,33.127,0.051,1.0
9.1166,128.18187,37.948952,7249.2040944,-2.122,33.243,0.046,1.0
9.1333,128.18187,37.948994,7251.4580904,-2.142,33.36,0.042,1.0
9.15,128.181869,37.949036,7253.7206208,-2.163,33.478,0.038,1.0
9.1666,128.181869,37.949078,7255.9913808,-2.184,33.595,0.033,1.0
9.1833,128.181869,37.949119,7258.27098,-2.204,33.713,0.028,1.0
9.2,128.181869,37.949161,7260.5588088,-2.225,33.831,0.024,1.0
9.2166,128.181868,37.949203,7262.8551720000005,-2.246,33.949,0.019,1.0
9.2333,128.181868,37.949244,7265.1600696000005,-2.266,34.067,0.014,1.0
9.25,128.181868,37.949286,7267.473196800001,-2.287,34.185,0.009,1.0
9.2666,128.181867,37.949327,7269.7948584000005,-2.307,34.303,0.004,1.0
9.2833,128.181867,37.949368,7272.1247496000005,-2.328,34.422,359.999,1.0
9.3,128.181867,37.94941,7274.46348,-2.348,34.54,359.994,1.0
9.3166,128.181867,37.949451,7276.8101352,-2.368,34.659,359.988,1.0
9.3333,128.181866,37.949492,7279.165324800001,-2.389,34.778,359.983,1.0
9.35,128.181866,37.949533,7281.528744,-2.409,34.897,359.977,1.0
9.3666,128.181866,37.949575,7283.900697600001,-2.429,35.015,359.972,1.0
9.3833,128.181865,37.949616,7286.2808808,-2.449,35.134,359.966,1.0
9.4,128.181865,37.949657,7288.6692936,-2.469,35.253,359.96,1.0
9.4166,128.181865,37.949698,7291.065936,-2.489,35.372,359.955,1.0
9.4333,128.181864,37.949739,7293.4711128,-2.509,35.492,359.949,1.0
9.45,128.181864,37.949779,7295.884519200001,-2.529,35.611,359.943,1.0
9.4666,128.181864,37.94982,7298.3058504,-2.548,35.73,359.937,1.0
9.4833,128.181863,37.949861,7300.735716,-2.568,35.849,359.931,1.0
9.5,128.181863,37.949902,7303.173811200001,-2.588,35.969,359.924,1.0
9.5166,128.181863,37.949942,7305.619831200001,-2.607,36.088,359.918,1.0
9.5333,128.181862,37.949983,7308.0743856,-2.626,36.208,359.912,1.0
9.55,128.181862,37.950023,7310.5368648,-2.646,36.327,359.905,1.0
9.5666,128.181862,37.950064,7313.007573600001,-2.665,36.447,359.899,1.0
9.5833,128.181861,37.950104,7315.486512,-2.684,36.566,359.892,1.0
9.6,128.181861,37.950145,7317.9733752,-2.703,36.686,359.885,1.0
9.6166,128.18186,37.950185,7320.468468,-2.722,36.806,359.879,1.0
9.6333,128.18186,37.950225,7322.9717904,-2.74,36.926,359.872,1.0
9.65,128.18186,37.950266,7325.483037600001,-2.759,37.046,359.865,1.0
9.6666,128.181859,37.950306,7328.0025144,-2.777,37.165,359.858,1.0
9.6833,128.181859,37.950346,7330.5299159999995,-2.796,37.285,359.851,1.0
9.7,128.181858,37.950386,7333.065242400001,-2.814,37.405,359.844,1.0
9.7166,128.181858,37.950426,7335.6087984,-2.832,37.525,359.836,1.0
9.7333,128.181858,37.950466,7338.160279200001,-2.85,37.645,359.829,1.0
9.75,128.181857,37.950506,7340.7199896,-2.868,37.766,359.822,1.0
9.7666,128.181857,37.950546,7343.28732,-2.886,37.886,359.814,1.0
9.7833,128.181856,37.950585,7345.86288,-2.903,38.006,359.807,1.0
9.8,128.181856,37.950625,7348.446364800001,-2.921,38.126,359.799,1.0
9.8166,128.181856,37.950665,7351.037774400001,-2.938,38.247,359.791,1.0
9.8333,128.181855,37.950704,7353.6371088000005,-2.955,38.367,359.784,1.0
9.85,128.181855,37.950744,7356.244063200001,-2.972,38.487,359.776,1.0
9.8666,128.181854,37.950783,7358.859247200001,-2.989,38.608,359.768,1.0
9.8833,128.181854,37.950823,7361.482356,-3.006,38.729,359.76,1.0
9.9,128.181853,37.950862,7364.1130848,-3.023,38.849,359.752,1.0
9.9166,128.181853,37.950901,7366.7520432,-3.039,38.97,359.744,1.0
9.9333,128.181852,37.950941,7369.3986216,-3.055,39.091,359.736,1.0
9.95,128.181852,37.95098,7372.052820000001,-3.072,39.211,359.728,1.0
9.9666,128.181851,37.951019,7374.7149432,-3.088,39.332,359.719,1.0
9.9833,128.181851,37.951058,7377.3849912000005,-3.104,39.453,359.711,1.0
10.0,128.18185,37.951097,7380.062659200001,-3.119,39.574,359.702,1.0
10.0166,128.18185,37.951136,7382.748252000001,-3.135,39.695,359.694,1.0
10.0333,128.181849,37.951175,7385.441464800001,-3.15,39.816,359.685,1.0
10.05,128.181849,37.951214,7388.1426024,-3.166,39.937,359.677,1.0
10.0666,128.181848,37.951252,7390.851360000001,-3.181,40.058,359.668,1.0
10.0833,128.181848,37.951291,7393.5677376,-3.196,40.179,359.659,1.0
10.1,128.181847,37.95133,7396.2917352,-3.211,40.301,359.65,1.0
10.1166,128.181847,37.951368,7399.0236576,-3.225,40.422,359.642,1.0
10.1333,128.181846,37.951407,7401.7628952000005,-3.24,40.543,359.633,1.0
10.15,128.181846,37.951445,7404.5100576,-3.254,40.665,359.624,1.0
10.1666,128.181845,37.951484,7407.26484,-3.269,40.786,359.614,1.0
10.1833,128.181845,37.951522,7410.026937600001,-3.283,40.908,359.605,1.0
10.2,128.181844,37.95156,7412.796960000001,-3.297,41.029,359.596,1.0
10.2166,128.181843,37.951599,7415.574297600001,-3.31,41.151,359.587,1.0
10.2333,128.181843,37.951637,7418.359560000001,-3.324,41.273,359.577,1.0
10.25,128.181842,37.951675,7421.152137600001,-3.337,41.395,359.568,1.0
10.2666,128.181842,37.951713,7423.9520304,-3.351,41.516,359.559,1.0
10.2833,128.181841,37.951751,7426.759848,-3.364,41.638,359.549,1.0
10.3,128.181841,37.951789,7429.5749808,-3.377,41.76,359.54,1.0
10.3166,128.18184,37.951827,7432.397428800001,-3.39,41.882,359.53,1.0
10.3333,128.181839,37.951865,7435.227496800001,-3.402,42.004,359.52,1.0
10.35,128.181839,37.951902,7438.0651848,-3.415,42.127,359.51,1.0
10.3666,128.181838,37.95194,7440.910188000001,-3.427,42.249,359.501,1.0
10.3833,128.181838,37.951978,7443.762506400001,-3.439,42.371,359.491,1.0
10.4,128.181837,37.952015,7446.62214,-3.451,42.493,359.481,1.0
10.4166,128.181836,37.952053,7449.4893936,-3.463,42.616,359.471,1.0
10.4333,128.181836,37.95209,7452.3639624,-3.475,42.738,359.461,1.0
10.45,128.181835,37.952127,7455.245846400001,-3.486,42.861,359.451,1.0
10.4666,128.181834,37.952165,7458.1350456,-3.498,42.983,359.44,1.0
10.4833,128.181834,37.952202,7461.03156,-3.509,43.106,359.43,1.0
10.5,128.181833,37.952239,7463.9353896,-3.52,43.229,359.42,1.0
10.5166,128.181832,37.952276,7466.8465344,-3.531,43.352,359.41,1.0
10.5333,128.181832,37.952313,7469.7649944,-3.542,43.474,359.399,1.0
10.55,128.181831,37.95235,7472.690769600001,-3.552,43.597,359.389,1.0
10.5666,128.18183,37.952387,7475.623860000001,-3.563,43.72,359.378,1.0
10.5833,128.18183,37.952424,7478.563960800001,-3.573,43.843,359.368,1.0
10.6,128.181829,37.952461,7481.5113768,-3.583,43.967,359.357,1.0
10.6166,128.181828,37.952497,7484.4658032,-3.593,44.09,359.346,1.0
10.6333,128.181827,37.952534,7487.4275448,-3.603,44.213,359.336,1.0
10.65,128.181827,37.952571,7490.3966016,-3.613,44.336,359.325,1.0
10.6666,128.181826,37.952607,7493.372668800001,-3.622,44.46,359.314,1.0
10.6833,128.181825,37.952644,7496.3557464000005,-3.632,44.583,359.303,1.0
10.7,128.181825,37.95268,7499.3461392,-3.641,44.707,359.292,1.0
10.7166,128.181824,37.952716,7502.343542400001,-3.65,44.83,359.281,1.0
10.7333,128.181823,37.952753,7505.3479560000005,-3.659,44.954,359.27,1.0
10.75,128.181822,37.952789,7508.3596848,-3.668,45.078,359.259,1.0
10.7666,128.181822,37.952825,7511.378119200001,-3.677,45.202,359.248,1.0
10.7833,128.181821,37.952861,7514.403868800001,-3.685,45.325,359.237,1.0
10.8,128.18182,37.952897,7517.436628800001,-3.693,45.449,359.226,1.0
10.8166,128.181819,37.952933,7520.4760944,-3.702,45.573,359.215,1.0
10.8333,128.181818,37.952969,7523.5228752,-3.71,45.698,359.203,1.0
10.85,128.181818,37.953005,7526.5763615999995,-3.718,45.822,359.192,1.0
10.8666,128.181817,37.95304,7529.6368584,-3.726,45.946,359.181,1.0
10.8833,128.181816,37.953076,7532.7043656000005,-3.733,46.07,359.169,1.0
10.9,128.181815,37.953112,7535.778883200001,-3.741,46.195,359.158,1.0
10.9166,128.181814,37.953147,7538.8601064,-3.748,46.319,359.146,1.0
10.9333,128.181814,37.953183,7541.94834,-3.756,46.444,359.134,1.0
10.95,128.181813,37.953218,7545.043279200001,-3.763,46.568,359.123,1.0
10.9666,128.181812,37.953253,7548.145228800001,-3.77,46.693,359.111,1.0
10.9833,128.181811,37.953289,7551.253884000001,-3.777,46.818,359.099,1.0
11.0,128.18181,37.953324,7554.3692448,-3.784,46.943,359.088,1.0
11.0166,128.181809,37.953359,7557.491616,-3.79,47.068,359.076,1.0
11.0333,128.181809,37.953394,7560.620692800001,-3.797,47.193,359.064,1.0
11.05,128.181808,37.953429,7563.75678,-3.803,47.318,359.052,1.0
11.0666,128.181807,37.953464,7566.899268,-3.809,47.443,359.04,1.0
11.0833,128.181806,37.953499,7570.0484616,-3.816,47.568,359.028,1.0
11.1,128.181805,37.953533,7573.204665600001,-3.822,47.694,359.016,1.0
11.1166,128.181804,37.953568,7576.367270400001,-3.828,47.819,359.004,1.0
11.1333,128.181803,37.953603,7579.5368856000005,-3.833,47.945,358.992,1.0
11.15,128.181802,37.953637,7582.712901600001,-3.839,48.07,358.98,1.0
11.1666,128.181802,37.953672,7585.8956232,-3.845,48.196,358.967,1.0
11.1833,128.181801,37.953706,7589.085050400001,-3.85,48.322,358.955,1.0
11.2,128.1818,37.953741,7592.280878400001,-3.856,48.447,358.943,1.0
11.2166,128.181799,37.953775,7595.483412,-3.861,48.573,358.93,1.0
11.2333,128.181798,37.953809,7598.692651200001,-3.866,48.699,358.918,1.0
11.25,128.181797,37.953843,7601.9082912,-3.871,48.825,358.906,1.0
11.2666,128.181796,37.953877,7605.130332000001,-3.876,48.952,358.893,1.0
11.2833,128.181795,37.953911,7608.359078400001,-3.881,49.078,358.881,1.0
11.3,128.181794,37.953945,7611.5945304,-3.885,49.204,358.868,1.0
11.3166,128.181793,37.953979,7614.836078400001,-3.89,49.331,358.855,1.0
11.3333,128.181792,37.954013,7618.084332,-3.895,49.457,358.843,1.0
11.35,128.181791,37.954047,7621.3389864,-3.899,49.584,358.83,1.0
11.3666,128.18179,37.95408,7624.600041600001,-3.903,49.71,358.817,1.0
11.3833,128.181789,37.954114,7627.867497600001,-3.908,49.837,358.804,1.0
11.4,128.181788,37.954147,7631.1416592000005,-3.912,49.964,358.792,1.0
11.4166,128.181787,37.954181,7634.4219168,-3.916,50.091,358.779,1.0
11.4333,128.181786,37.954214,7637.7085752,-3.92,50.218,358.766,1.0
11.45,128.181785,37.954248,7641.0013296,-3.923,50.345,358.753,1.0
11.4666,128.181784,37.954281,7644.3007896,-3.927,50.472,358.74,1.0
11.4833,128.181783,37.954314,7647.6063456,-3.931,50.6,358.727,1.0
11.5,128.181782,37.954347,7650.918302399999,-3.934,50.727,358.714,1.0
11.5166,128.181781,37.95438,7654.236355200001,-3.938,50.854,358.701,1.0
11.5333,128.18178,37.954413,7657.5608088,-3.941,50.982,358.688,1.0
11.55,128.181779,37.954446,7660.8916632,-3.945,51.11,358.674,1.0
11.5666,128.181778,37.954478,7664.2286136,-3.948,51.237,358.661,1.0
11.5833,128.181777,37.954511,7667.5716600000005,-3.951,51.365,358.648,1.0
11.6,128.181776,37.954544,7670.9211072,-3.954,51.493,358.635,1.0
11.6166,128.181775,37.954576,7674.2763456,-3.957,51.621,358.621,1.0
11.6333,128.181774,37.954609,7677.6379848,-3.96,51.749,358.608,1.0
11.65,128.181773,37.954641,7681.005720000001,-3.963,51.878,358.594,1.0
11.6666,128.181772,37.954674,7684.379551200001,-3.966,52.006,358.581,1.0
11.6833,128.181771,37.954706,7687.7594784,-3.968,52.134,358.567,1.0
11.7,128.18177,37.954738,7691.145501600001,-3.971,52.263,358.554,1.0
11.7166,128.181769,37.95477,7694.5376208,-3.974,52.392,358.54,1.0
11.7333,128.181767,37.954802,7697.935836000001,-3.976,52.52,358.526,1.0
11.75,128.181766,37.954834,7701.3401472000005,-3.978,52.649,358.513,1.0
11.7666,128.181765,37.954866,7704.750249600001,-3.981,52.778,358.499,1.0
11.7833,128.181764,37.954898,7708.1661432,-3.983,52.906,358.485,1.0
11.8,128.181763,37.95493,7711.5884376,-3.985,53.035,358.471,1.0
11.8166,128.181762,37.954961,7715.016523200001,-3.987,53.164,358.458,1.0
11.8333,128.181761,37.954993,7718.450400000001,-3.989,53.293,358.444,1.0
11.85,128.18176,37.955024,7721.890068000001,-3.991,53.422,358.43,1.0
11.8666,128.181759,37.955056,7725.335832000001,-3.993,53.551,358.416,1.0
11.8833,128.181757,37.955087,7728.787387200001,-3.995,53.681,358.402,1.0
11.9,128.181756,37.955118,7732.245038400001,-3.997,53.81,358.388,1.0
11.9166,128.181755,37.95515,7735.708176,-3.999,53.939,358.374,1.0
11.9333,128.181754,37.955181,7739.177409600001,-4.001,54.069,358.36,1.0
11.95,128.181753,37.955212,7742.6521296,-4.002,54.198,358.346,1.0
11.9666,128.181752,37.955243,7746.1329456,-4.004,54.328,358.331,1.0
11.9833,128.18175,37.955274,7749.619248,-4.005,54.457,358.317,1.0
12.0,128.181749,37.955304,7753.111341600001,-4.007,54.587,358.303,1.0
12.0166,128.181748,37.955335,7756.6092264,-4.008,54.717,358.289,1.0
12.0333,128.181747,37.955366,7760.1129024,-4.01,54.847,358.274,1.0
12.05,128.181746,37.955397,7763.622064800001,-4.011,54.977,358.26,1.0
12.0666,128.181745,37.955427,7767.136713600001,-4.012,55.107,358.245,1.0
12.0833,128.181743,37.955457,7770.6571536,-4.013,55.237,358.231,1.0
12.1,128.181742,37.955488,7774.1833848,-4.015,55.367,358.217,1.0
12.1166,128.181741,37.955518,7777.7151023999995,-4.016,55.498,358.202,1.0
12.1333,128.18174,37.955548,7781.252306400001,-4.017,55.628,358.187,1.0
12.15,128.181738,37.955578,7784.7928632,-3.954,55.759,358.183,1.0
12.1666,128.181737,37.955608,7788.3398208,-3.894,55.891,358.177,1.0
12.1833,128.181736,37.955638,7791.891655200001,-3.844,56.023,358.168,1.0
12.2,128.181735,37.955668,7795.4486712,-3.803,56.155,358.155,1.0
12.2166,128.181734,37.955698,7799.010564,-3.77,56.287,358.14,1.0
12.2333,128.181732,37.955728,7802.577638400001,-3.744,56.42,358.124,1.0
12.25,128.181731,37.955757,7806.1495896,-3.726,56.554,358.106,1.0
12.2666,128.18173,37.955787,7809.7264176,-3.715,56.687,358.088,1.0
12.2833,128.181729,37.955816,7813.308427200001,-3.709,56.821,358.07,1.0
12.3,128.181727,37.955846,7816.8953136,-3.709,56.955,358.052,1.0
12.3166,128.181726,37.955875,7820.486772,-3.713,57.09,358.033,1.0
12.3333,128.181725,37.955904,7824.083412,-3.721,57.225,358.014,1.0
12.35,128.181723,37.955933,7827.684624,-3.734,57.36,357.996,1.0
12.3666,128.181722,37.955962,7831.290712800001,-3.749,57.496,357.977,1.0
12.3833,128.181721,37.955991,7834.9016784000005,-3.768,57.632,357.958,1.0
12.4,128.18172,37.95602,7838.517216,-3.788,57.768,357.94,1.0
12.4166,128.181718,37.956049,7842.1376304000005,-3.812,57.904,357.921,1.0
12.4333,128.181717,37.956078,7845.7626168,-3.837,58.041,357.902,1.0
12.45,128.181716,37.956106,7849.3921752,-3.864,58.178,357.883,1.0
12.4666,128.181714,37.956135,7853.026610400001,-3.893,58.315,357.864,1.0
12.4833,128.181713,37.956163,7856.665617600001,-3.923,58.453,357.844,1.0
12.5,128.181712,37.956191,7860.309196800001,-3.954,58.59,357.824,1.0
12.5166,128.181711,37.95622,7863.957348,-3.987,58.728,357.803,1.0
12.5333,128.181709,37.956248,7867.6097664,-4.02,58.866,357.783,1.0
12.55,128.181708,37.956276,7871.2670616,-4.055,59.004,357.762,1.0
12.5666,128.181707,37.956304,7874.928928800001,-4.091,59.142,357.74,1.0
12.5833,128.181705,37.956332,7878.5950632,-4.128,59.281,357.719,1.0
12.6,128.181704,37.95636,7882.265464800001,-4.165,59.419,357.697,1.0
12.6166,128.181703,37.956388,7885.9407432,-4.203,59.558,357.674,1.0
12.6333,128.181701,37.956415,7889.6202888,-4.242,59.697,357.652,1.0
12.65,128.1817,37.956443,7893.304101600001,-4.281,59.836,357.629,1.0
12.6666,128.181699,37.95647,7896.992181600001,-4.321,59.975,357.605,1.0
12.6833,128.181697,37.956498,7900.684833600001,-4.362,60.115,357.582,1.0
12.7,128.181696,37.956525,7904.3817528,-4.403,60.254,357.558,1.0
12.7166,128.181695,37.956552,7908.083244,-4.445,60.394,357.533,1.0
12.7333,128.181693,37.956579,7911.788697600001,-4.487,60.534,357.508,1.0
12.75,128.181692,37.956607,7915.4984184,-4.53,60.674,357.483,1.0
12.7666,128.18169,37.956634,7919.212406400001,-4.573,60.814,357.458,1.0
12.7833,128.181689,37.95666,7922.9306616,-4.617,60.954,357.432,1.0
12.8,128.181688,37.956687,7926.653184000001,-4.661,61.095,357.405,1.0
12.8166,128.181686,37.956714,7930.379973600001,-4.705,61.235,357.379,1.0
12.8333,128.181685,37.956741,7934.1107256,-4.75,61.376,357.352,1.0
12.85,128.181683,37.956767,7937.8457448,-4.796,61.517,357.324,1.0
12.8666,128.181682,37.956794,7941.5847264,-4.841,61.658,357.296,1.0
12.8833,128.181681,37.95682,7945.3279752,-4.888,61.8,357.267,1.0
12.9,128.181679,37.956846,7949.0751864,-4.934,61.941,357.238,1.0
12.9166,128.181678,37.956873,7952.826360000001,-4.981,62.083,357.209,1.0
12.9333,128.181676,37.956899,7956.581496000001,-5.029,62.225,357.179,1.0
12.95,128.181675,37.956925,7960.3408992,-5.077,62.367,357.148,1.0
12.9666,128.181674,37.956951,7964.1042648,-5.125,62.509,357.118,1.0
12.9833,128.181672,37.956976,7967.871288000001,-5.174,62.651,357.086,1.0
13.0,128.181671,37.957002,7971.6425784,-5.223,62.794,357.054,1.0
13.0166,128.181669,37.957028,7975.4175264000005,-5.272,62.936,357.022,1.0
13.0333,128.181668,37.957054,7979.196741600001,-5.322,63.079,356.989,1.0
13.0499,128.181666,37.957079,7982.9796144,-5.373,63.223,356.955,1.0
13.0666,128.181665,37.957104,7986.7661448,-5.423,63.366,356.921,1.0
13.0833,128.181663,37.95713,7990.556637600001,-5.475,63.51,356.887,1.0
13.1,128.181662,37.957155,7994.3510928000005,-5.527,63.655,356.851,1.0
13.1166,128.181661,37.95718,7998.149205600001,-5.579,63.799,356.816,1.0
13.1333,128.181659,37.957205,8001.950976,-5.631,63.945,356.779,1.0
13.15,128.181658,37.95723,8005.756404000001,-5.685,64.09,356.742,1.0
13.1666,128.181656,37.957255,8009.5657944,-5.738,64.236,356.704,1.0
13.1833,128.181655,37.95728,8013.3788424,-5.792,64.383,356.666,1.0
13.2,128.181653,37.957305,8017.1952432,-5.847,64.529,356.627,1.0
13.2166,128.181652,37.957329,8021.015606400001,-5.902,64.676,356.587,1.0
13.2333,128.18165,37.957354,8024.8396272,-5.957,64.824,356.546,1.0
13.25,128.181649,37.957378,8028.667000800001,-6.013,64.972,356.505,1.0
13.2666,128.181647,37.957403,8032.498032,-6.069,65.12,356.463,1.0
13.2833,128.181645,37.957427,8036.3327208,-6.127,65.269,356.421,1.0
13.3,128.181644,37.957451,8040.1707624,-6.184,65.418,356.377,1.0
13.3166,128.181642,37.957475,8044.0142904,-6.242,65.567,356.333,1.0
13.3333,128.181641,37.957499,8047.8611712,-6.301,65.717,356.288,1.0
13.35,128.181639,37.957523,8051.712014400001,-6.361,65.866,356.243,1.0
13.3666,128.181638,37.957547,8055.567124800001,-6.421,66.015,356.196,1.0
13.3833,128.181636,37.95757,8059.426197600001,-6.482,66.164,356.149,1.0
13.4,128.181635,37.957594,8063.289232800001,-6.544,66.314,356.101,1.0
13.4166,128.181633,37.957618,8067.1562304,-6.606,66.463,356.053,1.0
13.4333,128.181631,37.957641,8071.0271904,-6.669,66.613,356.003,1.0
13.45,128.18163,37.957664,8074.9021128,-6.733,66.763,355.953,1.0
13.4666,128.181628,37.957688,8078.780997600001,-6.797,66.912,355.902,1.0
13.4833,128.181627,37.957711,8082.6635400000005,-6.862,67.063,355.85,1.0
13.5,128.181625,37.957734,8086.5500448,-6.927,67.213,355.797,1.0
13.5166,128.181623,37.957757,8090.440512,-6.994,67.363,355.743,1.0
13.5333,128.181622,37.95778,8094.3346368,-7.06,67.514,355.689,1.0
13.55,128.18162,37.957803,8098.232724,-7.128,67.665,355.633,1.0
13.5666,128.181619,37.957826,8102.134468800001,-7.196,67.816,355.577,1.0
13.5833,128.181617,37.957848,8106.0398712,-7.265,67.967,355.52,1.0
13.6,128.181615,37.957871,8109.949236,-7.335,68.118,355.462,1.0
13.6166,128.181614,37.957893,8113.861953600001,-7.406,68.27,355.402,1.0
13.6333,128.181612,37.957916,8117.778633600001,-7.477,68.422,355.342,1.0
13.65,128.18161,37.957938,8121.6986664,-7.549,68.574,355.281,1.0
13.6666,128.181609,37.95796,8125.6226616,-7.621,68.726,355.219,1.0
13.6833,128.181607,37.957982,8129.5500096000005,-7.695,68.878,355.155,1.0
13.7,128.181605,37.958004,8133.481015200001,-7.769,69.031,355.091,1.0
13.7166,128.181604,37.958026,8137.415678400001,-7.844,69.184,355.025,1.0
13.7333,128.181602,37.958048,8141.3536944,-7.92,69.337,354.958,1.0
13.75,128.1816,37.95807,8145.2950632,-7.997,69.49,354.891,1.0
13.7666,128.181598,37.958091,8149.2400896,-8.075,69.644,354.822,1.0
13.7833,128.181597,37.958113,8153.188773600001,-8.153,69.797,354.751,1.0
13.8,128.181595,37.958134,8157.140810400001,-8.233,69.951,354.68,1.0
13.8166,128.181593,37.958156,8161.0958952,-8.313,70.106,354.607,1.0
13.8333,128.181591,37.958177,8165.054637600001,-8.395,70.26,354.533,1.0
13.85,128.18159,37.958198,8169.016732800001,-8.477,70.415,354.458,1.0
13.8666,128.181588,37.958219,8172.982180800001,-8.561,70.57,354.381,1.0
13.8833,128.181586,37.95824,8176.9509816,-8.645,70.725,354.303,1.0
13.9,128.181584,37.958261,8180.9228304,-8.731,70.88,354.224,1.0
13.9166,128.181583,37.958282,8184.898032,-8.817,71.035,354.143,1.0
13.9333,128.181581,37.958303,8188.876586400001,-8.905,71.19,354.062,1.0
13.95,128.181579,37.958323,8192.8581888,-8.993,71.344,353.978,1.0
13.9666,128.181577,37.958344,8196.843144,-9.083,71.499,353.894,1.0
13.9833,128.181575,37.958364,8200.8311472,-9.173,71.654,353.808,1.0
14.0,128.181574,37.958385,8204.8221984,-9.265,71.809,353.72,1.0
14.0166,128.181572,37.958405,8208.8166024,-9.358,71.964,353.631,1.0
14.0333,128.18157,37.958425,8212.8137496,-9.452,72.119,353.541,1.0
14.05,128.181568,37.958445,8216.8142496,-9.547,72.274,353.449,1.0
14.0666,128.181566,37.958465,8220.8174928,-9.643,72.429,353.355,1.0
14.0833,128.181564,37.958485,8224.8240888,-9.741,72.583,353.26,1.0
14.1,128.181563,37.958505,8228.833428,-9.84,72.738,353.164,1.0
14.1166,128.181561,37.958524,8232.8455104,-9.94,72.893,353.065,1.0
14.1333,128.181559,37.958544,8236.860945600001,-10.042,73.048,352.965,1.0
14.15,128.181557,37.958563,8240.878819200001,-10.145,73.202,352.863,1.0
14.1666,128.181555,37.958583,8244.8997408,-10.25,73.357,352.759,1.0
14.1833,128.181553,37.958602,8248.9237104,-10.356,73.512,352.653,1.0
14.2,128.181551,37.958621,8252.9504232,-10.464,73.667,352.545,1.0
14.2166,128.181549,37.95864,8256.9795744,-10.574,73.822,352.436,1.0
14.2333,128.181547,37.958659,8261.011773600001,-10.685,73.976,352.324,1.0
14.25,128.181546,37.958678,8265.046716,-10.798,74.131,352.21,1.0
14.2666,128.181544,37.958697,8269.084401600001,-10.913,74.286,352.094,1.0
14.2833,128.181542,37.958716,8273.1245256,-11.029,74.441,351.975,1.0
14.3,128.18154,37.958734,8277.1673928,-11.148,74.596,351.855,1.0
14.3166,128.181538,37.958753,8281.2130032,-11.269,74.751,351.731,1.0
14.3333,128.181536,37.958771,8285.261052000002,-11.392,74.907,351.606,1.0
14.35,128.181534,37.95879,8289.3115392,-11.517,75.062,351.477,1.0
14.3666,128.181532,37.958808,8293.3647696,-11.645,75.217,351.347,1.0
14.3833,128.18153,37.958826,8297.4204384,-11.775,75.372,351.213,1.0
14.4,128.181528,37.958844,8301.4788504,-11.907,75.528,351.077,1.0
14.4166,128.181526,37.958862,8305.539396,-12.042,75.683,350.937,1.0
14.4333,128.181524,37.95888,8309.60238,-12.18,75.839,350.795,1.0
14.45,128.181522,37.958897,8313.6678024,-12.321,75.994,350.65,1.0
14.4666,128.18152,37.958915,8317.735663200001,-12.464,76.15,350.501,1.0
14.4833,128.181518,37.958933,8321.8059624,-12.611,76.306,350.349,1.0
14.5,128.181516,37.95895,8325.878395200001,-12.761,76.461,350.193,1.0
14.5166,128.181514,37.958967,8329.9529616,-12.914,76.617,350.034,1.0
14.5333,128.181512,37.958985,8334.0299664,-13.071,76.773,349.871,1.0
14.55,128.18151,37.959002,8338.1094096,-13.231,76.929,349.705,1.0
14.5666,128.181508,37.959019,8342.190681600001,-13.395,77.085,349.534,1.0
14.5833,128.181505,37.959036,8346.274392000001,-13.563,77.241,349.359,1.0
14.6,128.181503,37.959053,8350.360236,-13.735,77.398,349.18,1.0
14.6166,128.181501,37.959069,8354.4479088,-13.912,77.554,348.996,1.0
14.6333,128.181499,37.959086,8358.53802,-14.093,77.71,348.808,1.0
14.65,128.181497,37.959103,8362.62996,-14.278,77.867,348.614,1.0
14.6666,128.181495,37.959119,8366.724033600001,-14.469,78.023,348.416,1.0
14.6833,128.181493,37.959135,8370.819936,-14.664,78.18,348.213,1.0
14.7,128.181491,37.959152,8374.917972000001,-14.865,78.336,348.003,1.0
14.7166,128.181489,37.959168,8379.0178368,-15.072,78.493,347.789,1.0
14.7333,128.181487,37.959184,8383.119835200001,-15.284,78.649,347.568,1.0
14.75,128.181484,37.9592,8387.2233576,-15.502,78.806,347.341,1.0
14.7666,128.181482,37.959216,8391.3290136,-15.727,78.963,347.108,1.0
14.7833,128.18148,37.959231,8395.4364984,-15.958,79.12,346.868,1.0
14.8,128.181478,37.959247,8399.5455072,-16.196,79.276,346.62,1.0
14.8166,128.181476,37.959263,8403.6566496,-16.442,79.433,346.366,1.0
14.8333,128.181474,37.959278,8407.769316,-16.695,79.59,346.103,1.0
14.85,128.181471,37.959293,8411.883506400001,-16.955,79.747,345.833,1.0
14.8666,128.181469,37.959309,8415.9998304,-17.225,79.903,345.554,1.0
14.8833,128.181467,37.959324,8420.1173736,-17.503,80.06,345.266,1.0
14.9,128.181465,37.959339,8424.236745600001,-17.79,80.217,344.969,1.0
14.9166,128.181463,37.959354,8428.357641600001,-18.087,80.373,344.662,1.0
14.9333,128.18146,37.959369,8432.4800616,-18.393,80.53,344.345,1.0
14.95,128.181458,37.959383,8436.6043104,-18.711,80.687,344.018,1.0
14.9666,128.181456,37.959398,8440.7297784,-19.04,80.843,343.678,1.0
