Time,Longitude,Latitude,Altitude,Roll (deg),Pitch (deg),Yaw (deg),Health
0.0,128.181881,37.923646,7000.146528,0.0,-0.003,0.0,1.0
0.0166,128.181881,37.923691,7000.1605488000005,0.0,-0.012,0.0,1.0
0.0333,128.181881,37.923736,7000.173960000001,0.0,-0.025,0.0,1.0
0.05,128.181881,37.923781,7000.186152000001,0.0,-0.039,0.0,1.0
0.0666,128.181881,37.923826,7000.1977344,0.0,-0.054,0.0,1.0
0.0833,128.181881,37.923871,7000.2084024,0.0,-0.071,0.0,1.0
0.1,128.181881,37.923916,7000.218156000001,0.0,-0.087,0.0,1.0
0.1166,128.181881,37.923961,7000.226995200001,0.0,-0.104,0.0,1.0
0.1333,128.181881,37.924006,7000.234920000001,0.0,-0.119,0.0,1.0
0.15,128.181881,37.924051,7000.2422352,0.0,-0.134,0.0,1.0
0.1666,128.181881,37.924096,7000.2483312,0.0,-0.147,0.0,1.0
0.1833,128.181881,37.924141,7000.2538176,0.0,-0.159,0.0,1.0
0.2,128.181881,37.924186,7000.2583896,0.0,-0.17,0.0,1.0
0.2166,128.181881,37.924231,7000.261742400001,0.0,-0.182,0.0,1.0
0.2333,128.181881,37.924276,7000.2647904000005,0.0,-0.191,0.0,1.0
0.25,128.181881,37.924321,7000.266619200001,0.0,-0.199,0.0,1.0
0.2666,128.181881,37.924366,7000.267533600001,0.001,-0.206,0.0,1.0
0.2833,128.181881,37.924411,7000.267838400001,0.001,-0.212,0.0,1.0
0.3,128.181881,37.924456,7000.2669240000005,0.001,-0.217,0.0,1.0
0.3166,128.181881,37.924501,7000.2654,0.001,-0.222,0.0,1.0
0.3333,128.181881,37.924546,7000.2632664,0.002,-0.226,0.0,1.0
0.35,128.181881,37.924591,7000.2599136,0.002,-0.23,0.0,1.0
0.3666,128.181881,37.924636,7000.255951200001,0.002,-0.233,0.0,1.0
0.3833,128.181881,37.924682,7000.251074400001,0.002,-0.236,0.0,1.0
0.4,128.181881,37.924727,7000.245588000001,0.002,-0.239,0.0,1.0
0.4166,128.181881,37.924772,7000.239187200001,0.002,-0.242,0.0,1.0
0.4333,128.181881,37.924817,7000.231872,0.002,-0.246,0.001,1.0
0.45,128.181881,37.924862,7000.223947200001,0.002,-0.249,0.001,1.0
0.4666,128.181881,37.924907,7000.215108,0.002,-0.253,0.0,1.0
0.4833,128.181881,37.924952,7000.205659200001,0.003,-0.256,0.0,1.0
0.5,128.181881,37.924998,7000.195296000001,0.003,-0.261,0.0,1.0
0.5166,128.181881,37.925043,7000.1843232,0.003,-0.265,0.0,1.0
0.5333,128.181881,37.925088,7000.172740800001,0.003,-0.269,0.0,1.0
0.55,128.181881,37.925133,7000.1599392,0.003,-0.274,0.0,1.0
0.5666,128.181881,37.925179,7000.146832800001,0.003,-0.28,0.0,1.0
0.5833,128.181881,37.925224,7000.132812,0.004,-0.285,0.001,1.0
0.6,128.181881,37.925269,7000.1178768,0.004,-0.291,0.001,1.0
0.6166,128.181881,37.925314,7000.1026368,0.004,-0.297,0.001,1.0
0.6333,128.181881,37.92536,7000.0861776,0.004,-0.303,0.001,1.0
0.65,128.181881,37.925405,7000.0694136,0.004,-0.309,0.001,1.0
0.6666,128.181881,37.92545,7000.0517352,0.004,-0.315,0.001,1.0
0.6833,128.181881,37.925495,7000.0334472,0.005,-0.321,0.001,1.0
0.7,128.181881,37.925541,7000.014244800001,0.005,-0.327,0.001,1.0
0.7166,128.181881,37.925586,6999.9944328,0.005,-0.334,0.0,1.0
0.7333,128.181881,37.925631,6999.974011200001,0.005,-0.34,0.0,1.0
0.75,128.181881,37.925677,6999.9526752,0.006,-0.346,0.001,1.0
0.7666,128.181881,37.925722,6999.9307296,0.007,-0.352,0.001,1.0
0.7833,128.181881,37.925767,6999.9081744000005,0.008,-0.358,0.002,1.0
0.8,128.181881,37.925813,6999.884704800001,0.01,-0.364,0.002,1.0
0.8166,128.181881,37.925858,6999.8606256,0.012,-0.371,0.003,1.0
0.8333,128.181881,37.925903,6999.8359368,0.013,-0.377,0.003,1.0
0.85,128.181881,37.925949,6999.810638400001,0.014,-0.382,0.003,1.0
0.8666,128.181881,37.925994,6999.7847304,0.015,-0.388,0.002,1.0
0.8833,128.181881,37.92604,6999.7582128,0.015,-0.393,0.002,1.0
0.9,128.181881,37.926085,6999.7307808000005,0.014,-0.399,0.001,1.0
0.9166,128.181881,37.92613,6999.7027392,0.012,-0.404,0.0,1.0
0.9333,128.181881,37.926176,6999.6750024,0.004,-0.41,359.999,1.0
0.95,128.181881,37.926221,6999.646351200001,-0.011,-0.417,359.995,1.0
0.9666,128.181881,37.926267,6999.6173952,-0.033,-0.424,359.991,1.0
0.9833,128.181881,37.926312,6999.5881344,-0.061,-0.431,359.987,1.0
1.0,128.181881,37.926358,6999.558264,-0.095,-0.439,359.982,1.0
1.0166,128.181881,37.926403,6999.527784000001,-0.134,-0.446,359.978,1.0
1.0333,128.181881,37.926449,6999.4976088,-0.186,-0.454,359.973,1.0
1.05,128.181881,37.926494,6999.467128800001,-0.249,-0.463,359.966,1.0
1.0666,128.181881,37.92654,6999.4360392,-0.323,-0.471,359.96,1.0
1.0833,128.181881,37.926585,6999.404949600001,-0.407,-0.48,359.953,1.0
1.1,128.181881,37.926631,6999.373250400001,-0.499,-0.488,359.947,1.0
1.1166,128.181881,37.926676,6999.3409416,-0.598,-0.497,359.94,1.0
1.1333,128.181881,37.926722,6999.3095472,-0.785,-0.509,359.925,1.0
1.15,128.181881,37.926767,6999.2784576,-1.057,-0.526,359.901,1.0
1.1666,128.181881,37.926813,6999.248282400001,-1.417,-0.544,359.872,1.0
1.1833,128.181881,37.926858,6999.219631200001,-1.865,-0.564,359.84,1.0
1.2,128.181881,37.926904,6999.192504000001,-2.399,-0.584,359.808,1.0
1.2166,128.181881,37.926949,6999.167205600001,-3.019,-0.604,359.776,1.0
1.2333,128.181881,37.926995,6999.144040800001,-3.721,-0.624,359.745,1.0
1.25,128.181881,37.927041,6999.123314400001,-4.503,-0.643,359.714,1.0
1.2666,128.181881,37.927086,6999.1047216,-5.36,-0.661,359.685,1.0
1.2833,128.181881,37.927132,6999.0879576,-6.29,-0.678,359.656,1.0
1.3,128.181881,37.927177,6999.073327200001,-7.289,-0.695,359.629,1.0
1.3166,128.181881,37.927223,6999.0608304,-8.355,-0.711,359.602,1.0
1.3333,128.181881,37.927268,6999.0501624,-9.484,-0.726,359.577,1.0
1.35,128.181881,37.927314,6999.0413232,-10.675,-0.741,359.552,1.0
1.3666,128.181881,37.92736,6999.0343128,-11.923,-0.755,359.528,1.0
1.3833,128.181881,37.927405,6999.0291312,-13.227,-0.769,359.505,1.0
1.4,128.181881,37.927451,6999.0257784000005,-14.585,-0.782,359.483,1.0
1.4166,128.181881,37.927496,6999.0239496,-15.993,-0.795,359.461,1.0
1.4333,128.181881,37.927542,6999.0239496,-17.449,-0.808,359.441,1.0
1.45,128.18188,37.927588,6999.025473600001,-18.952,-0.82,359.421,1.0
1.4666,128.18188,37.927633,6999.0282168,-20.5,-0.833,359.402,1.0
1.4833,128.18188,37.927679,6999.0327888,-22.089,-0.845,359.383,1.0
1.5,128.18188,37.927724,6999.0385799999995,-23.719,-0.857,359.366,1.0
1.5166,128.18188,37.92777,6999.0458952,-25.387,-0.87,359.349,1.0
1.5333,128.181879,37.927816,6999.0544296,-27.092,-0.882,359.333,1.0
1.55,128.181879,37.927861,6999.064183200001,-28.831,-0.894,359.317,1.0
1.5666,128.181879,37.927907,6999.075156000001,-30.604,-0.906,359.303,1.0
1.5833,128.181879,37.927952,6999.087348,-32.409,-0.919,359.289,1.0
1.6,128.181878,37.927998,6999.1001496,-34.245,-0.932,359.275,1.0
1.6166,128.181878,37.928044,6999.114170400001,-36.109,-0.944,359.263,1.0
1.6333,128.181878,37.928089,6999.1281912,-37.99,-0.957,359.252,1.0
1.65,128.181877,37.928135,6999.1425168,-39.884,-0.969,359.242,1.0
1.6666,128.181877,37.928181,6999.157452000001,-41.789,-0.981,359.234,1.0
1.6833,128.181876,37.928226,6999.1720824,-43.701,-0.993,359.227,1.0
1.7,128.181876,37.928272,6999.1870176,-45.619,-1.005,359.221,1.0
1.7166,128.181875,37.928318,6999.2019528,-47.541,-1.017,359.216,1.0
1.7333,128.181875,37.928363,6999.2156688000005,-49.447,-1.028,359.212,1.0
1.75,128.181874,37.928409,6999.2287752,-51.335,-1.038,359.21,1.0
1.7666,128.181873,37.928455,6999.241272,-53.208,-1.048,359.21,1.0
1.7833,128.181873,37.9285,6999.252854400001,-55.065,-1.057,359.21,1.0
1.8,128.181872,37.928546,6999.2638272,-56.91,-1.067,359.21,1.0
1.8166,128.181871,37.928592,6999.2738856000005,-58.744,-1.077,359.211,1.0
1.8333,128.181871,37.928637,6999.282115200001,-60.549,-1.087,359.212,1.0
1.85,128.18187,37.928683,6999.2891256,-62.326,-1.095,359.215,1.0
1.8666,128.181869,37.928729,6999.2949168000005,-64.079,-1.104,359.218,1.0
1.8833,128.181868,37.928774,6999.299184000001,-65.811,-1.112,359.221,1.0
1.9,128.181867,37.92882,6999.302232,-67.525,-1.121,359.224,1.0
1.9166,128.181867,37.928866,6999.3034512,-69.225,-1.13,359.227,1.0
1.9333,128.181866,37.928911,6999.302841600001,-70.888,-1.138,359.231,1.0
1.95,128.181865,37.928957,6999.2997936,-72.517,-1.145,359.235,1.0
1.9666,128.181864,37.929003,6999.2952216,-74.117,-1.152,359.239,1.0
1.9833,128.181863,37.929049,6999.288516,-75.691,-1.159,359.243,1.0
2.0,128.181862,37.929094,6999.2796768,-77.243,-1.166,359.247,1.0
2.0166,128.181861,37.92914,6999.2690088,-78.778,-1.174,359.251,1.0
2.0333,128.181859,37.929186,6999.255597600001,-80.267,-1.18,359.255,1.0
2.05,128.181858,37.929232,6999.239748,-81.715,-1.185,359.259,1.0
2.0666,128.181857,37.929278,6999.221460000001,-83.125,-1.19,359.263,1.0
2.0833,128.181856,37.929323,6999.200733600001,-84.505,-1.195,359.266,1.0
2.1,128.181855,37.929369,6999.177264000001,-85.857,-1.2,359.27,1.0
2.1166,128.181854,37.929415,6999.151356,-87.187,-1.207,359.273,1.0
2.1333,128.181852,37.929461,6999.1227048,-88.459,-1.211,359.275,1.0
2.15,128.181851,37.929507,6999.091310400001,-89.679,-1.214,359.278,1.0
2.1666,128.18185,37.929552,6999.0571728,-90.851,-1.217,359.28,1.0
2.1833,128.181849,37.929598,6999.0199872,-91.983,-1.22,359.283,1.0
2.2,128.181847,37.929644,6998.9803632,-93.081,-1.224,359.284,1.0
2.2166,128.181846,37.92969,6998.937691200001,-94.149,-1.229,359.286,1.0
2.2333,128.181844,37.929736,6998.8919712,-95.146,-1.232,359.286,1.0
2.25,128.181843,37.929782,6998.843508,-96.076,-1.234,359.287,1.0
2.2666,128.181842,37.929828,6998.7923016,-96.948,-1.234,359.287,1.0
2.2833,128.18184,37.929873,6998.7380472,-97.768,-1.236,359.287,1.0
2.3,128.181839,37.929919,6998.6810496,-98.546,-1.239,359.287,1.0
2.3166,128.181838,37.929965,6998.6210040000005,-99.288,-1.243,359.286,1.0
2.3333,128.181836,37.930011,6998.557910400001,-99.916,-1.246,359.271,1.0
2.35,128.181835,37.930057,6998.4917688000005,-100.437,-1.25,359.227,1.0
2.3666,128.181833,37.930103,6998.4228840000005,-100.864,-1.261,359.143,1.0
2.3833,128.181832,37.930149,6998.350951200001,-101.208,-1.283,359.005,1.0
2.4,128.18183,37.930195,6998.275970400001,-101.481,-1.32,358.804,1.0
2.4166,128.181829,37.930241,6998.1979416,-101.694,-1.375,358.531,1.0
2.4333,128.181827,37.930287,6998.1162552000005,-101.927,-1.453,358.181,1.0
2.45,128.181826,37.930333,6998.031215999999,-102.187,-1.555,357.759,1.0
2.4666,128.181824,37.930379,6997.942214400001,-102.474,-1.675,357.279,1.0
2.4833,128.181822,37.930425,6997.8492504000005,-102.789,-1.809,356.753,1.0
2.5,128.18182,37.930471,6997.7517144,-103.128,-1.952,356.198,1.0
2.5166,128.181819,37.930517,6997.649606400001,-103.49,-2.1,355.632,1.0
2.5333,128.181817,37.930563,6997.5432312,-103.923,-2.253,355.073,1.0
2.55,128.181814,37.930609,6997.431369600001,-104.424,-2.407,354.54,1.0
2.5666,128.181812,37.930655,6997.3146312,-104.987,-2.556,354.047,1.0
2.5833,128.18181,37.930701,6997.192101600001,-105.604,-2.697,353.601,1.0
2.6,128.181807,37.930747,6997.0640856,-106.266,-2.831,353.197,1.0
2.6166,128.181805,37.930793,6996.930583200001,-106.969,-2.959,352.827,1.0
2.6333,128.181802,37.930839,6996.7909848,-107.744,-3.079,352.509,1.0
2.65,128.181799,37.930885,6996.6449856,-108.592,-3.186,352.256,1.0
2.6666,128.181796,37.930931,6996.4928904,-109.511,-3.278,352.064,1.0
2.6833,128.181793,37.930977,6996.3337848,-110.498,-3.361,351.918,1.0
2.7,128.18179,37.931023,6996.167973600001,-111.553,-3.437,351.804,1.0
2.7166,128.181787,37.931068,6995.994847200001,-112.673,-3.51,351.71,1.0
2.7333,128.181783,37.931114,6995.814710400001,-113.858,-3.577,351.641,1.0
2.75,128.181779,37.93116,6995.6272584,-115.107,-3.64,351.593,1.0
2.7666,128.181776,37.931206,6995.4318816,-116.419,-3.7,351.558,1.0
2.7833,128.181772,37.931252,6995.2291896,-117.792,-3.76,351.531,1.0
2.8,128.181768,37.931298,6995.018268000001,-119.225,-3.821,351.507,1.0
2.8166,128.181764,37.931344,6994.7997264000005,-120.718,-3.885,351.485,1.0
2.8333,128.181759,37.93139,6994.5723456000005,-122.267,-3.96,351.451,1.0
2.85,128.181755,37.931436,6994.3367352000005,-123.864,-4.049,351.398,1.0
2.8666,128.181751,37.931481,6994.0925904000005,-125.504,-4.152,351.33,1.0
2.8833,128.181746,37.931527,6993.840216,-127.18,-4.266,351.252,1.0
2.9,128.181742,37.931573,6993.578697600001,-128.888,-4.39,351.167,1.0
2.9166,128.181737,37.931619,6993.3086448,-130.624,-4.52,351.079,1.0
2.9333,128.181732,37.931665,6993.029143199999,-132.262,-4.663,350.974,1.0
2.95,128.181727,37.931711,6992.740497600001,-133.8,-4.825,350.843,1.0
2.9666,128.181722,37.931756,6992.4433176,-135.248,-5.007,350.695,1.0
2.9833,128.181717,37.931802,6992.1372984,-136.615,-5.207,350.537,1.0
3.0,128.181712,37.931848,6991.8227448,-137.912,-5.419,350.377,1.0
3.0166,128.181707,37.931894,6991.499352000001,-139.149,-5.641,350.219,1.0
3.0333,128.181702,37.93194,6991.1665104,-140.256,-5.879,350.051,1.0
3.05,128.181696,37.931985,6990.8251344,-141.24,-6.131,349.876,1.0
3.0666,128.181691,37.932031,6990.474919200001,-142.102,-6.393,349.7,1.0
3.0833,128.181685,37.932077,6990.116169600001,-142.86,-6.66,349.527,1.0
3.1,128.18168,37.932123,6989.7488856,-143.528,-6.93,349.361,1.0
3.1166,128.181674,37.932168,6989.3727624,-144.12,-7.2,349.203,1.0
3.1333,128.181669,37.932214,6988.988104800001,-144.612,-7.453,349.06,1.0
3.15,128.181663,37.93226,6988.595827200001,-145.01,-7.678,348.938,1.0
3.1666,128.181657,37.932306,6988.195624800001,-145.318,-7.861,348.848,1.0
3.1833,128.181651,37.932352,6987.7881072,-145.541,-7.99,348.797,1.0
3.2,128.181645,37.932397,6987.372664800001,-145.681,-8.067,348.785,1.0
3.2166,128.18164,37.932443,6986.9496024,-145.741,-8.105,348.8,1.0
3.2333,128.181634,37.932489,6986.519224800001,-145.735,-8.088,348.846,1.0
3.25,128.181628,37.932535,6986.082141600001,-145.667,-8.008,348.927,1.0
3.2666,128.181622,37.932581,6985.638048,-145.534,-7.882,349.034,1.0
3.2833,128.181616,37.932627,6985.1875536,-145.336,-7.723,349.16,1.0
3.3,128.18161,37.932672,6984.730963200001,-145.069,-7.548,349.296,1.0
3.3166,128.181603,37.932718,6984.267972000001,-144.735,-7.369,349.434,1.0
3.3333,128.181597,37.932764,6983.7997992,-144.514,-7.206,349.584,1.0
3.35,128.181591,37.93281,6983.3255304,-144.403,-7.061,349.746,1.0
3.3666,128.181585,37.932856,6982.844860800001,-144.406,-6.932,349.912,1.0
3.3833,128.181579,37.932902,6982.3577904,-144.529,-6.816,350.078,1.0
3.4,128.181572,37.932948,6981.864624000001,-144.774,-6.71,350.239,1.0
3.4166,128.181566,37.932993,6981.365056800001,-145.139,-6.614,350.394,1.0
3.4333,128.181559,37.933039,6980.8590888,-145.622,-6.527,350.542,1.0
3.45,128.181553,37.933085,6980.346415200001,-146.221,-6.447,350.683,1.0
3.4666,128.181547,37.933131,6979.8273408000005,-146.932,-6.374,350.815,1.0
3.4833,128.18154,37.933177,6979.3015608000005,-147.752,-6.309,350.94,1.0
3.5,128.181533,37.933223,6978.7690752,-148.676,-6.25,351.058,1.0
3.5166,128.181527,37.933269,6978.229884000001,-149.702,-6.198,351.168,1.0
3.5333,128.18152,37.933315,6977.6836824,-150.826,-6.152,351.272,1.0
3.55,128.181514,37.93336,6977.130470400001,-152.044,-6.112,351.368,1.0
3.5666,128.181507,37.933406,6976.5699432,-153.353,-6.078,351.458,1.0
3.5833,128.1815,37.933452,6976.0021008,-154.749,-6.05,351.543,1.0
3.6,128.181494,37.933498,6975.4269432,-156.229,-6.027,351.621,1.0
3.6166,128.181487,37.933544,6974.843860800001,-157.789,-6.01,351.694,1.0
3.6333,128.18148,37.93359,6974.2540728,-159.426,-5.998,351.761,1.0
3.65,128.181473,37.933636,6973.656969600001,-161.137,-5.99,351.825,1.0
3.6666,128.181466,37.933681,6973.052856000001,-162.918,-5.987,351.884,1.0
3.6833,128.181459,37.933727,6972.4420368,-164.768,-5.989,351.939,1.0
3.7,128.181453,37.933773,6971.8248168,-166.683,-5.994,351.992,1.0
3.7166,128.181446,37.933819,6971.2005864,-168.661,-6.004,352.041,1.0
3.7333,128.181439,37.933865,6970.569650400001,-170.698,-6.032,352.086,1.0
3.75,128.181432,37.933911,6969.9317040000005,-172.793,-6.093,352.124,1.0
3.7666,128.181425,37.933957,6969.2873568,-174.942,-6.185,352.158,1.0
3.7833,128.181418,37.934002,6968.6359992,-177.142,-6.296,352.191,1.0
3.8,128.181411,37.934048,6967.977936,-179.391,-6.421,352.225,1.0
3.8166,128.181404,37.934094,6967.3131672,178.315,-6.553,352.26,1.0
3.8333,128.181397,37.93414,6966.6407784,175.98,-6.706,352.299,1.0
3.85,128.18139,37.934186,6965.961379200001,173.609,-6.889,352.344,1.0
3.8666,128.181383,37.934231,6965.27436,171.203,-7.093,352.397,1.0
3.8833,128.181376,37.934277,6964.5800256,168.766,-7.31,352.457,1.0
3.9,128.181369,37.934323,6963.8780712,166.302,-7.533,352.526,1.0
3.9166,128.181362,37.934369,6963.168496800001,163.815,-7.756,352.602,1.0
3.9333,128.181355,37.934415,6962.4516072,161.359,-7.993,352.688,1.0
3.95,128.181348,37.934461,6961.726792800001,158.939,-8.247,352.787,1.0
3.9666,128.181341,37.934506,6960.995272800001,156.552,-8.512,352.898,1.0
3.9833,128.181335,37.934552,6960.2561328,154.198,-8.78,353.023,1.0
4.0,128.181328,37.934598,6959.509068,151.873,-9.045,353.158,1.0
4.0166,128.181321,37.934644,6958.7540784,149.574,-9.303,353.304,1.0
4.0333,128.181314,37.93469,6957.991468800001,147.337,-9.567,353.464,1.0
4.05,128.181307,37.934736,6957.2212392,145.156,-9.833,353.64,1.0
4.0666,128.1813,37.934781,6956.4433896,143.023,-10.095,353.827,1.0
4.0833,128.181294,37.934827,6955.657005600001,140.933,-10.348,354.024,1.0
4.1,128.181287,37.934873,6954.862392000001,138.877,-10.588,354.228,1.0
4.1166,128.18128,37.934919,6954.059244,136.851,-10.813,354.436,1.0
4.1333,128.181274,37.934965,6953.2475616,134.801,-11.01,354.639,1.0
4.15,128.181267,37.935011,6952.4273448,132.732,-11.169,354.822,1.0
4.1666,128.181261,37.935057,6951.5988984,130.643,-11.281,354.972,1.0
4.1833,128.181254,37.935102,6950.762222400001,128.538,-11.341,355.074,1.0
4.2,128.181248,37.935148,6949.9179264,126.416,-11.345,355.116,1.0
4.2166,128.181242,37.935194,6949.066010400001,124.276,-11.307,355.11,1.0
4.2333,128.181236,37.93524,6948.207084000001,122.114,-11.24,355.064,1.0
4.25,128.181229,37.935286,6947.341147200001,119.925,-11.155,354.993,1.0
4.2666,128.181223,37.935332,6946.469114400001,117.707,-11.064,354.91,1.0
4.2833,128.181217,37.935378,6945.5906808,115.455,-10.976,354.828,1.0
4.3,128.181211,37.935423,6944.706760800001,113.168,-10.895,354.754,1.0
4.3166,128.181206,37.935469,6943.8170496,110.844,-10.823,354.688,1.0
4.3333,128.1812,37.935515,6942.9224616,108.483,-10.763,354.646,1.0
4.35,128.181194,37.935561,6942.0226920000005,106.085,-10.717,354.633,1.0
4.3666,128.181188,37.935607,6941.118655200001,103.652,-10.681,354.644,1.0
4.3833,128.181183,37.935653,6940.2100464000005,101.188,-10.652,354.671,1.0
4.4,128.181177,37.935699,6939.297170400001,98.698,-10.627,354.709,1.0
4.4166,128.181172,37.935745,6938.380332000001,96.184,-10.604,354.754,1.0
4.4333,128.181166,37.935791,6937.459836,93.66,-10.584,354.822,1.0
4.45,128.181161,37.935837,6936.536292000001,91.128,-10.566,354.927,1.0
4.4666,128.181156,37.935882,6935.6090904,88.591,-10.547,355.074,1.0
4.4833,128.18115,37.935928,6934.6791456,86.052,-10.523,355.252,1.0
4.5,128.181145,37.935974,6933.7464576,83.515,-10.494,355.447,1.0
4.5166,128.18114,37.93602,6932.8110264,80.984,-10.458,355.65,1.0
4.5333,128.181135,37.936066,6931.8740712,78.541,-10.417,355.874,1.0
4.55,128.18113,37.936112,6930.9349824,76.182,-10.364,356.132,1.0
4.5666,128.181125,37.936158,6929.994064800001,73.901,-10.297,356.415,1.0
4.5833,128.18112,37.936204,6929.0513184,71.69,-10.216,356.709,1.0
4.6,128.181115,37.93625,6928.107048,69.541,-10.123,357.003,1.0
4.6166,128.181111,37.936296,6927.1618632,67.447,-10.019,357.29,1.0
4.6333,128.181106,37.936342,6926.2163736,65.46,-9.902,357.582,1.0
4.65,128.181102,37.936389,6925.269969600001,63.571,-9.77,357.885,1.0
4.6666,128.181097,37.936435,6924.323260800001,61.766,-9.624,358.19,1.0
4.6833,128.181093,37.936481,6923.3768568000005,60.035,-9.467,358.489,1.0
4.7,128.181088,37.936527,6922.4310624,58.366,-9.302,358.777,1.0
4.7166,128.181084,37.936573,6921.486487200001,56.748,-9.131,359.05,1.0
4.7333,128.18108,37.936619,6920.5428264,55.207,-8.951,359.318,1.0
4.75,128.181076,37.936665,6919.6006896,53.732,-8.762,359.581,1.0
4.7666,128.181072,37.936712,6918.660381600001,52.314,-8.569,359.834,1.0
4.7833,128.181068,37.936758,6917.7228168,50.945,-8.371,0.074,1.0
4.8,128.181064,37.936804,6916.7879952,49.615,-8.173,0.299,1.0
4.8166,128.18106,37.93685,6915.8565264,48.318,-7.975,0.51,1.0
4.8333,128.181057,37.936897,6914.928410400001,47.06,-7.775,0.709,1.0
4.85,128.181053,37.936943,6914.003952000001,45.835,-7.574,0.897,1.0
4.8666,128.18105,37.936989,6913.083760800001,44.638,-7.374,1.074,1.0
4.8833,128.181046,37.937036,6912.1681416,43.463,-7.174,1.24,1.0
4.9,128.181043,37.937082,6911.2573992,42.307,-6.977,1.393,1.0
4.9166,128.18104,37.937128,6910.3521432,41.165,-6.782,1.535,1.0
4.9333,128.181037,37.937175,6909.4514592000005,40.044,-6.596,1.66,1.0
4.95,128.181034,37.937221,6908.5562616,38.941,-6.42,1.77,1.0
4.9666,128.181031,37.937268,6907.667160000001,37.853,-6.251,1.868,1.0
4.9833,128.181028,37.937314,6906.7838496,36.777,-6.087,1.954,1.0
5.0,128.181025,37.937361,6905.90694,35.711,-5.927,2.032,1.0
5.0166,128.181022,37.937407,6905.0361264,34.652,-5.769,2.102,1.0
5.0333,128.18102,37.937454,6904.171104,33.613,-5.623,2.159,1.0
5.05,128.181017,37.9375,6903.312482400001,32.593,-5.486,2.206,1.0
5.0666,128.181015,37.937547,6902.4602616,31.589,-5.357,2.244,1.0
5.0833,128.181012,37.937593,6901.6147464000005,30.597,-5.233,2.276,1.0
5.1,128.18101,37.93764,6900.775936800001,29.617,-5.11,2.302,1.0
5.1166,128.181008,37.937686,6899.943832800001,28.644,-4.988,2.324,1.0
5.1333,128.181006,37.937733,6899.1181295999995,27.703,-4.87,2.342,1.0
5.15,128.181003,37.93778,6898.2982176000005,26.79,-4.757,2.356,1.0
5.1666,128.181001,37.937826,6897.485316,25.903,-4.645,2.366,1.0
5.1833,128.180999,37.937873,6896.679120000001,25.037,-4.535,2.373,1.0
5.2,128.180998,37.93792,6895.8796296,24.189,-4.424,2.378,1.0
5.2166,128.180996,37.937967,6895.087454400001,23.356,-4.312,2.381,1.0
5.2333,128.180994,37.938013,6894.301070400001,22.567,-4.201,2.382,1.0
5.25,128.180992,37.93806,6893.520782400001,21.82,-4.089,2.383,1.0
5.2666,128.18099,37.938107,6892.7468952,21.11,-3.977,2.383,1.0
5.2833,128.180989,37.938154,6891.979713600001,20.431,-3.865,2.381,1.0
5.3,128.180987,37.9382,6891.2192376,19.78,-3.751,2.378,1.0
5.3166,128.180985,37.938247,6890.4657720000005,19.151,-3.637,2.373,1.0
5.3333,128.180984,37.938294,6889.7196216,18.514,-3.524,2.363,1.0
5.35,128.180982,37.938341,6888.981396,17.867,-3.413,2.35,1.0
5.3666,128.180981,37.938388,6888.2514,17.21,-3.303,2.334,1.0
5.3833,128.18098,37.938435,6887.5287192000005,16.543,-3.193,2.316,1.0
5.4,128.180978,37.938482,6886.8139632,15.866,-3.083,2.296,1.0
5.4166,128.180977,37.938529,6886.1068272,15.181,-2.972,2.276,1.0
5.4333,128.180976,37.938576,6885.406701600001,14.545,-2.868,2.256,1.0
5.45,128.180975,37.938623,6884.7132816,13.959,-2.768,2.237,1.0
5.4666,128.180973,37.93867,6884.0262624,13.419,-2.671,2.218,1.0
5.4833,128.180972,37.938717,6883.345644,12.919,-2.576,2.198,1.0
5.5,128.180971,37.938764,6882.6714264,12.453,-2.482,2.176,1.0
5.5166,128.18097,37.938811,6882.004219200001,12.017,-2.388,2.154,1.0
5.5333,128.180969,37.938858,6881.3418888,11.635,-2.303,2.129,1.0
5.55,128.180968,37.938905,6880.6853496,11.302,-2.228,2.103,1.0
5.5666,128.180967,37.938952,6880.035516,11.012,-2.159,2.075,1.0
5.5833,128.180966,37.938999,6879.3917784000005,10.758,-2.093,2.047,1.0
5.6,128.180965,37.939046,6878.7544416,10.535,-2.029,2.017,1.0
5.6166,128.180964,37.939093,6878.123200800001,10.338,-1.965,1.987,1.0
5.6333,128.180963,37.93914,6877.497141600001,10.206,-1.917,1.956,1.0
5.65,128.180962,37.939188,6876.875654400001,10.134,-1.892,1.922,1.0
5.6666,128.180961,37.939235,6876.2593488,10.115,-1.885,1.887,1.0
5.6833,128.18096,37.939282,6875.648224800001,10.143,-1.89,1.85,1.0
5.7,128.18096,37.939329,6875.0425872000005,10.209,-1.899,1.812,1.0
5.7166,128.180959,37.939376,6874.442436,10.31,-1.909,1.773,1.0
5.7333,128.180958,37.939424,6873.845942400001,10.481,-1.937,1.745,1.0
5.75,128.180957,37.939471,6873.252801600001,10.72,-1.996,1.725,1.0
5.7666,128.180956,37.939518,6872.6620992,11.032,-2.102,1.706,1.0
5.7833,128.180956,37.939566,6872.0732256,11.421,-2.256,1.682,1.0
5.8,128.180955,37.939613,6871.485876,11.888,-2.443,1.653,1.0
5.8166,128.180954,37.93966,6870.900964800001,12.435,-2.649,1.621,1.0
5.8333,128.180953,37.939708,6870.316968,13.058,-2.861,1.586,1.0
5.85,128.180953,37.939755,6869.7341904,13.757,-3.072,1.551,1.0
5.8666,128.180952,37.939803,6869.1523272,14.529,-3.278,1.515,1.0
5.8833,128.180951,37.93985,6868.5707688,15.373,-3.476,1.48,1.0
5.9,128.180951,37.939897,6867.989820000001,16.286,-3.666,1.444,1.0
5.9166,128.18095,37.939945,6867.4088712,17.267,-3.848,1.409,1.0
5.9333,128.18095,37.939992,6866.827922400001,18.314,-4.022,1.374,1.0
5.95,128.180949,37.94004,6866.2463640000005,19.425,-4.187,1.339,1.0
5.9666,128.180948,37.940087,6865.6645008000005,20.598,-4.344,1.304,1.0
5.9833,128.180948,37.940135,6865.081723200001,21.832,-4.495,1.269,1.0
6.0,128.180947,37.940183,6864.4980312,23.125,-4.638,1.234,1.0
6.0166,128.180947,37.94023,6863.913120000001,24.475,-4.775,1.198,1.0
6.0333,128.180946,37.940278,6863.3272944,25.881,-4.906,1.162,1.0
6.05,128.180946,37.940325,6862.739944800001,27.341,-5.031,1.126,1.0
6.0666,128.180945,37.940373,6862.1507664,28.854,-5.151,1.09,1.0
6.0833,128.180945,37.940421,6861.5603688,30.417,-5.266,1.053,1.0
6.1,128.180944,37.940468,6860.967837600001,32.031,-5.377,1.016,1.0
6.1166,128.180944,37.940516,6860.373782400001,33.692,-5.482,0.978,1.0
6.1333,128.180943,37.940564,6859.7775936,35.401,-5.584,0.94,1.0
6.15,128.180943,37.940611,6859.1792712,37.156,-5.681,0.901,1.0
6.1666,128.180942,37.940659,6858.578510400001,38.955,-5.774,0.862,1.0
6.1833,128.180942,37.940707,6857.9759208,40.797,-5.864,0.822,1.0
6.2,128.180941,37.940754,6857.370892800001,42.682,-5.951,0.782,1.0
6.2166,128.180941,37.940802,6856.7631216,44.607,-6.033,0.742,1.0
6.2333,128.18094,37.94085,6856.1532168,46.572,-6.113,0.701,1.0
6.25,128.18094,37.940898,6855.5405688,48.576,-6.189,0.659,1.0
6.2666,128.180939,37.940946,6854.925482400001,50.617,-6.263,0.618,1.0
6.2833,128.180939,37.940994,6854.3076528,52.695,-6.333,0.575,1.0
6.3,128.180939,37.941041,6853.6873848,54.809,-6.4,0.533,1.0
6.3166,128.180938,37.941089,6853.0640688,56.957,-6.465,0.49,1.0
6.3333,128.180938,37.941137,6852.4380096,59.139,-6.527,0.447,1.0
6.35,128.180937,37.941185,6851.8092072,61.354,-6.586,0.404,1.0
6.3666,128.180937,37.941233,6851.1776616,63.601,-6.643,0.361,1.0
6.3833,128.180937,37.941281,6850.543372800001,65.878,-6.697,0.317,1.0
6.4,128.180936,37.941329,6849.906036,68.186,-6.748,0.273,1.0
6.4166,128.180936,37.941377,6849.2656512,70.522,-6.798,0.23,1.0
6.4333,128.180935,37.941425,6848.6228280000005,72.887,-6.844,0.186,1.0
6.45,128.180935,37.941473,6847.976956800001,75.28,-6.889,0.143,1.0
6.4666,128.180934,37.941521,6847.3280376,77.699,-6.931,0.099,1.0
6.4833,128.180934,37.941569,6846.6763752,80.144,-6.971,0.056,1.0
6.5,128.180934,37.941617,6846.0219696,82.614,-7.009,0.013,1.0
6.5166,128.180933,37.941665,6845.3648207999995,85.108,-7.045,359.971,1.0
6.5333,128.180933,37.941713,6844.704624000001,87.626,-7.079,359.929,1.0
6.55,128.180932,37.941761,6844.0419888,90.166,-7.111,359.887,1.0
6.5666,128.180932,37.94181,6843.376305600001,92.729,-7.141,359.846,1.0
6.5833,128.180931,37.941858,6842.708184000001,95.312,-7.169,359.805,1.0
6.6,128.180931,37.941906,6842.037319200001,97.916,-7.195,359.765,1.0
6.6166,128.18093,37.941954,6841.3640159999995,100.54,-7.22,359.725,1.0
6.6333,128.18093,37.942002,6840.6879696000005,103.182,-7.243,359.686,1.0
6.65,128.180929,37.94205,6840.00918,105.843,-7.265,359.648,1.0
6.6666,128.180929,37.942099,6839.328256800001,108.521,-7.285,359.61,1.0
6.6833,128.180928,37.942147,6838.6448952,111.216,-7.304,359.573,1.0
6.7,128.180928,37.942195,6837.959400000001,113.927,-7.321,359.537,1.0
6.7166,128.180927,37.942244,6837.2714664,116.653,-7.337,359.501,1.0
6.7333,128.180927,37.942292,6836.5810944,119.394,-7.352,359.466,1.0
6.75,128.180926,37.94234,6835.8888936,122.15,-7.365,359.432,1.0
6.7666,128.180925,37.942389,6835.1945592,124.919,-7.378,359.398,1.0
6.7833,128.180925,37.942437,6834.4980912,127.701,-7.389,359.365,1.0
6.8,128.180924,37.942485,6833.7997944,130.496,-7.4,359.333,1.0
6.8166,128.180924,37.942534,6833.099364000001,133.303,-7.409,359.301,1.0
6.8333,128.180923,37.942582,6832.3974096,136.122,-7.417,359.27,1.0
6.85,128.180922,37.942631,6831.6936264000005,138.952,-7.425,359.239,1.0
6.8666,128.180922,37.942679,6830.988014400001,141.793,-7.431,359.209,1.0
6.8833,128.180921,37.942728,6830.280878400001,144.644,-7.436,359.18,1.0
6.9,128.18092,37.942776,6829.572218400001,147.504,-7.441,359.151,1.0
6.9166,128.18092,37.942825,6828.8620344,150.374,-7.444,359.123,1.0
6.9333,128.180919,37.942873,6828.148192800001,153.036,-7.434,359.12,1.0
6.95,128.180918,37.942922,6827.4322176000005,155.497,-7.412,359.141,1.0
6.9666,128.180918,37.94297,6826.713804,157.749,-7.384,359.178,1.0
6.9833,128.180917,37.943019,6825.992342400001,159.787,-7.355,359.221,1.0
7.0,128.180916,37.943068,6825.267528,161.61,-7.328,359.264,1.0
7.0166,128.180916,37.943116,6824.5393608,163.225,-7.304,359.307,1.0
7.0333,128.180915,37.943165,6823.807536,164.641,-7.284,359.348,1.0
7.05,128.180914,37.943213,6823.071444,165.866,-7.268,359.389,1.0
7.0666,128.180914,37.943262,6822.3310848,166.91,-7.256,359.428,1.0
7.0833,128.180913,37.943311,6821.5861536,167.782,-7.248,359.468,1.0
7.1,128.180912,37.943359,6820.8360408,168.488,-7.244,359.507,1.0
7.1166,128.180912,37.943408,6820.080746400001,169.036,-7.243,359.546,1.0
7.1333,128.180911,37.943457,6819.3202704000005,169.434,-7.246,359.584,1.0
7.15,128.18091,37.943505,6818.5536984,169.687,-7.251,359.622,1.0
7.1666,128.18091,37.943554,6817.7810304,169.802,-7.259,359.66,1.0
7.1833,128.180909,37.943603,6817.0019616,169.785,-7.27,359.697,1.0
7.2,128.180909,37.943651,6816.2164920000005,169.641,-7.284,359.733,1.0
7.2166,128.180908,37.9437,6815.4240119999995,169.376,-7.3,359.769,1.0
7.2333,128.180908,37.943749,6814.6251312,168.996,-7.318,359.804,1.0
7.25,128.180907,37.943797,6813.8198496,168.506,-7.338,359.839,1.0
7.2666,128.180906,37.943846,6813.008472,167.911,-7.36,359.874,1.0
7.2833,128.180906,37.943895,6812.1903888,167.215,-7.383,359.907,1.0
7.3,128.180905,37.943943,6811.366514400001,166.423,-7.407,359.941,1.0
7.3166,128.180905,37.943992,6810.5359344,165.54,-7.433,359.974,1.0
7.3333,128.180904,37.944041,6809.6995632,164.57,-7.459,0.007,1.0
7.35,128.180904,37.944089,6808.857096000001,163.518,-7.486,0.039,1.0
7.3666,128.180903,37.944138,6808.0085328000005,162.387,-7.513,0.072,1.0
7.3833,128.180903,37.944187,6807.1538736,161.182,-7.541,0.104,1.0
7.4,128.180903,37.944235,6806.293118400001,159.906,-7.569,0.135,1.0
7.4166,128.180902,37.944284,6805.426572,158.563,-7.597,0.167,1.0
7.4333,128.180902,37.944332,6804.5542344,157.156,-7.624,0.198,1.0
7.45,128.180901,37.944381,6803.675800800001,155.69,-7.652,0.229,1.0
7.4666,128.180901,37.94443,6802.7918808,154.167,-7.678,0.259,1.0
7.4833,128.180901,37.944478,6801.901864800001,152.591,-7.705,0.29,1.0
7.5,128.1809,37.944527,6801.0063624,150.965,-7.73,0.319,1.0
7.5166,128.1809,37.944576,6800.104764000001,149.291,-7.755,0.349,1.0
7.5333,128.1809,37.944624,6799.197984000001,147.574,-7.779,0.378,1.0
7.55,128.1809,37.944673,6798.2854128,145.815,-7.802,0.407,1.0
7.5666,128.180899,37.944722,6797.367355200001,144.017,-7.825,0.435,1.0
7.5833,128.180899,37.94477,6796.443506400001,142.183,-7.846,0.462,1.0
7.6,128.180899,37.944819,6795.514476,140.316,-7.866,0.489,1.0
7.6166,128.180899,37.944867,6794.5799592,138.418,-7.884,0.515,1.0
7.6333,128.180899,37.944916,6793.640260800001,136.49,-7.902,0.54,1.0
7.65,128.180899,37.944965,6792.6953808,134.536,-7.919,0.564,1.0
7.6666,128.180899,37.945013,6791.7453192,132.558,-7.934,0.587,1.0
7.6833,128.180899,37.945062,6790.790076,130.557,-7.948,0.609,1.0
7.7,128.180899,37.945111,6789.829651200001,128.535,-7.961,0.63,1.0
7.7166,128.180899,37.945159,6788.8646544,126.494,-7.973,0.65,1.0
7.7333,128.180899,37.945208,6787.8947808,124.437,-7.984,0.668,1.0
7.75,128.180899,37.945256,6786.9203352,122.364,-7.994,0.685,1.0
7.7666,128.1809,37.945305,6785.9410128,120.276,-8.003,0.7,1.0
7.7833,128.1809,37.945354,6784.9574232,118.177,-8.011,0.714,1.0
7.8,128.1809,37.945402,6783.9695664,116.066,-8.018,0.726,1.0
7.8166,128.180901,37.945451,6782.977442400001,113.945,-8.025,0.737,1.0
7.8333,128.180901,37.945499,6781.981356000001,111.816,-8.031,0.746,1.0
7.85,128.180902,37.945548,6780.981612,109.679,-8.036,0.753,1.0
7.8666,128.180902,37.945597,6779.977905600001,107.536,-8.041,0.758,1.0
7.8833,128.180903,37.945645,6778.970541600001,105.387,-8.046,0.762,1.0
7.9,128.180903,37.945694,6777.959824800001,103.234,-8.05,0.764,1.0
7.9166,128.180904,37.945743,6776.94606,101.077,-8.054,0.763,1.0
7.9333,128.180905,37.945791,6775.9313808,99.133,-8.09,0.772,1.0
7.95,128.180906,37.94584,6774.9136536000005,97.393,-8.157,0.808,1.0
7.9666,128.180907,37.945889,6773.893183200001,95.864,-8.246,0.888,1.0
7.9833,128.180907,37.945937,6772.8699696,94.55,-8.345,1.03,1.0
8.0,128.180908,37.945986,6771.8443176,93.448,-8.447,1.247,1.0
8.0166,128.18091,37.946034,6770.8156176,92.55,-8.548,1.55,1.0
8.0333,128.180911,37.946083,6769.784784000001,91.843,-8.647,1.947,1.0
8.05,128.180912,37.946132,6768.7512072,91.319,-8.743,2.422,1.0
8.0666,128.180913,37.94618,6767.715192000001,90.97,-8.835,2.958,1.0
8.0833,128.180914,37.946229,6766.676433600001,90.788,-8.922,3.535,1.0
8.1,128.180916,37.946278,6765.635236800001,90.766,-9.005,4.13,1.0
8.1166,128.180917,37.946326,6764.5912968,90.898,-9.084,4.72,1.0
8.1333,128.180919,37.946375,6763.544918400001,91.177,-9.162,5.284,1.0
8.15,128.180921,37.946424,6762.495796800001,91.598,-9.238,5.8,1.0
8.1666,128.180923,37.946473,6761.4442368,92.154,-9.313,6.246,1.0
8.1833,128.180924,37.946521,6760.3896288000005,92.841,-9.389,6.61,1.0
8.2,128.180926,37.94657,6759.3325824,93.648,-9.464,6.908,1.0
8.2166,128.180928,37.946619,6758.2724880000005,94.568,-9.541,7.155,1.0
8.2333,128.18093,37.946668,6757.2093456,95.595,-9.618,7.356,1.0
8.25,128.180933,37.946716,6756.1431552,96.723,-9.698,7.523,1.0
8.2666,128.180935,37.946765,6755.073612,97.946,-9.779,7.667,1.0
8.2833,128.180937,37.946814,6754.000716,99.26,-9.863,7.798,1.0
8.3,128.18094,37.946863,6752.9244672,100.662,-9.95,7.921,1.0
8.3166,128.180942,37.946911,6751.844256,102.143,-10.041,8.039,1.0
8.3333,128.180945,37.94696,6750.7597776,103.694,-10.135,8.153,1.0
8.35,128.180948,37.947009,6749.6713368,105.304,-10.231,8.264,1.0
8.3666,128.18095,37.947058,6748.578324000001,106.964,-10.33,8.372,1.0
8.3833,128.180953,37.947107,6747.4804343999995,108.664,-10.432,8.48,1.0
8.4,128.180956,37.947155,6746.377668,110.398,-10.538,8.586,1.0
8.4166,128.18096,37.947204,6745.269720000001,112.16,-10.647,8.692,1.0
8.4333,128.180963,37.947253,6744.155676,113.902,-10.764,8.812,1.0
8.45,128.180966,37.947302,6743.0358408,115.622,-10.89,8.946,1.0
8.4666,128.18097,37.947351,6741.9096048,117.322,-11.024,9.088,1.0
8.4833,128.180973,37.947399,6740.7766632,119.004,-11.166,9.233,1.0
8.5,128.180977,37.947448,6739.6373207999995,120.67,-11.315,9.378,1.0
8.5166,128.180981,37.947497,6738.4912728,122.325,-11.471,9.521,1.0
8.5333,128.180985,37.947546,6737.3369952,123.903,-11.639,9.678,1.0
8.55,128.180989,37.947594,6736.174488000001,125.408,-11.823,9.854,1.0
8.5666,128.180993,37.947643,6735.003751200001,126.848,-12.022,10.043,1.0
8.5833,128.180997,37.947692,6733.8238704000005,128.233,-12.233,10.235,1.0
8.6,128.181001,37.94774,6732.636064800001,129.575,-12.453,10.425,1.0
8.6166,128.181006,37.947789,6731.438810400001,130.88,-12.68,10.608,1.0
8.6333,128.18101,37.947838,6730.231497600001,132.111,-12.92,10.799,1.0
8.65,128.181015,37.947886,6729.0138216000005,133.275,-13.173,10.996,1.0
8.6666,128.18102,37.947935,6727.7857824,134.381,-13.435,11.193,1.0
8.6833,128.181025,37.947983,6726.54738,135.441,-13.704,11.386,1.0
8.7,128.18103,37.948032,6725.298614400001,136.464,-13.976,11.571,1.0
8.7166,128.181035,37.94808,6724.0391808,137.456,-14.25,11.746,1.0
8.7333,128.18104,37.948129,6722.7675552,138.392,-14.523,11.914,1.0
8.75,128.181046,37.948177,6721.4837376000005,139.28,-14.793,12.076,1.0
8.7666,128.181051,37.948226,6720.1883376000005,140.125,-15.062,12.23,1.0
8.7833,128.181057,37.948274,6718.8813552,140.935,-15.33,12.376,1.0
8.8,128.181062,37.948323,6717.561876,141.716,-15.596,12.513,1.0
8.8166,128.181068,37.948371,6716.230509600001,142.473,-15.862,12.642,1.0
8.8333,128.181074,37.948419,6714.885732000001,143.193,-16.126,12.765,1.0
8.85,128.18108,37.948468,6713.5281528,143.881,-16.387,12.883,1.0
8.8666,128.181086,37.948516,6712.1580768,144.541,-16.647,12.996,1.0
8.8833,128.181092,37.948564,6710.7748944,145.178,-16.905,13.102,1.0
8.9,128.181099,37.948612,6709.378605600001,145.797,-17.162,13.203,1.0
8.9166,128.181105,37.94866,6707.968905600001,146.399,-17.417,13.298,1.0
8.9333,128.181111,37.948708,6706.5473184,147.058,-17.674,13.383,1.0
8.95,128.181118,37.948757,6705.1129296,147.776,-17.933,13.457,1.0
8.9666,128.181125,37.948805,6703.666044,148.547,-18.192,13.523,1.0
8.9833,128.181131,37.948853,6702.2069664,149.365,-18.45,13.583,1.0
9.0,128.181138,37.948901,6700.7353920000005,150.226,-18.706,13.64,1.0
9.0166,128.181145,37.948949,6699.2504064,151.121,-18.96,13.692,1.0
9.0333,128.181152,37.948997,6697.752009600001,152.006,-19.211,13.744,1.0
9.05,128.181159,37.949044,6696.239592000001,152.877,-19.46,13.795,1.0
9.0666,128.181166,37.949092,6694.7128488,153.732,-19.707,13.844,1.0
9.0833,128.181173,37.94914,6693.17178,154.572,-19.954,13.889,1.0
9.1,128.181181,37.949188,6691.6163856,155.398,-20.201,13.929,1.0
9.1166,128.181188,37.949236,6690.046665600001,156.213,-20.448,13.964,1.0
9.1333,128.181195,37.949283,6688.461400800001,156.978,-20.694,13.998,1.0
9.15,128.181203,37.949331,6686.8605912,157.694,-20.939,14.032,1.0
9.1666,128.18121,37.949378,6685.2442368,158.368,-21.185,14.063,1.0
9.1833,128.181218,37.949426,6683.6126424,159.007,-21.431,14.09,1.0
9.2,128.181226,37.949474,6681.965808,159.615,-21.677,14.113,1.0
9.2166,128.181233,37.949521,6680.303428800001,160.198,-21.924,14.132,1.0
9.2333,128.181241,37.949568,6678.6248952000005,160.738,-22.17,14.149,1.0
9.25,128.181249,37.949616,6676.9302072,161.239,-22.415,14.165,1.0
9.2666,128.181257,37.949663,6675.219974400001,161.707,-22.66,14.178,1.0
9.2833,128.181265,37.94971,6673.493892,162.147,-22.905,14.188,1.0
9.3,128.181273,37.949757,6671.7522648,162.564,-23.149,14.195,1.0
9.3166,128.181281,37.949805,6669.994788000001,162.963,-23.392,14.199,1.0
9.3333,128.181289,37.949852,6668.220852,163.335,-23.634,14.201,1.0
9.35,128.181297,37.949899,6666.4310663999995,163.685,-23.875,14.201,1.0
9.3666,128.181306,37.949946,6664.6254312,164.017,-24.114,14.199,1.0
9.3833,128.181314,37.949993,6662.8039464,164.332,-24.352,14.196,1.0
9.4,128.181322,37.95004,6660.9663072,164.634,-24.589,14.19,1.0
9.4166,128.181331,37.950086,6659.113123200001,164.925,-24.824,14.183,1.0
9.4333,128.181339,37.950133,6657.24348,165.205,-25.058,14.174,1.0
9.45,128.181347,37.95018,6655.357987200001,165.474,-25.29,14.163,1.0
9.4666,128.181356,37.950227,6653.4566448000005,165.736,-25.52,14.15,1.0
9.4833,128.181364,37.950273,6651.539148,165.99,-25.75,14.136,1.0
9.5,128.181373,37.95032,6649.605496800001,166.238,-25.977,14.121,1.0
9.5166,128.181382,37.950366,6647.655996,166.481,-26.203,14.105,1.0
9.5333,128.18139,37.950413,6645.690340800001,166.719,-26.428,14.087,1.0
9.55,128.181399,37.950459,6643.7085312,166.954,-26.651,14.068,1.0
9.5666,128.181408,37.950506,6641.7105672,167.185,-26.873,14.048,1.0
9.5833,128.181417,37.950552,6639.6967536,167.413,-27.094,14.027,1.0
9.6,128.181425,37.950598,6637.6667856,167.638,-27.313,14.006,1.0
9.6166,128.181434,37.950644,6635.6206632,167.861,-27.531,13.983,1.0
9.6333,128.181443,37.95069,6633.5583864,168.082,-27.748,13.96,1.0
9.65,128.181452,37.950737,6631.4799552,168.301,-27.964,13.935,1.0
9.6666,128.181461,37.950783,6629.385369600001,168.518,-28.179,13.909,1.0
9.6833,128.18147,37.950828,6627.274934399999,168.734,-28.392,13.883,1.0
9.7,128.181479,37.950874,6625.14804,168.949,-28.605,13.856,1.0
9.7166,128.181488,37.95092,6623.0049912,169.162,-28.817,13.829,1.0
9.7333,128.181497,37.950966,6620.8457880000005,169.375,-29.028,13.801,1.0
9.75,128.181506,37.951012,6618.6704304,169.586,-29.238,13.772,1.0
9.7666,128.181515,37.951057,6616.4789184,169.797,-29.447,13.743,1.0
9.7833,128.181524,37.951103,6614.271556800001,170.007,-29.655,13.713,1.0
9.8,128.181534,37.951148,6612.047736,170.216,-29.863,13.683,1.0
9.8166,128.181543,37.951194,6609.8074560000005,170.423,-30.069,13.653,1.0
9.8333,128.181552,37.951239,6607.5513264,170.63,-30.275,13.622,1.0
9.85,128.181561,37.951285,6605.2790424,170.835,-30.48,13.591,1.0
9.8666,128.18157,37.95133,6602.9902992,171.039,-30.685,13.56,1.0
9.8833,128.18158,37.951375,6600.6857064000005,171.242,-30.889,13.529,1.0
9.9,128.181589,37.95142,6598.3646544,171.443,-31.092,13.497,1.0
9.9166,128.181598,37.951465,6596.027448,171.643,-31.295,13.465,1.0
9.9333,128.181608,37.951511,6593.674392000001,171.841,-31.497,13.433,1.0
9.95,128.181617,37.951555,6591.3048768,172.038,-31.699,13.4,1.0
9.9666,128.181626,37.9516,6588.9192072,172.234,-31.9,13.367,1.0
9.9833,128.181636,37.951645,6586.517383200001,172.429,-32.101,13.334,1.0
10.0,128.181645,37.95169,6584.0994048,172.622,-32.301,13.301,1.0
10.0166,128.181654,37.951735,6581.665272,172.814,-32.5,13.267,1.0
10.0333,128.181664,37.951779,6579.2149848,173.004,-32.699,13.233,1.0
10.05,128.181673,37.951824,6576.748543199999,173.192,-32.898,13.199,1.0
10.0666,128.181683,37.951868,6574.2659472000005,173.378,-33.096,13.164,1.0
10.0833,128.181692,37.951913,6571.7671968,173.563,-33.294,13.13,1.0
10.1,128.181702,37.951957,6569.252596800001,173.746,-33.491,13.095,1.0
10.1166,128.181711,37.952002,6566.7215376,173.928,-33.688,13.06,1.0
10.1333,128.181721,37.952046,6564.1743240000005,174.107,-33.885,13.024,1.0
10.15,128.18173,37.95209,6561.6112608,174.284,-34.081,12.989,1.0
10.1666,128.181739,37.952134,6559.0320432,174.459,-34.276,12.953,1.0
10.1833,128.181749,37.952178,6556.4366712,174.632,-34.472,12.917,1.0
10.2,128.181758,37.952222,6553.8251448,174.803,-34.667,12.881,1.0
10.2166,128.181768,37.952266,6551.197768800001,174.973,-34.861,12.844,1.0
10.2333,128.181777,37.95231,6548.554238400001,175.14,-35.056,12.808,1.0
10.25,128.181787,37.952354,6545.8945536,175.305,-35.25,12.772,1.0
10.2666,128.181796,37.952397,6543.219019200001,175.468,-35.443,12.735,1.0
10.2833,128.181806,37.952441,6540.5273304,175.629,-35.636,12.699,1.0
10.3,128.181816,37.952484,6537.8194872,175.789,-35.829,12.662,1.0
10.3166,128.181825,37.952528,6535.0960992,175.946,-36.022,12.626,1.0
10.3333,128.181835,37.952571,6532.3562520000005,176.1,-36.214,12.589,1.0
10.35,128.181844,37.952614,6529.600555200001,176.252,-36.406,12.553,1.0
10.3666,128.181854,37.952658,6526.8290088,176.401,-36.598,12.517,1.0
10.3833,128.181863,37.952701,6524.0416128,176.548,-36.79,12.481,1.0
10.4,128.181873,37.952744,6521.2380624,176.692,-36.981,12.445,1.0
10.4166,128.181882,37.952787,6518.4186624,176.833,-37.172,12.409,1.0
10.4333,128.181892,37.95283,6515.583108,176.972,-37.362,12.373,1.0
10.45,128.181901,37.952873,6512.732008800001,177.107,-37.553,12.338,1.0
10.4666,128.181911,37.952916,6509.8647552,177.239,-37.743,12.303,1.0
10.4833,128.18192,37.952958,6506.981956800001,177.368,-37.933,12.268,1.0
10.5,128.18193,37.953001,6504.083004,177.495,-38.122,12.232,1.0
10.5166,128.181939,37.953044,6501.168506400001,177.618,-38.312,12.197,1.0
10.5333,128.181948,37.953086,6498.2378544,177.739,-38.501,12.162,1.0
10.55,128.181958,37.953128,6495.2916576,177.857,-38.69,12.127,1.0
10.5666,128.181967,37.953171,6492.329611200001,177.972,-38.879,12.092,1.0
10.5833,128.181977,37.953213,6489.352020000001,178.084,-39.067,12.058,1.0
10.6,128.181986,37.953255,6486.3582744000005,178.193,-39.256,12.023,1.0
10.6166,128.181996,37.953297,6483.3492888,178.301,-39.444,11.989,1.0
10.6333,128.182005,37.953339,6480.3244536,178.405,-39.632,11.954,1.0
10.65,128.182015,37.953381,6477.283768800001,178.508,-39.82,11.92,1.0
10.6666,128.182024,37.953423,6474.2275392,178.608,-40.008,11.886,1.0
10.6833,128.182033,37.953465,6471.155764800001,178.706,-40.195,11.852,1.0
10.7,128.182043,37.953507,6468.0681408,178.802,-40.382,11.818,1.0
10.7166,128.182052,37.953548,6464.9652768000005,178.896,-40.569,11.784,1.0
10.7333,128.182061,37.95359,6461.846563200001,178.988,-40.756,11.75,1.0
10.75,128.182071,37.953631,6458.7126096,179.078,-40.943,11.716,1.0
10.7666,128.18208,37.953673,6455.562806400001,179.167,-41.13,11.683,1.0
10.7833,128.182089,37.953714,6452.397763200001,179.254,-41.316,11.65,1.0
10.8,128.182099,37.953755,6449.2171751999995,179.34,-41.503,11.616,1.0
10.8166,128.182108,37.953796,6446.021042400001,179.423,-41.689,11.583,1.0
10.8333,128.182117,37.953837,6442.8093648,179.506,-41.875,11.549,1.0
10.85,128.182126,37.953878,6439.582752000001,179.587,-42.061,11.516,1.0
10.8666,128.182136,37.953919,6436.3402896,179.666,-42.247,11.483,1.0
10.8833,128.182145,37.95396,6433.0825872000005,179.744,-42.432,11.451,1.0
10.9,128.182154,37.954001,6429.809644800001,179.821,-42.618,11.418,1.0
10.9166,128.182163,37.954041,6426.5214624,179.897,-42.803,11.385,1.0
10.9333,128.182172,37.954082,6423.2177352,179.971,-42.989,11.352,1.0
10.95,128.182182,37.954122,6419.899072800001,-179.955,-43.174,11.319,1.0
10.9666,128.182191,37.954163,6416.564865600001,-179.883,-43.359,11.287,1.0
10.9833,128.1822,37.954203,6413.215723200001,-179.812,-43.544,11.255,1.0
11.0,128.182209,37.954243,6409.851036,-179.742,-43.729,11.222,1.0
11.0166,128.182218,37.954283,6406.4714136,-179.674,-43.914,11.19,1.0
11.0333,128.182227,37.954323,6403.076551200001,-179.606,-44.099,11.157,1.0
11.05,128.182236,37.954363,6399.6667536,-179.539,-44.283,11.125,1.0
11.0666,128.182245,37.954403,6396.2417159999995,-179.474,-44.468,11.093,1.0
11.0833,128.182254,37.954443,6392.801438400001,-179.409,-44.653,11.061,1.0
11.1,128.182263,37.954482,6389.3465304,-179.346,-44.837,11.029,1.0
11.1166,128.182272,37.954522,6385.876077600001,-179.283,-45.022,10.997,1.0
11.1333,128.182281,37.954561,6382.3909944,-179.221,-45.206,10.965,1.0
11.15,128.18229,37.954601,6378.890976,-179.161,-45.39,10.934,1.0
11.1666,128.182299,37.95464,6375.3757176,-179.101,-45.574,10.902,1.0
11.1833,128.182307,37.954679,6371.845828800001,-179.042,-45.759,10.87,1.0
11.2,128.182316,37.954718,6368.300700000001,-178.984,-45.943,10.838,1.0
11.2166,128.182325,37.954757,6364.7409408,-178.927,-46.127,10.807,1.0
11.2333,128.182334,37.954796,6361.166551200001,-178.87,-46.311,10.775,1.0
11.25,128.182343,37.954835,6357.5769216,-178.815,-46.495,10.743,1.0
11.2666,128.182351,37.954874,6353.9726616,-178.76,-46.679,10.711,1.0
11.2833,128.18236,37.954912,6350.3537712,-178.706,-46.863,10.68,1.0
11.3,128.182369,37.954951,6346.719945600001,-178.652,-47.047,10.648,1.0
11.3166,128.182377,37.954989,6343.0714896,-178.6,-47.23,10.616,1.0
11.3333,128.182386,37.955028,6339.4084032,-178.548,-47.414,10.585,1.0
11.35,128.182395,37.955066,6335.7306864,-178.497,-47.598,10.553,1.0
11.3666,128.182403,37.955104,6332.0380344,-178.446,-47.782,10.521,1.0
11.3833,128.182412,37.955142,6328.331056800001,-178.396,-47.965,10.49,1.0
11.4,128.18242,37.95518,6324.6094488,-178.347,-48.149,10.458,1.0
11.4166,128.182429,37.955218,6320.873515200001,-178.298,-48.333,10.426,1.0
11.4333,128.182437,37.955256,6317.1226464,-178.25,-48.516,10.394,1.0
11.45,128.182446,37.955293,6313.357452000001,-178.203,-48.7,10.363,1.0
11.4666,128.182454,37.955331,6309.577932,-178.156,-48.884,10.331,1.0
11.4833,128.182463,37.955368,6305.7837816,-178.11,-49.067,10.299,1.0
11.5,128.182471,37.955406,6301.975305600001,-178.064,-49.251,10.267,1.0
11.5166,128.18248,37.955443,6298.152504000001,-178.019,-49.434,10.235,1.0
11.5333,128.182488,37.95548,6294.3153768,-177.975,-49.618,10.203,1.0
11.55,128.182496,37.955517,6290.463619200001,-177.931,-49.801,10.172,1.0
11.5666,128.182504,37.955554,6286.5978408,-177.887,-49.985,10.14,1.0
11.5833,128.182513,37.955591,6282.7177368,-177.844,-50.169,10.108,1.0
11.6,128.182521,37.955628,6278.8233072,-177.801,-50.352,10.076,1.0
11.6166,128.182529,37.955665,6274.914856800001,-177.759,-50.536,10.044,1.0
11.6333,128.182537,37.955701,6270.9920808,-177.718,-50.719,10.011,1.0
11.65,128.182545,37.955738,6267.055284000001,-177.677,-50.903,9.979,1.0
11.6666,128.182554,37.955774,6263.1041616,-177.636,-51.086,9.947,1.0
11.6833,128.182562,37.95581,6259.1390184,-177.596,-51.27,9.915,1.0
11.7,128.18257,37.955847,6255.1598544,-177.556,-51.453,9.883,1.0
11.7166,128.182578,37.955883,6251.166669600001,-177.517,-51.637,9.851,1.0
11.7333,128.182586,37.955919,6247.1597688,-177.478,-51.82,9.818,1.0
11.75,128.182594,37.955954,6243.138542400001,-177.439,-52.004,9.786,1.0
11.7666,128.182602,37.95599,6239.1032952000005,-177.401,-52.187,9.753,1.0
11.7833,128.182609,37.956026,6235.054332000001,-177.363,-52.371,9.721,1.0
11.8,128.182617,37.956061,6230.9916528,-177.326,-52.554,9.688,1.0
11.8166,128.182625,37.956097,6226.914648,-177.289,-52.738,9.656,1.0
11.8333,128.182633,37.956132,6222.824232,-177.252,-52.922,9.623,1.0
11.85,128.182641,37.956167,6218.719795200001,-177.215,-53.105,9.59,1.0
11.8666,128.182648,37.956202,6214.601947200001,-177.179,-53.289,9.557,1.0
11.8833,128.182656,37.956237,6210.470078400001,-177.144,-53.472,9.525,1.0
11.9,128.182664,37.956272,6206.3244936,-177.108,-53.656,9.492,1.0
11.9166,128.182671,37.956307,6202.165497600001,-177.073,-53.84,9.458,1.0
11.9333,128.182679,37.956342,6197.9927856,-177.038,-54.023,9.425,1.0
11.95,128.182687,37.956376,6193.8063575999995,-177.003,-54.207,9.392,1.0
11.9666,128.182694,37.956411,6189.6062136,-176.969,-54.391,9.359,1.0
11.9833,128.182702,37.956445,6185.3929632,-176.935,-54.574,9.325,1.0
12.0,128.182709,37.956479,6181.1659968,-176.901,-54.758,9.292,1.0
12.0166,128.182717,37.956513,6176.9256192,-176.867,-54.942,9.258,1.0
12.0333,128.182724,37.956547,6172.6715256,-176.834,-55.126,9.225,1.0
12.05,128.182731,37.956581,6168.4043255999995,-176.8,-55.309,9.191,1.0
12.0666,128.182739,37.956615,6164.123714400001,-176.767,-55.493,9.157,1.0
12.0833,128.182746,37.956649,6159.829996800001,-176.734,-55.677,9.122,1.0
12.1,128.182753,37.956682,6155.5225632,-176.701,-55.861,9.088,1.0
12.1166,128.182761,37.956716,6151.2020232,-176.668,-56.045,9.054,1.0
12.1333,128.182768,37.956749,6146.8683768,-176.635,-56.229,9.019,1.0
12.15,128.182775,37.956782,6142.521624000001,-176.602,-56.413,8.984,1.0
12.1666,128.182782,37.956815,6138.16146,-176.569,-56.597,8.949,1.0
12.1833,128.182789,37.956848,6133.7881896,-176.536,-56.781,8.914,1.0
12.2,128.182796,37.956881,6129.4018128,-176.503,-56.965,8.879,1.0
12.2166,128.182803,37.956914,6125.0026344,-176.47,-57.149,8.843,1.0
12.2333,128.18281,37.956946,6120.5900448,-176.437,-57.333,8.808,1.0
12.25,128.182817,37.956979,6116.1646536,-176.404,-57.517,8.772,1.0
12.2666,128.182824,37.957011,6111.7264608000005,-176.371,-57.701,8.736,1.0
12.2833,128.182831,37.957044,6107.2751616,-176.337,-57.885,8.7,1.0
12.3,128.182838,37.957076,6102.811060800001,-176.304,-58.069,8.663,1.0
12.3166,128.182845,37.957108,6098.3341584,-176.27,-58.253,8.627,1.0
12.3333,128.182852,37.95714,6093.8444544,-176.236,-58.437,8.59,1.0
12.35,128.182858,37.957171,6089.3419488,-176.202,-58.622,8.553,1.0
12.3666,128.182865,37.957203,6084.826641600001,-176.168,-58.806,8.515,1.0
12.3833,128.182872,37.957235,6080.2985328,-176.133,-58.99,8.477,1.0
12.4,128.182878,37.957266,6075.7579272,-176.099,-59.174,8.44,1.0
12.4166,128.182885,37.957297,6071.204824800001,-176.064,-59.359,8.401,1.0
12.4333,128.182892,37.957329,6066.6389208,-176.029,-59.543,8.363,1.0
12.45,128.182898,37.95736,6062.060520000001,-175.993,-59.727,8.324,1.0
12.4666,128.182905,37.957391,6057.4696224,-175.957,-59.912,8.285,1.0
12.4833,128.182911,37.957421,6052.866228000001,-175.92,-60.096,8.246,1.0
12.5,128.182917,37.957452,6048.250336800001,-175.883,-60.281,8.206,1.0
12.5166,128.182924,37.957483,6043.6219488,-175.846,-60.465,8.166,1.0
12.5333,128.18293,37.957513,6038.9813688,-175.808,-60.65,8.125,1.0
12.55,128.182937,37.957544,6034.328596800001,-175.77,-60.834,8.085,1.0
12.5666,128.182943,37.957574,6029.663328000001,-175.731,-61.019,8.043,1.0
12.5833,128.182949,37.957604,6024.9858672,-175.692,-61.203,8.002,1.0
12.6,128.182955,37.957634,6020.2959096,-175.652,-61.388,7.96,1.0
12.6166,128.182961,37.957664,6015.5940648000005,-175.612,-61.573,7.918,1.0
12.6333,128.182967,37.957693,6010.8800280000005,-175.571,-61.757,7.875,1.0
12.65,128.182974,37.957723,6006.154104,-175.53,-61.942,7.832,1.0
12.6666,128.18298,37.957752,6001.415988000001,-175.488,-62.127,7.788,1.0
12.6833,128.182986,37.957782,5996.66568,-175.445,-62.311,7.744,1.0
12.7,128.182992,37.957811,5991.9034848,-175.401,-62.496,7.7,1.0
12.7166,128.182998,37.95784,5987.1294024,-175.357,-62.681,7.655,1.0
12.7333,128.183003,37.957869,5982.3434328,-175.313,-62.866,7.609,1.0
12.75,128.183009,37.957898,5977.545576,-175.267,-63.051,7.563,1.0
12.7666,128.183015,37.957926,5972.7361368,-175.22,-63.235,7.516,1.0
12.7833,128.183021,37.957955,5967.914505600001,-175.173,-63.42,7.469,1.0
12.8,128.183027,37.957983,5963.081292000001,-175.125,-63.605,7.422,1.0
12.8166,128.183032,37.958012,5958.236496,-175.076,-63.79,7.373,1.0
12.8333,128.183038,37.95804,5953.3801176,-175.026,-63.975,7.325,1.0
12.85,128.183044,37.958068,5948.5118520000005,-174.975,-64.16,7.275,1.0
12.8666,128.183049,37.958096,5943.632004,-174.924,-64.345,7.225,1.0
12.8833,128.183055,37.958124,5938.740878400001,-174.871,-64.53,7.174,1.0
12.9,128.18306,37.958151,5933.838170400001,-174.818,-64.715,7.123,1.0
12.9166,128.183066,37.958179,5928.92388,-174.764,-64.899,7.071,1.0
12.9333,128.183071,37.958206,5923.998312,-174.708,-65.084,7.018,1.0
12.95,128.183076,37.958233,5919.0614663999995,-174.652,-65.269,6.964,1.0
12.9666,128.183082,37.95826,5914.113038400001,-174.593,-65.454,6.91,1.0
12.9833,128.183087,37.958287,5909.1536376,-174.534,-65.639,6.854,1.0
13.0,128.183092,37.958314,5904.1826544000005,-174.474,-65.824,6.798,1.0
13.0166,128.183097,37.958341,5899.2006984,-174.413,-66.008,6.742,1.0
13.0333,128.183103,37.958368,5894.207769600001,-174.35,-66.193,6.684,1.0
13.0499,128.183108,37.958394,5889.2032584,-174.286,-66.378,6.625,1.0
13.0666,128.183113,37.95842,5884.188079200001,-174.221,-66.563,6.566,1.0
13.0833,128.183118,37.958446,5879.1616224,-174.154,-66.748,6.505,1.0
13.1,128.183123,37.958472,5874.124497600001,-174.086,-66.933,6.444,1.0
13.1166,128.183128,37.958498,5869.0760952,-174.017,-67.118,6.382,1.0
13.1333,128.183133,37.958524,5864.0170248,-173.947,-67.302,6.319,1.0
13.15,128.183138,37.95855,5858.9469816,-173.875,-67.487,6.254,1.0
13.1666,128.183142,37.958575,5853.866270400001,-173.801,-67.672,6.189,1.0
13.1833,128.183147,37.958601,5848.7745864,-173.726,-67.857,6.122,1.0
13.2,128.183152,37.958626,5843.6722344,-173.649,-68.042,6.054,1.0
13.2166,128.183157,37.958651,5838.559519200001,-173.572,-68.227,5.985,1.0
13.2333,128.183161,37.958676,5833.4358312,-173.492,-68.412,5.915,1.0
13.25,128.183166,37.9587,5828.30178,-173.41,-68.596,5.843,1.0
13.2666,128.18317,37.958725,5823.157060800001,-173.327,-68.781,5.771,1.0
13.2833,128.183175,37.95875,5818.001978400001,-173.242,-68.966,5.696,1.0
13.3,128.18318,37.958774,5812.836228,-173.155,-69.151,5.621,1.0
13.3166,128.183184,37.958798,5807.6604192,-173.067,-69.336,5.544,1.0
13.3333,128.183188,37.958822,5802.473942400001,-172.977,-69.521,5.466,1.0
13.35,128.183193,37.958846,5797.2774072,-172.885,-69.705,5.385,1.0
13.3666,128.183197,37.95887,5792.0705088,-172.79,-69.89,5.304,1.0
13.3833,128.183201,37.958894,5786.853247200001,-172.693,-70.075,5.22,1.0
13.4,128.183205,37.958917,5781.6262320000005,-172.595,-70.26,5.136,1.0
13.4166,128.18321,37.958941,5776.3888536,-172.495,-70.445,5.049,1.0
13.4333,128.183214,37.958964,5771.1414168,-172.392,-70.63,4.961,1.0
13.45,128.183218,37.958987,5765.8839216,-172.287,-70.814,4.871,1.0
13.4666,128.183222,37.95901,5760.616368,-172.18,-70.999,4.778,1.0
13.4833,128.183226,37.959033,5755.339060800001,-172.071,-71.184,4.684,1.0
13.5,128.18323,37.959055,5750.052000000001,-171.959,-71.369,4.588,1.0
13.5166,128.183234,37.959078,5744.7548808,-171.845,-71.553,4.49,1.0
13.5333,128.183238,37.9591,5739.448008,-171.728,-71.738,4.39,1.0
13.55,128.183241,37.959122,5734.1313816,-171.609,-71.923,4.287,1.0
13.5666,128.183245,37.959144,5728.8053064000005,-171.487,-72.107,4.182,1.0
13.5833,128.183249,37.959166,5723.469477600001,-171.362,-72.292,4.075,1.0
13.6,128.183253,37.959188,5718.1238952,-171.234,-72.476,3.965,1.0
13.6166,128.183256,37.95921,5712.7691688,-171.104,-72.661,3.853,1.0
13.6333,128.18326,37.959231,5707.404688799999,-170.971,-72.845,3.738,1.0
13.65,128.183263,37.959252,5702.030760000001,-170.834,-73.03,3.621,1.0
13.6666,128.183267,37.959273,5696.6473824,-170.695,-73.214,3.5,1.0
13.6833,128.18327,37.959294,5691.254860800001,-170.552,-73.399,3.377,1.0
13.7,128.183274,37.959315,5685.8528904,-170.406,-73.583,3.25,1.0
13.7166,128.183277,37.959336,5680.4420808,-170.257,-73.767,3.121,1.0
13.7333,128.18328,37.959357,5675.0218224,-170.104,-73.952,2.989,1.0
13.75,128.183284,37.959377,5669.592420000001,-169.947,-74.136,2.852,1.0
13.7666,128.183287,37.959397,5664.1538736,-169.786,-74.32,2.712,1.0
13.7833,128.18329,37.959417,5658.706488000001,-169.621,-74.504,2.569,1.0
13.8,128.183293,37.959437,5653.2499584,-169.452,-74.688,2.422,1.0
13.8166,128.183296,37.959457,5647.7845896,-169.28,-74.872,2.271,1.0
13.8333,128.183299,37.959477,5642.3103816,-169.102,-75.056,2.117,1.0
13.85,128.183302,37.959496,5636.8273344,-168.92,-75.239,1.957,1.0
13.8666,128.183305,37.959516,5631.335448,-168.734,-75.423,1.794,1.0
13.8833,128.183308,37.959535,5625.835027200001,-168.542,-75.607,1.626,1.0
13.9,128.183311,37.959554,5620.3257672,-168.346,-75.79,1.453,1.0
13.9166,128.183313,37.959573,5614.8079728,-168.145,-75.973,1.276,1.0
13.9333,128.183316,37.959592,5609.281644,-167.938,-76.157,1.093,1.0
13.95,128.183319,37.95961,5603.7467808,-167.725,-76.34,0.905,1.0
13.9666,128.183321,37.959629,5598.2036880000005,-167.507,-76.523,0.711,1.0
13.9833,128.183324,37.959647,5592.651756,-167.283,-76.706,0.512,1.0
14.0,128.183326,37.959665,5587.0918992,-167.052,-76.889,0.307,1.0
14.0166,128.183329,37.959683,5581.5238128,-166.816,-77.071,0.096,1.0
14.0333,128.183331,37.959701,5575.9471920000005,-166.572,-77.254,359.878,1.0
14.05,128.183334,37.959718,5570.362646400001,-166.322,-77.436,359.653,1.0
14.0666,128.183336,37.959736,5564.7698712,-166.063,-77.618,359.421,1.0
14.0833,128.183338,37.959753,5559.1688664,-165.798,-77.8,359.182,1.0
14.1,128.18334,37.95977,5553.5602416,-165.524,-77.982,358.935,1.0
14.1166,128.183343,37.959787,5547.943387200001,-165.243,-78.163,358.68,1.0
14.1333,128.183345,37.959804,5542.318608,-164.952,-78.345,358.417,1.0
14.15,128.183347,37.959821,5536.6862088,-164.653,-78.526,358.144,1.0
14.1666,128.183349,37.959838,5531.0458848,-164.344,-78.707,357.863,1.0
14.1833,128.183351,37.959854,5525.3979408000005,-164.025,-78.887,357.571,1.0
14.2,128.183353,37.95987,5519.7423768,-163.695,-79.067,357.27,1.0
14.2166,128.183354,37.959886,5514.079192800001,-163.355,-79.247,356.958,1.0
14.2333,128.183356,37.959902,5508.4083888,-163.004,-79.427,356.635,1.0
14.25,128.183358,37.959918,5502.729964800001,-162.64,-79.607,356.3,1.0
14.2666,128.18336,37.959934,5497.0442256,-162.264,-79.786,355.952,1.0
14.2833,128.183361,37.959949,5491.3511712,-161.875,-79.964,355.591,1.0
14.3,128.183363,37.959964,5485.650801600001,-161.471,-80.142,355.217,1.0
14.3166,128.183364,37.959979,5479.9431168,-161.054,-80.32,354.829,1.0
14.3333,128.183366,37.959994,5474.2281168,-160.621,-80.498,354.425,1.0
14.35,128.183367,37.960009,5468.506106400001,-160.171,-80.675,354.005,1.0
14.3666,128.183369,37.960024,5462.7770856,-159.704,-80.851,353.568,1.0
14.3833,128.18337,37.960038,5457.0407496,-159.219,-81.027,353.113,1.0
14.4,128.183371,37.960053,5451.297708,-158.715,-81.202,352.639,1.0
14.4166,128.183372,37.960067,5445.547656000001,-158.191,-81.377,352.145,1.0
14.4333,128.183373,37.960081,5439.7908984,-157.646,-81.551,351.631,1.0
14.45,128.183375,37.960094,5434.0271304,-157.078,-81.724,351.093,1.0
14.4666,128.183376,37.960108,5428.2569616,-156.486,-81.897,350.532,1.0
14.4833,128.183376,37.960122,5422.479782400001,-155.869,-82.069,349.946,1.0
14.5,128.183377,37.960135,5416.6962023999995,-155.226,-82.24,349.333,1.0
14.5166,128.183378,37.960148,5410.9059168,-154.553,-82.41,348.692,1.0
14.5333,128.183379,37.960161,5405.1092304,-153.851,-82.579,348.02,1.0
14.55,128.18338,37.960174,5399.3061431999995,-153.115,-82.747,347.316,1.0
14.5666,128.18338,37.960187,5393.4966552000005,-152.345,-82.913,346.577,1.0
14.5833,128.183381,37.960199,5387.6810712,-151.539,-83.079,345.802,1.0
