Time,Longitude,Latitude,Altitude,Roll (deg),Pitch (deg),Yaw (deg),Health
0.0,128.181881,37.923646,7000.146528,0.0,-0.003,0.0,1.0
0.0166,128.181881,37.923691,7000.1605488000005,0.0,-0.012,0.0,1.0
0.0333,128.181881,37.923736,7000.172740800001,0.087,-0.024,0.011,1.0
0.05,128.181881,37.923781,7000.183104000001,0.258,-0.037,0.034,1.0
0.0666,128.181881,37.923826,7000.191333600001,0.516,-0.047,0.064,1.0
0.0833,128.181881,37.923871,7000.1989536,0.69,-0.054,0.074,1.0
0.1,128.181881,37.923916,7000.205659200001,0.783,-0.057,0.064,1.0
0.1166,128.181881,37.923961,7000.212060000001,0.789,-0.054,0.039,1.0
0.1333,128.181881,37.924006,7000.218765600001,0.702,-0.045,0.007,1.0
0.15,128.181881,37.924051,7000.225776,0.518,-0.031,359.971,1.0
0.1666,128.181881,37.924096,7000.2337008,0.237,-0.011,359.934,1.0
0.1833,128.181881,37.924141,7000.2431496,-0.137,0.013,359.897,1.0
0.2,128.181881,37.924186,7000.254122400001,-0.603,0.043,359.861,1.0
0.2166,128.181881,37.924231,7000.2672288,-1.157,0.079,359.825,1.0
0.2333,128.181881,37.924276,7000.28064,-1.621,0.121,359.813,1.0
0.25,128.181881,37.924321,7000.294965600001,-1.996,0.167,359.823,1.0
0.2666,128.181881,37.924366,7000.309596,-2.273,0.218,359.849,1.0
0.2833,128.181881,37.924411,7000.3242264,-2.445,0.274,359.883,1.0
0.3,128.181881,37.924456,7000.338856800001,-2.508,0.333,359.92,1.0
0.3166,128.181881,37.924501,7000.3531824,-2.465,0.395,359.958,1.0
0.3333,128.181881,37.924546,7000.3665936,-2.316,0.461,359.995,1.0
0.35,128.181881,37.924591,7000.3787856,-2.066,0.529,0.031,1.0
0.3666,128.181881,37.924636,7000.389758400001,-1.718,0.6,0.066,1.0
0.3833,128.181881,37.924681,7000.399512,-1.278,0.672,0.101,1.0
0.4,128.181881,37.924726,7000.407132,-0.749,0.746,0.134,1.0
0.4166,128.181881,37.924772,7000.4129232000005,-0.134,0.82,0.168,1.0
0.4333,128.181881,37.924817,7000.416276,0.56,0.895,0.2,1.0
0.45,128.181881,37.924862,7000.4171904,1.333,0.971,0.233,1.0
0.4666,128.181881,37.924907,7000.415361599999,2.181,1.045,0.266,1.0
0.4833,128.181881,37.924952,7000.412618400001,2.924,1.121,0.276,1.0
0.5,128.181881,37.924997,7000.4086560000005,3.567,1.197,0.265,1.0
0.5166,128.181881,37.925043,7000.404084000001,4.1,1.273,0.24,1.0
0.5333,128.181881,37.925088,7000.3998168,4.518,1.35,0.209,1.0
0.55,128.181881,37.925133,7000.3955496,4.819,1.426,0.174,1.0
0.5666,128.181881,37.925178,7000.392501600001,5.005,1.501,0.139,1.0
0.5833,128.181881,37.925224,7000.390368,5.077,1.576,0.105,1.0
0.6,128.181881,37.925269,7000.390368,5.041,1.651,0.072,1.0
0.6166,128.181881,37.925314,7000.392501600001,4.9,1.726,0.041,1.0
0.6333,128.181881,37.925359,7000.3970736,4.659,1.8,0.01,1.0
0.65,128.181881,37.925405,7000.4046935999995,4.323,1.873,359.981,1.0
0.6666,128.181881,37.92545,7000.4156664,3.896,1.947,359.952,1.0
0.6833,128.181881,37.925495,7000.430601600001,3.381,2.02,359.923,1.0
0.7,128.181881,37.925541,7000.449804,2.782,2.093,359.895,1.0
0.7166,128.181881,37.925586,7000.4738832,2.103,2.165,359.867,1.0
0.7333,128.181881,37.925631,7000.5025344,1.347,2.237,359.839,1.0
0.75,128.181881,37.925676,7000.5369768,0.518,2.308,359.81,1.0
0.7666,128.181881,37.925722,7000.577210400001,-0.382,2.378,359.781,1.0
0.7833,128.181881,37.925767,7000.6223208,-1.351,2.448,359.751,1.0
0.8,128.181881,37.925812,7000.673222400001,-2.385,2.517,359.721,1.0
0.8166,128.181881,37.925858,7000.7283912,-3.308,2.586,359.711,1.0
0.8333,128.181881,37.925903,7000.788132000001,-4.122,2.654,359.723,1.0
0.85,128.181881,37.925948,7000.8518352,-4.821,2.723,359.748,1.0
0.8666,128.181881,37.925993,7000.9198056000005,-5.391,2.803,359.768,1.0
0.8833,128.181881,37.926039,7000.9929576,-6.015,2.88,359.769,1.0
0.9,128.181882,37.926084,7001.0709864,-6.692,2.95,359.752,1.0
0.9166,128.181882,37.926129,7001.155111200001,-7.43,3.014,359.723,1.0
0.9333,128.181882,37.926175,7001.244722400001,-8.235,3.073,359.686,1.0
0.95,128.181882,37.92622,7001.339820000001,-9.109,3.129,359.647,1.0
0.9666,128.181881,37.926265,7001.4400992,-10.053,3.181,359.605,1.0
0.9833,128.181881,37.926311,7001.546169600001,-11.066,3.23,359.563,1.0
1.0,128.181881,37.926356,7001.6577264,-12.146,3.277,359.52,1.0
1.0166,128.181881,37.926401,7001.774464800001,-13.29,3.321,359.477,1.0
1.0333,128.181881,37.926446,7001.8963848,-14.497,3.363,359.433,1.0
1.05,128.181881,37.926492,7002.0237912,-15.764,3.402,359.389,1.0
1.0666,128.181881,37.926537,7002.156074400001,-17.089,3.438,359.345,1.0
1.0833,128.181881,37.926582,7002.293844,-18.471,3.471,359.3,1.0
1.1,128.181881,37.926628,7002.4358808,-19.907,3.488,359.26,1.0
1.1166,128.18188,37.926673,7002.5824896,-21.395,3.477,359.229,1.0
1.1333,128.18188,37.926718,7002.733060800001,-22.933,3.436,359.209,1.0
1.15,128.18188,37.926763,7002.888204,-24.521,3.373,359.199,1.0
1.1666,128.181879,37.926809,7003.047004800001,-26.156,3.297,359.195,1.0
1.1833,128.181879,37.926854,7003.2094632,-27.838,3.213,359.195,1.0
1.2,128.181879,37.926899,7003.375884000001,-29.566,3.125,359.199,1.0
1.2166,128.181878,37.926945,7003.545048,-31.34,3.038,359.204,1.0
1.2333,128.181878,37.92699,7003.7175648,-33.159,2.952,359.211,1.0
1.25,128.181877,37.927035,7003.892824800001,-35.022,2.869,359.218,1.0
1.2666,128.181877,37.92708,7004.070828000001,-36.927,2.789,359.226,1.0
1.2833,128.181876,37.927126,7004.2509648000005,-38.873,2.713,359.234,1.0
1.3,128.181875,37.927171,7004.4332352,-40.859,2.641,359.242,1.0
1.3166,128.181875,37.927216,7004.6173344,-42.884,2.573,359.249,1.0
1.3333,128.181874,37.927262,7004.8032624,-44.945,2.509,359.257,1.0
1.35,128.181873,37.927307,7004.990409600001,-47.043,2.448,359.264,1.0
1.3666,128.181873,37.927352,7005.1790808000005,-49.174,2.391,359.27,1.0
1.3833,128.181872,37.927397,7005.3683616,-51.339,2.337,359.276,1.0
1.4,128.181871,37.927443,7005.5588616,-53.534,2.286,359.282,1.0
1.4166,128.18187,37.927488,7005.7496664,-55.759,2.238,359.286,1.0
1.4333,128.181869,37.927533,7005.940776,-58.013,2.193,359.29,1.0
1.45,128.181868,37.927579,7006.132190400001,-60.294,2.151,359.294,1.0
1.4666,128.181867,37.927624,7006.3233,-62.602,2.11,359.296,1.0
1.4833,128.181866,37.927669,7006.5141048000005,-64.935,2.072,359.298,1.0
1.5,128.181864,37.927715,7006.7046048,-67.292,2.035,359.3,1.0
1.5166,128.181863,37.92776,7006.8944952,-69.673,2.0,359.3,1.0
1.5333,128.181862,37.927805,7007.0831664,-72.076,1.966,359.3,1.0
1.55,128.181861,37.92785,7007.270923200001,-74.501,1.934,359.299,1.0
1.5666,128.181859,37.927896,7007.457156,-76.947,1.903,359.298,1.0
1.5833,128.181858,37.927941,7007.642169600001,-79.413,1.873,359.296,1.0
1.6,128.181856,37.927986,7007.8253544,-81.898,1.843,359.294,1.0
1.6166,128.181855,37.928032,7008.006405600001,-84.401,1.815,359.291,1.0
1.6333,128.181853,37.928077,7008.1853232,-86.92,1.787,359.287,1.0
1.65,128.181852,37.928122,7008.3621072,-89.456,1.76,359.283,1.0
1.6666,128.18185,37.928168,7008.5364528,-92.008,1.734,359.278,1.0
1.6833,128.181848,37.928213,7008.708055200001,-94.574,1.708,359.274,1.0
1.7,128.181847,37.928258,7008.876914400001,-97.153,1.682,359.268,1.0
1.7166,128.181845,37.928303,7009.0424207999995,-99.744,1.656,359.259,1.0
1.7333,128.181843,37.928349,7009.2048792000005,-102.348,1.629,359.238,1.0
1.75,128.181841,37.928394,7009.3639848,-104.963,1.597,359.202,1.0
1.7666,128.181839,37.928439,7009.519128000001,-107.588,1.56,359.148,1.0
1.7833,128.181837,37.928485,7009.6706136,-110.222,1.514,359.073,1.0
1.8,128.181835,37.92853,7009.817832000001,-112.864,1.459,358.978,1.0
1.8166,128.181833,37.928575,7009.9604784,-115.511,1.392,358.862,1.0
1.8333,128.181831,37.928621,7010.0985528,-118.163,1.311,358.727,1.0
1.85,128.181829,37.928666,7010.2317504,-120.817,1.214,358.573,1.0
1.8666,128.181827,37.928711,7010.3597664,-123.471,1.1,358.402,1.0
1.8833,128.181824,37.928757,7010.4819912,-126.123,0.966,358.215,1.0
1.9,128.181822,37.928802,7010.598120000001,-128.77,0.812,358.015,1.0
1.9166,128.18182,37.928847,7010.707848,-131.412,0.636,357.803,1.0
1.9333,128.181817,37.928893,7010.810565600001,-134.045,0.436,357.581,1.0
1.95,128.181815,37.928938,7010.906272800001,-136.669,0.212,357.351,1.0
1.9666,128.181812,37.928983,7010.993750400001,-139.283,-0.036,357.116,1.0
1.9833,128.18181,37.929029,7011.0733032,-141.886,-0.31,356.879,1.0
2.0,128.181807,37.929074,7011.143712,-144.48,-0.608,356.644,1.0
2.0166,128.181804,37.929119,7011.204672,-147.064,-0.928,356.413,1.0
2.0333,128.181801,37.929165,7011.2558784,-149.639,-1.27,356.189,1.0
2.05,128.181798,37.92921,7011.2967216,-152.205,-1.633,355.975,1.0
2.0666,128.181795,37.929255,7011.3262872000005,-154.764,-2.016,355.772,1.0
2.0833,128.181792,37.929301,7011.34488,-157.304,-2.417,355.582,1.0
2.1,128.181789,37.929346,7011.3525,-159.784,-2.834,355.404,1.0
2.1166,128.181786,37.929391,7011.348537600001,-162.169,-3.258,355.239,1.0
2.1333,128.181783,37.929437,7011.333297600001,-164.429,-3.684,355.089,1.0
2.15,128.18178,37.929482,7011.3064752,-166.541,-4.105,354.954,1.0
2.1666,128.181777,37.929527,7011.2683752,-168.492,-4.52,354.837,1.0
2.1833,128.181774,37.929572,7011.218692800001,-170.273,-4.925,354.736,1.0
2.2,128.18177,37.929618,7011.157428,-171.887,-5.321,354.653,1.0
2.2166,128.181767,37.929663,7011.0848856,-173.341,-5.705,354.586,1.0
2.2333,128.181764,37.929708,7011.0007608000005,-174.642,-6.078,354.536,1.0
2.25,128.181761,37.929754,7010.9053584,-175.799,-6.44,354.501,1.0
2.2666,128.181757,37.929799,7010.7989832,-176.82,-6.791,354.478,1.0
2.2833,128.181754,37.929845,7010.6816352,-177.72,-7.13,354.468,1.0
2.3,128.181751,37.92989,7010.5530096,-178.511,-7.457,354.468,1.0
2.3166,128.181747,37.929935,7010.413716,-179.208,-7.774,354.478,1.0
2.3333,128.181744,37.929981,7010.2631448,-179.823,-8.079,354.496,1.0
2.35,128.181741,37.930026,7010.1003816,179.633,-8.374,354.52,1.0
2.3666,128.181737,37.930071,7009.9257312,179.152,-8.658,354.551,1.0
2.3833,128.181734,37.930117,7009.738279200001,178.723,-8.932,354.587,1.0
2.4,128.181731,37.930162,7009.5383304,178.338,-9.197,354.625,1.0
2.4166,128.181727,37.930207,7009.324970400001,177.99,-9.454,354.666,1.0
2.4333,128.181724,37.930253,7009.0988088,177.674,-9.702,354.709,1.0
2.45,128.18172,37.930298,7008.8589312,177.385,-9.943,354.754,1.0
2.4666,128.181717,37.930344,7008.605642400001,177.12,-10.177,354.8,1.0
2.4833,128.181714,37.930389,7008.338637600001,176.873,-10.404,354.846,1.0
2.5,128.18171,37.930434,7008.0579168,176.642,-10.626,354.892,1.0
2.5166,128.181707,37.93048,7007.7631752,176.425,-10.842,354.938,1.0
2.5333,128.181704,37.930525,7007.454108,176.219,-11.054,354.984,1.0
2.55,128.1817,37.93057,7007.131020000001,176.023,-11.261,355.029,1.0
2.5666,128.181697,37.930616,7006.793911200001,175.836,-11.465,355.073,1.0
2.5833,128.181693,37.930661,7006.4424768,175.656,-11.665,355.117,1.0
2.6,128.18169,37.930706,7006.0767168,175.483,-11.862,355.16,1.0
2.6166,128.181687,37.930752,7005.6963264000005,175.317,-12.056,355.203,1.0
2.6333,128.181683,37.930797,7005.301915200001,175.156,-12.247,355.244,1.0
2.65,128.18168,37.930842,7004.892873600001,175.0,-12.436,355.285,1.0
2.6666,128.181677,37.930888,7004.469506400001,174.85,-12.623,355.326,1.0
2.6833,128.181673,37.930933,7004.031508800001,174.704,-12.808,355.367,1.0
2.7,128.18167,37.930978,7003.5788808,174.564,-12.991,355.407,1.0
2.7166,128.181667,37.931023,7003.1119272000005,174.429,-13.173,355.448,1.0
2.7333,128.181663,37.931069,7002.6303431999995,174.298,-13.353,355.488,1.0
2.75,128.18166,37.931114,7002.1341288,174.171,-13.532,355.529,1.0
2.7666,128.181657,37.931159,7001.6235888,174.049,-13.71,355.569,1.0
2.7833,128.181654,37.931204,7001.0981136,173.931,-13.887,355.61,1.0
2.8,128.18165,37.93125,7000.5583128,173.817,-14.062,355.651,1.0
2.8166,128.181647,37.931295,7000.0035768,173.706,-14.237,355.692,1.0
2.8333,128.181644,37.93134,6999.4345152000005,173.599,-14.411,355.733,1.0
2.85,128.181641,37.931385,6998.8505184000005,173.496,-14.584,355.774,1.0
2.8666,128.181637,37.93143,6998.252196,173.396,-14.756,355.815,1.0
2.8833,128.181634,37.931475,6997.638938400001,173.299,-14.928,355.855,1.0
2.9,128.181631,37.93152,6997.0113552,173.206,-15.099,355.896,1.0
2.9166,128.181628,37.931566,6996.3688368,173.117,-15.269,355.937,1.0
2.9333,128.181625,37.931611,6995.711992800001,173.031,-15.439,355.978,1.0
2.95,128.181622,37.931656,6995.0402136,172.948,-15.609,356.018,1.0
2.9666,128.181618,37.931701,6994.3541088,172.868,-15.778,356.059,1.0
2.9833,128.181615,37.931746,6993.6530688,172.792,-15.947,356.099,1.0
3.0,128.181612,37.931791,6992.9373984,172.719,-16.115,356.139,1.0
3.0166,128.181609,37.931836,6992.2070976,172.65,-16.283,356.179,1.0
3.0333,128.181606,37.931881,6991.4621664,172.583,-16.45,356.22,1.0
3.05,128.181603,37.931926,6990.702909600001,172.521,-16.617,356.259,1.0
3.0666,128.1816,37.931971,6989.9287176,172.461,-16.784,356.299,1.0
3.0833,128.181597,37.932016,6989.1398952,172.404,-16.951,356.339,1.0
3.1,128.181594,37.932061,6988.336442400001,172.351,-17.117,356.378,1.0
3.1166,128.181591,37.932106,6987.5183592,172.301,-17.283,356.418,1.0
3.1333,128.181588,37.932151,6986.6856456000005,172.254,-17.449,356.457,1.0
3.15,128.181585,37.932196,6985.838301600001,172.211,-17.614,356.496,1.0
3.1666,128.181582,37.932241,6984.9763272,172.17,-17.779,356.534,1.0
3.1833,128.181579,37.932285,6984.0997224,172.132,-17.944,356.573,1.0
3.2,128.181576,37.93233,6983.2084872000005,172.098,-18.109,356.611,1.0
3.2166,128.181573,37.932375,6982.3026216,172.066,-18.273,356.649,1.0
3.2333,128.18157,37.93242,6981.3821256,172.037,-18.438,356.687,1.0
3.25,128.181567,37.932465,6980.4469992,172.011,-18.602,356.725,1.0
3.2666,128.181565,37.932509,6979.497242400001,171.988,-18.766,356.762,1.0
3.2833,128.181562,37.932554,6978.533160000001,171.968,-18.93,356.799,1.0
3.3,128.181559,37.932599,6977.5541424,171.95,-19.094,356.836,1.0
3.3166,128.181556,37.932643,6976.5604944,171.934,-19.257,356.873,1.0
3.3333,128.181553,37.932688,6975.552216,171.92,-19.421,356.91,1.0
3.35,128.181551,37.932733,6974.528392800001,171.819,-19.568,356.958,1.0
3.3666,128.181548,37.932777,6973.4899392,171.633,-19.687,357.016,1.0
3.3833,128.181545,37.932822,6972.436245600001,171.361,-19.764,357.077,1.0
3.4,128.181542,37.932867,6971.367312,171.002,-19.786,357.134,1.0
3.4166,128.18154,37.932911,6970.2840528,170.558,-19.743,357.184,1.0
3.4333,128.181537,37.932956,6969.1858584,170.029,-19.634,357.223,1.0
3.45,128.181534,37.933,6968.073033600001,169.416,-19.478,357.253,1.0
3.4666,128.181532,37.933045,6966.9452736,168.719,-19.29,357.275,1.0
3.4833,128.181529,37.933089,6965.802578400001,167.94,-19.089,357.294,1.0
3.5,128.181526,37.933134,6964.6455576,167.076,-18.891,357.311,1.0
3.5166,128.181524,37.933178,6963.474516,166.13,-18.706,357.33,1.0
3.5333,128.181521,37.933222,6962.2900632,165.102,-18.537,357.35,1.0
3.55,128.181519,37.933267,6961.0921992,163.992,-18.386,357.373,1.0
3.5666,128.181516,37.933311,6959.881838400001,162.803,-18.252,357.398,1.0
3.5833,128.181514,37.933355,6958.658676,161.535,-18.135,357.426,1.0
3.6,128.181512,37.9334,6957.4236264,160.192,-18.035,357.456,1.0
3.6166,128.181509,37.933444,6956.1769944,158.776,-17.95,357.49,1.0
3.6333,128.181507,37.933488,6954.91878,157.288,-17.879,357.527,1.0
3.65,128.181505,37.933532,6953.6492880000005,155.73,-17.821,357.567,1.0
3.6666,128.181502,37.933577,6952.369128,154.105,-17.776,357.611,1.0
3.6833,128.1815,37.933621,6951.0783,152.415,-17.742,357.659,1.0
3.7,128.181498,37.933665,6949.7771088,150.663,-17.718,357.711,1.0
3.7166,128.181496,37.933709,6948.4658592000005,148.85,-17.702,357.767,1.0
3.7333,128.181494,37.933753,6947.144856000001,146.979,-17.695,357.827,1.0
3.75,128.181492,37.933798,6945.8140992,145.051,-17.695,357.892,1.0
3.7666,128.18149,37.933842,6944.4741984,143.07,-17.701,357.962,1.0
3.7833,128.181488,37.933886,6943.1251536,141.038,-17.712,358.036,1.0
3.8,128.181486,37.93393,6941.766964800001,138.956,-17.727,358.115,1.0
3.8166,128.181484,37.933974,6940.4005464,136.827,-17.745,358.198,1.0
3.8333,128.181482,37.934018,6939.0252887999995,134.652,-17.766,358.286,1.0
3.85,128.181481,37.934062,6937.642106400001,132.434,-17.789,358.379,1.0
3.8666,128.181479,37.934106,6936.2509992000005,130.176,-17.813,358.475,1.0
3.8833,128.181478,37.93415,6934.852272,127.878,-17.836,358.576,1.0
3.9,128.181476,37.934194,6933.445924800001,125.543,-17.86,358.68,1.0
3.9166,128.181475,37.934239,6932.0322624,123.173,-17.882,358.788,1.0
3.9333,128.181473,37.934283,6930.6118944,120.769,-17.902,358.899,1.0
3.95,128.181472,37.934327,6929.184516,118.334,-17.92,359.012,1.0
3.9666,128.181471,37.934371,6927.750736800001,115.87,-17.936,359.128,1.0
3.9833,128.181469,37.934415,6926.3108616,113.377,-17.948,359.246,1.0
4.0,128.181468,37.934459,6924.8651952,110.858,-17.957,359.366,1.0
4.0166,128.181467,37.934503,6923.413432800001,108.314,-17.962,359.487,1.0
4.0333,128.181466,37.934547,6921.9564887999995,105.747,-17.963,359.608,1.0
4.05,128.181465,37.934591,6920.4943632,103.159,-17.96,359.729,1.0
4.0666,128.181464,37.934635,6919.027665600001,100.55,-17.952,359.85,1.0
4.0833,128.181464,37.934679,6917.5560912,97.923,-17.939,359.97,1.0
4.1,128.181463,37.934723,6916.0805544,95.278,-17.922,0.088,1.0
4.1166,128.181462,37.934767,6914.600750400001,92.617,-17.9,0.204,1.0
4.1333,128.181462,37.934811,6913.1172888,89.94,-17.873,0.318,1.0
4.15,128.181461,37.934855,6911.630779200001,87.25,-17.842,0.428,1.0
4.1666,128.181461,37.934899,6910.1409168,84.547,-17.807,0.536,1.0
4.1833,128.181461,37.934943,6908.6483112000005,81.833,-17.767,0.639,1.0
4.2,128.18146,37.934987,6907.153572,79.107,-17.724,0.738,1.0
4.2166,128.18146,37.935031,6905.6563944,76.372,-17.677,0.832,1.0
4.2333,128.18146,37.935075,6904.1573880000005,73.627,-17.627,0.921,1.0
4.25,128.18146,37.935119,6902.6568576,70.874,-17.573,1.005,1.0
4.2666,128.18146,37.935163,6901.1548032,68.113,-17.518,1.083,1.0
4.2833,128.18146,37.935207,6899.6521391999995,65.346,-17.46,1.155,1.0
4.3,128.181461,37.935252,6898.148560800001,62.571,-17.401,1.222,1.0
4.3166,128.181461,37.935296,6896.6446776,59.791,-17.34,1.282,1.0
4.3333,128.181461,37.93534,6895.1407944,57.006,-17.279,1.335,1.0
4.35,128.181462,37.935384,6893.6366064,54.215,-17.217,1.383,1.0
4.3666,128.181462,37.935428,6892.133028,51.42,-17.155,1.424,1.0
4.3833,128.181463,37.935472,6890.630059200001,48.62,-17.095,1.459,1.0
4.4,128.181463,37.935516,6889.128004800001,45.817,-17.035,1.487,1.0
4.4166,128.181464,37.935561,6887.6268648000005,43.01,-16.977,1.51,1.0
4.4333,128.181465,37.935605,6886.126944,40.199,-16.921,1.526,1.0
4.45,128.181465,37.935649,6884.628242400001,37.386,-16.867,1.537,1.0
4.4666,128.181466,37.935693,6883.131369600001,34.569,-16.817,1.543,1.0
4.4833,128.181467,37.935738,6881.6363255999995,31.749,-16.77,1.544,1.0
4.5,128.181468,37.935782,6880.1431104,28.926,-16.726,1.54,1.0
4.5166,128.181469,37.935826,6878.651724,26.1,-16.687,1.531,1.0
4.5333,128.18147,37.93587,6877.1624712,23.272,-16.651,1.519,1.0
4.55,128.181471,37.935915,6875.675656800001,20.441,-16.621,1.503,1.0
4.5666,128.181472,37.935959,6874.190976,17.608,-16.595,1.484,1.0
4.5833,128.181473,37.936004,6872.708428800001,14.772,-16.574,1.462,1.0
4.6,128.181474,37.936048,6871.228320000001,11.934,-16.559,1.438,1.0
4.6166,128.181475,37.936092,6869.7506496000005,9.093,-16.549,1.413,1.0
4.6333,128.181476,37.936137,6868.2754176,6.25,-16.544,1.386,1.0
4.65,128.181477,37.936181,6866.802319200001,3.405,-16.544,1.359,1.0
4.6666,128.181478,37.936226,6865.3316592,0.557,-16.551,1.332,1.0
4.6833,128.181479,37.93627,6863.863132800001,-2.292,-16.562,1.305,1.0
4.7,128.18148,37.936315,6862.39674,-5.144,-16.579,1.279,1.0
4.7166,128.181482,37.936359,6860.9324808,-7.998,-16.601,1.255,1.0
4.7333,128.181483,37.936404,6859.469136000001,-10.672,-16.624,1.256,1.0
4.75,128.181484,37.936448,6858.006400800001,-13.171,-16.645,1.281,1.0
4.7666,128.181485,37.936493,6856.5442752,-15.487,-16.664,1.321,1.0
4.7833,128.181486,37.936537,6855.0821496,-17.613,-16.681,1.369,1.0
4.8,128.181487,37.936582,6853.619719200001,-19.549,-16.695,1.418,1.0
4.8166,128.181488,37.936627,6852.1563744000005,-21.298,-16.707,1.468,1.0
4.8333,128.181489,37.936671,6850.691810400001,-22.867,-16.717,1.516,1.0
4.85,128.18149,37.936716,6849.2257224,-24.262,-16.724,1.561,1.0
4.8666,128.181491,37.936761,6847.7578056,-25.491,-16.729,1.605,1.0
4.8833,128.181492,37.936805,6846.287755200001,-26.561,-16.731,1.646,1.0
4.9,128.181493,37.93685,6844.8149616,-27.479,-16.732,1.685,1.0
4.9166,128.181494,37.936895,6843.339120000001,-28.251,-16.732,1.723,1.0
4.9333,128.181495,37.936939,6841.8602304,-28.883,-16.73,1.759,1.0
4.95,128.181496,37.936984,6840.3776832,-29.382,-16.728,1.793,1.0
4.9666,128.181497,37.937029,6838.891173600001,-29.754,-16.726,1.826,1.0
4.9833,128.181499,37.937074,6837.4010064,-30.003,-16.723,1.857,1.0
5.0,128.1815,37.937119,6835.9059624,-30.135,-16.721,1.888,1.0
5.0166,128.181501,37.937163,6834.406651200001,-30.155,-16.72,1.918,1.0
5.0333,128.181502,37.937208,6832.903072800001,-30.069,-16.719,1.947,1.0
5.05,128.181503,37.937253,6831.395227200001,-29.88,-16.72,1.975,1.0
5.0666,128.181504,37.937298,6829.8831144000005,-29.594,-16.721,2.002,1.0
5.0833,128.181505,37.937343,6828.3670392,-29.215,-16.724,2.03,1.0
5.1,128.181506,37.937388,6826.846392,-28.747,-16.728,2.056,1.0
5.1166,128.181508,37.937433,6825.3217824,-28.195,-16.734,2.083,1.0
5.1333,128.181509,37.937477,6823.7929056,-27.561,-16.742,2.109,1.0
5.15,128.18151,37.937522,6822.2600664,-26.85,-16.751,2.134,1.0
5.1666,128.181511,37.937567,6820.723264800001,-26.065,-16.761,2.16,1.0
5.1833,128.181512,37.937612,6819.182196000001,-25.21,-16.774,2.185,1.0
5.2,128.181513,37.937657,6817.6368600000005,-24.287,-16.788,2.211,1.0
5.2166,128.181515,37.937702,6816.0878664,-23.299,-16.804,2.235,1.0
5.2333,128.181516,37.937747,6814.534605600001,-22.25,-16.822,2.26,1.0
5.25,128.181517,37.937792,6812.9776872,-21.143,-16.842,2.284,1.0
5.2666,128.181518,37.937837,6811.416501600001,-19.978,-16.864,2.308,1.0
5.2833,128.18152,37.937882,6809.8516584,-18.76,-16.887,2.332,1.0
5.3,128.181521,37.937927,6808.2828528,-17.489,-16.913,2.355,1.0
5.3166,128.181522,37.937973,6806.7100848,-16.169,-16.941,2.378,1.0
5.3333,128.181523,37.938018,6805.1333544,-14.802,-16.97,2.4,1.0
5.35,128.181525,37.938063,6803.5529664,-13.388,-17.001,2.421,1.0
5.3666,128.181526,37.938108,6801.9689208,-11.931,-17.035,2.442,1.0
5.3833,128.181527,37.938153,6800.3809128,-10.432,-17.07,2.462,1.0
5.4,128.181528,37.938198,6798.7892472,-8.891,-17.107,2.481,1.0
5.4166,128.18153,37.938243,6797.1936192,-7.312,-17.146,2.5,1.0
5.4333,128.181531,37.938289,6795.594638400001,-5.695,-17.186,2.517,1.0
5.45,128.181532,37.938334,6793.992,-4.042,-17.228,2.533,1.0
5.4666,128.181534,37.938379,6792.3853992,-2.354,-17.272,2.548,1.0
5.4833,128.181535,37.938424,6790.7754456,-0.632,-17.317,2.562,1.0
5.5,128.181536,37.93847,6789.1618344,1.122,-17.364,2.574,1.0
5.5166,128.181537,37.938515,6787.544565600001,2.909,-17.413,2.585,1.0
5.5333,128.181539,37.93856,6785.9236392,4.726,-17.462,2.594,1.0
5.55,128.18154,37.938605,6784.3002744000005,6.38,-17.511,2.578,1.0
5.5666,128.181541,37.938651,6782.6741664,7.877,-17.557,2.537,1.0
5.5833,128.181543,37.938696,6781.045924800001,9.207,-17.602,2.48,1.0
5.6,128.181544,37.938741,6779.4161592,10.363,-17.645,2.415,1.0
5.6166,128.181545,37.938787,6777.7845648,11.343,-17.687,2.349,1.0
5.6333,128.181547,37.938832,6776.152056000001,12.152,-17.728,2.283,1.0
5.65,128.181548,37.938878,6774.518632800001,12.794,-17.768,2.219,1.0
5.6666,128.181549,37.938923,6772.8846,13.278,-17.805,2.157,1.0
5.6833,128.181551,37.938969,6771.2505672,13.609,-17.84,2.097,1.0
5.7,128.181552,37.939014,6769.6162296,13.796,-17.874,2.038,1.0
5.7166,128.181554,37.939059,6767.9825016,13.845,-17.904,1.982,1.0
5.7333,128.181555,37.939105,6766.3490784000005,13.762,-17.933,1.927,1.0
5.75,128.181556,37.93915,6764.716874400001,13.554,-17.959,1.874,1.0
5.7666,128.181558,37.939196,6763.0855848,13.224,-17.984,1.823,1.0
5.7833,128.181559,37.939242,6761.4558192,12.78,-18.006,1.774,1.0
5.8,128.181561,37.939287,6759.827882400001,12.226,-18.026,1.727,1.0
5.8166,128.181562,37.939333,6758.202079200001,11.567,-18.044,1.682,1.0
5.8333,128.181564,37.939378,6756.5787144000005,10.809,-18.06,1.638,1.0
5.85,128.181565,37.939424,6754.9565688,9.954,-18.074,1.597,1.0
5.8666,128.181567,37.93947,6753.336556800001,9.009,-18.088,1.557,1.0
5.8833,128.181568,37.939515,6751.7186784000005,7.976,-18.099,1.519,1.0
5.9,128.18157,37.939561,6750.102324,6.861,-18.11,1.482,1.0
5.9166,128.181571,37.939607,6748.4877983999995,5.666,-18.119,1.446,1.0
5.9333,128.181573,37.939652,6746.874796800001,4.396,-18.128,1.412,1.0
5.95,128.181575,37.939698,6745.263928800001,3.054,-18.135,1.38,1.0
5.9666,128.181576,37.939744,6743.65428,1.644,-18.142,1.348,1.0
5.9833,128.181578,37.93979,6742.0464600000005,0.168,-18.148,1.318,1.0
6.0,128.181579,37.939836,6740.440164000001,-1.369,-18.154,1.289,1.0
6.0166,128.181581,37.939881,6738.835696800001,-2.965,-18.16,1.261,1.0
6.0333,128.181582,37.939927,6737.2324488,-4.618,-18.165,1.233,1.0
6.05,128.181584,37.939973,6735.629810400001,-6.124,-18.168,1.234,1.0
6.0666,128.181586,37.940019,6734.0274768,-7.488,-18.168,1.261,1.0
6.0833,128.181587,37.940065,6732.4251432,-8.697,-18.166,1.305,1.0
6.1,128.181589,37.940111,6730.8225048,-9.739,-18.163,1.355,1.0
6.1166,128.18159,37.940157,6729.219256800001,-10.611,-18.159,1.405,1.0
6.1333,128.181592,37.940203,6727.6147896,-11.316,-18.155,1.454,1.0
6.15,128.181593,37.940248,6726.0091032,-11.861,-18.151,1.5,1.0
6.1666,128.181595,37.940294,6724.401588000001,-12.252,-18.146,1.544,1.0
6.1833,128.181596,37.94034,6722.7916344,-12.497,-18.142,1.585,1.0
6.2,128.181598,37.940386,6721.1795472,-12.604,-18.137,1.626,1.0
6.2166,128.181599,37.940432,6719.564412,-12.578,-18.132,1.665,1.0
6.2333,128.181601,37.940478,6717.9462288,-12.427,-18.128,1.703,1.0
6.25,128.181602,37.940524,6716.324388000001,-12.155,-18.125,1.74,1.0
6.2666,128.181604,37.94057,6714.6985848,-11.769,-18.122,1.776,1.0
6.2833,128.181605,37.940617,6713.068819200001,-11.274,-18.121,1.811,1.0
6.3,128.181607,37.940663,6711.4347864,-10.674,-18.121,1.846,1.0
6.3166,128.181608,37.940709,6709.795572,-9.975,-18.121,1.879,1.0
6.3333,128.18161,37.940755,6708.1514808,-9.182,-18.119,1.911,1.0
6.35,128.181612,37.940801,6706.5031224,-8.298,-18.115,1.941,1.0
6.3666,128.181613,37.940847,6704.850192000001,-7.329,-18.107,1.97,1.0
6.3833,128.181615,37.940893,6703.1929944,-6.277,-18.096,1.998,1.0
6.4,128.181616,37.940939,6701.531224800001,-5.149,-18.081,2.024,1.0
6.4166,128.181618,37.940985,6699.865188000001,-3.946,-18.062,2.049,1.0
6.4333,128.181619,37.941032,6698.195188799999,-2.674,-18.041,2.074,1.0
6.45,128.181621,37.941078,6696.5209224,-1.336,-18.016,2.098,1.0
6.4666,128.181623,37.941124,6694.8429984,0.065,-17.989,2.122,1.0
6.4833,128.181624,37.94117,6693.161112,1.526,-17.959,2.146,1.0
6.5,128.181626,37.941217,6691.475568,3.044,-17.928,2.17,1.0
6.5166,128.181627,37.941263,6689.7875856,4.413,-17.892,2.167,1.0
6.5333,128.181629,37.941309,6688.0971648,5.638,-17.853,2.137,1.0
6.55,128.18163,37.941355,6686.404915200001,6.705,-17.81,2.093,1.0
6.5666,128.181632,37.941402,6684.711446400001,7.603,-17.764,2.044,1.0
6.5833,128.181634,37.941448,6683.0167584,8.329,-17.715,1.997,1.0
6.6,128.181635,37.941494,6681.3220704000005,8.888,-17.664,1.953,1.0
6.6166,128.181637,37.941541,6679.6270776,9.286,-17.611,1.913,1.0
6.6333,128.181639,37.941587,6677.9326944,9.532,-17.554,1.877,1.0
6.65,128.18164,37.941633,6676.2395304,9.634,-17.494,1.843,1.0
6.6666,128.181642,37.94168,6674.5472808,9.599,-17.432,1.812,1.0
6.6833,128.181643,37.941726,6672.857164800001,9.434,-17.367,1.782,1.0
6.7,128.181645,37.941773,6671.169182400001,9.146,-17.299,1.754,1.0
6.7166,128.181647,37.941819,6669.4839432,8.741,-17.229,1.728,1.0
6.7333,128.181649,37.941866,6667.802056800001,8.224,-17.156,1.702,1.0
6.75,128.18165,37.941912,6666.123523200001,7.6,-17.081,1.677,1.0
6.7666,128.181652,37.941959,6664.4492568000005,6.875,-17.005,1.653,1.0
6.7833,128.181654,37.942006,6662.7792576,6.054,-16.926,1.629,1.0
6.8,128.181655,37.942052,6661.1141352,5.141,-16.846,1.605,1.0
6.8166,128.181657,37.942099,6659.4535848,4.14,-16.765,1.58,1.0
6.8333,128.181659,37.942145,6657.7976064,3.056,-16.682,1.555,1.0
6.85,128.181661,37.942192,6656.1462,1.893,-16.599,1.529,1.0
6.8666,128.181662,37.942239,6654.4996704000005,0.654,-16.514,1.502,1.0
6.8833,128.181664,37.942286,6652.8580176000005,-0.656,-16.43,1.474,1.0
6.9,128.181666,37.942332,6651.221546400001,-2.036,-16.345,1.444,1.0
6.9166,128.181668,37.942379,6649.5896472,-3.482,-16.261,1.412,1.0
6.9333,128.181669,37.942426,6647.961710400001,-4.784,-16.175,1.407,1.0
6.95,128.181671,37.942473,6646.337736,-5.948,-16.087,1.428,1.0
6.9666,128.181673,37.94252,6644.7174192,-6.96,-15.998,1.462,1.0
6.9833,128.181675,37.942566,6643.1004552,-7.808,-15.91,1.501,1.0
7.0,128.181676,37.942613,6641.4862344,-8.49,-15.823,1.537,1.0
7.0166,128.181678,37.94266,6639.874756800001,-9.009,-15.736,1.57,1.0
7.0333,128.18168,37.942707,6638.2654128,-9.373,-15.65,1.599,1.0
7.05,128.181681,37.942754,6636.6582024,-9.59,-15.566,1.624,1.0
7.0666,128.181683,37.942801,6635.052516,-9.668,-15.483,1.647,1.0
7.0833,128.181685,37.942848,6633.4483536,-9.615,-15.402,1.669,1.0
7.1,128.181686,37.942895,6631.8451056,-9.438,-15.323,1.69,1.0
7.1166,128.181688,37.942942,6630.2424672,-9.143,-15.246,1.71,1.0
7.1333,128.18169,37.942989,6628.640438400001,-8.735,-15.172,1.73,1.0
7.15,128.181691,37.943037,6627.038409600001,-8.22,-15.101,1.75,1.0
7.1666,128.181693,37.943084,6625.4363808,-7.602,-15.033,1.771,1.0
7.1833,128.181695,37.943131,6623.833742400001,-6.887,-14.97,1.792,1.0
7.2,128.181696,37.943178,6622.2304944,-6.078,-14.91,1.814,1.0
7.2166,128.181698,37.943225,6620.6260272,-5.18,-14.855,1.837,1.0
7.2333,128.1817,37.943272,6619.02156,-4.197,-14.804,1.86,1.0
7.25,128.181701,37.94332,6617.416178400001,-3.132,-14.757,1.885,1.0
7.2666,128.181703,37.943367,6615.8104920000005,-1.988,-14.715,1.911,1.0
7.2833,128.181705,37.943414,6614.2045008000005,-0.769,-14.678,1.938,1.0
7.3,128.181706,37.943461,6612.597900000001,0.521,-14.646,1.965,1.0
7.3166,128.181708,37.943509,6610.9912992,1.883,-14.619,1.994,1.0
7.3333,128.18171,37.943556,6609.3840887999995,3.311,-14.596,2.024,1.0
7.35,128.181711,37.943603,6607.778097600001,4.596,-14.576,2.025,1.0
7.3666,128.181713,37.943651,6606.172716,5.743,-14.559,2.0,1.0
7.3833,128.181715,37.943698,6604.5685536,6.738,-14.543,1.959,1.0
7.4,128.181716,37.943746,6602.966220000001,7.57,-14.531,1.912,1.0
7.4166,128.181718,37.943793,6601.36602,8.236,-14.521,1.866,1.0
7.4333,128.18172,37.943841,6599.7682584,8.741,-14.514,1.823,1.0
7.45,128.181722,37.943888,6598.17324,9.09,-14.51,1.782,1.0
7.4666,128.181723,37.943936,6596.5812696,9.293,-14.508,1.744,1.0
7.4833,128.181725,37.943983,6594.992956800001,9.358,-14.507,1.707,1.0
7.5,128.181727,37.944031,6593.407996800001,9.29,-14.508,1.671,1.0
7.5166,128.181729,37.944078,6591.827304,9.098,-14.511,1.636,1.0
7.5333,128.18173,37.944126,6590.250878400001,8.786,-14.516,1.601,1.0
7.55,128.181732,37.944174,6588.6793296,8.359,-14.523,1.566,1.0
7.5666,128.181734,37.944221,6587.1126576,7.823,-14.531,1.532,1.0
7.5833,128.181736,37.944269,6585.5511672,7.183,-14.542,1.499,1.0
7.6,128.181738,37.944317,6583.9951632,6.443,-14.554,1.465,1.0
7.6166,128.181739,37.944365,6582.4452552,5.607,-14.569,1.432,1.0
7.6333,128.181741,37.944412,6580.9011384000005,4.679,-14.586,1.4,1.0
7.65,128.181743,37.94446,6579.362508,3.663,-14.605,1.368,1.0
7.6666,128.181745,37.944508,6577.829364,2.563,-14.627,1.336,1.0
7.6833,128.181747,37.944556,6576.3017064000005,1.382,-14.651,1.305,1.0
7.7,128.181749,37.944604,6574.7792304,0.124,-14.678,1.275,1.0
7.7166,128.181751,37.944652,6573.261936,-1.207,-14.707,1.246,1.0
7.7333,128.181753,37.944699,6571.749823200001,-2.611,-14.74,1.217,1.0
7.75,128.181754,37.944747,6570.2422824000005,-4.083,-14.775,1.19,1.0
7.7666,128.181756,37.944795,6568.7383992000005,-5.407,-14.811,1.194,1.0
7.7833,128.181758,37.944843,6567.237868800001,-6.587,-14.847,1.229,1.0
7.8,128.18176,37.944891,6565.7400816,-7.608,-14.884,1.281,1.0
7.8166,128.181762,37.944939,6564.244732800001,-8.456,-14.924,1.34,1.0
7.8333,128.181763,37.944987,6562.750908,-9.127,-14.966,1.399,1.0
7.85,128.181765,37.945035,6561.2586071999995,-9.627,-15.01,1.456,1.0
7.8666,128.181767,37.945083,6559.767220799999,-9.962,-15.057,1.51,1.0
7.8833,128.181769,37.945132,6558.275834399999,-10.142,-15.106,1.561,1.0
7.9,128.181771,37.94518,6556.7841432,-10.175,-15.154,1.612,1.0
7.9166,128.181772,37.945228,6555.291842400001,-10.068,-15.199,1.661,1.0
7.9333,128.181774,37.945276,6553.798627200001,-9.829,-15.243,1.708,1.0
7.95,128.181776,37.945324,6552.3035832000005,-9.464,-15.284,1.754,1.0
7.9666,128.181778,37.945372,6550.8064056,-8.978,-15.324,1.799,1.0
7.9833,128.18178,37.94542,6549.3064848,-8.376,-15.362,1.842,1.0
8.0,128.181781,37.945469,6547.8038208,-7.665,-15.399,1.883,1.0
8.0166,128.181783,37.945517,6546.297804,-6.849,-15.435,1.924,1.0
8.0333,128.181785,37.945565,6544.787824800001,-5.933,-15.471,1.962,1.0
8.05,128.181787,37.945613,6543.273578400001,-4.922,-15.507,2.0,1.0
8.0666,128.181789,37.945662,6541.755979200001,-3.82,-15.543,2.036,1.0
8.0833,128.18179,37.94571,6540.234417600001,-2.631,-15.579,2.07,1.0
8.1,128.181792,37.945758,6538.7088936,-1.361,-15.616,2.103,1.0
8.1166,128.181794,37.945806,6537.179712,-0.011,-15.653,2.135,1.0
8.1333,128.181796,37.945855,6535.646568,1.412,-15.692,2.165,1.0
8.15,128.181798,37.945903,6534.1094616,2.908,-15.731,2.194,1.0
8.1666,128.181799,37.945951,6532.568697600001,4.472,-15.771,2.221,1.0
8.1833,128.181801,37.946,6531.025190400001,5.879,-15.81,2.216,1.0
8.2,128.181803,37.946048,6529.47894,7.135,-15.845,2.177,1.0
8.2166,128.181805,37.946097,6527.930556,8.222,-15.878,2.121,1.0
8.2333,128.181807,37.946145,6526.3803431999995,9.124,-15.91,2.059,1.0
8.25,128.181809,37.946194,6524.828911200001,9.84,-15.942,1.999,1.0
8.2666,128.18181,37.946242,6523.276260000001,10.373,-15.973,1.942,1.0
8.2833,128.181812,37.94629,6521.7229992,10.734,-16.003,1.889,1.0
8.3,128.181814,37.946339,6520.169433600001,10.931,-16.031,1.838,1.0
8.3166,128.181816,37.946387,6518.615868,10.974,-16.057,1.79,1.0
8.3333,128.181818,37.946436,6517.0626072,10.872,-16.082,1.743,1.0
8.35,128.18182,37.946484,6515.510260800001,10.631,-16.105,1.697,1.0
8.3666,128.181822,37.946533,6513.9588288,10.258,-16.126,1.652,1.0
8.3833,128.181823,37.946582,6512.4089208,9.759,-16.146,1.609,1.0
8.4,128.181825,37.94663,6510.860536800001,9.141,-16.165,1.567,1.0
8.4166,128.181827,37.946679,6509.3145912,8.409,-16.182,1.527,1.0
8.4333,128.181829,37.946727,6507.771084000001,7.568,-16.197,1.488,1.0
8.45,128.181831,37.946776,6506.230320000001,6.624,-16.212,1.45,1.0
8.4666,128.181833,37.946825,6504.692908800001,5.581,-16.225,1.414,1.0
8.4833,128.181835,37.946873,6503.1576312,4.445,-16.238,1.379,1.0
8.5,128.181837,37.946922,6501.625401600001,3.22,-16.249,1.346,1.0
8.5166,128.181839,37.946971,6500.095610400001,1.91,-16.261,1.313,1.0
8.5333,128.181841,37.947019,6498.5685624,0.52,-16.271,1.282,1.0
8.55,128.181843,37.947068,6497.043648,-0.946,-16.281,1.252,1.0
8.5666,128.181845,37.947117,6495.5217816,-2.486,-16.29,1.223,1.0
8.5833,128.181847,37.947166,6494.0020488,-4.094,-16.299,1.195,1.0
8.6,128.181849,37.947215,6492.4832304,-5.54,-16.306,1.201,1.0
8.6166,128.181851,37.947263,6490.9659360000005,-6.828,-16.309,1.241,1.0
8.6333,128.181852,37.947312,6489.448946400001,-7.939,-16.309,1.3,1.0
8.65,128.181854,37.947361,6487.9325664,-8.856,-16.309,1.363,1.0
8.6666,128.181856,37.94741,6486.4158816,-9.576,-16.309,1.423,1.0
8.6833,128.181858,37.947459,6484.8985872,-10.103,-16.308,1.478,1.0
8.7,128.18186,37.947508,6483.3803784,-10.449,-16.307,1.529,1.0
8.7166,128.181862,37.947556,6481.860645600001,-10.623,-16.305,1.577,1.0
8.7333,128.181864,37.947605,6480.339084000001,-10.637,-16.303,1.623,1.0
8.75,128.181866,37.947654,6478.815084000001,-10.499,-16.3,1.668,1.0
8.7666,128.181868,37.947703,6477.288645600001,-10.218,-16.298,1.712,1.0
8.7833,128.181869,37.947752,6475.759159200001,-9.799,-16.296,1.755,1.0
8.8,128.181871,37.947801,6474.226015200001,-9.249,-16.295,1.796,1.0
8.8166,128.181873,37.94785,6472.689213600001,-8.576,-16.294,1.837,1.0
8.8333,128.181875,37.947899,6471.1481448,-7.784,-16.295,1.877,1.0
8.85,128.181877,37.947948,6469.6021992000005,-6.88,-16.298,1.916,1.0
8.8666,128.181879,37.947997,6468.0516816,-5.871,-16.302,1.954,1.0
8.8833,128.181881,37.948046,6466.495677600001,-4.76,-16.309,1.991,1.0
8.9,128.181883,37.948095,6464.935101600001,-3.555,-16.317,2.027,1.0
8.9166,128.181885,37.948144,6463.3699536,-2.259,-16.327,2.062,1.0
8.9333,128.181887,37.948193,6461.799624,-0.877,-16.339,2.096,1.0
8.95,128.181889,37.948242,6460.2250272,0.585,-16.354,2.129,1.0
8.9666,128.18189,37.948291,6458.6455536,2.125,-16.37,2.161,1.0
8.9833,128.181892,37.94834,6457.061508,3.737,-16.389,2.191,1.0
9.0,128.181894,37.94839,6455.474109600001,5.186,-16.407,2.186,1.0
9.0166,128.181896,37.948439,6453.8833584,6.478,-16.424,2.146,1.0
9.0333,128.181898,37.948488,6452.289864,7.592,-16.439,2.088,1.0
9.05,128.1819,37.948537,6450.694236,8.509,-16.455,2.025,1.0
9.0666,128.181902,37.948586,6449.096474400001,9.228,-16.471,1.965,1.0
9.0833,128.181904,37.948635,6447.4974936,9.754,-16.488,1.91,1.0
9.1,128.181906,37.948684,6445.8972936,10.097,-16.504,1.859,1.0
9.1166,128.181908,37.948734,6444.296788799999,10.27,-16.519,1.811,1.0
9.1333,128.18191,37.948783,6442.695674400001,10.284,-16.534,1.765,1.0
9.15,128.181912,37.948832,6441.0948648,10.147,-16.547,1.72,1.0
9.1666,128.181914,37.948881,6439.4946648000005,9.866,-16.559,1.676,1.0
9.1833,128.181916,37.948931,6437.8950744,9.448,-16.571,1.633,1.0
9.2,128.181918,37.94898,6436.2970080000005,8.901,-16.581,1.591,1.0
9.2166,128.18192,37.949029,6434.700465600001,8.229,-16.591,1.55,1.0
9.2333,128.181922,37.949079,6433.106056800001,7.44,-16.6,1.511,1.0
9.25,128.181924,37.949128,6431.5140864,6.539,-16.609,1.473,1.0
9.2666,128.181926,37.949177,6429.925164,5.531,-16.617,1.436,1.0
9.2833,128.181928,37.949227,6428.3392896,4.422,-16.624,1.4,1.0
9.3,128.18193,37.949276,6426.7555488,3.217,-16.631,1.366,1.0
9.3166,128.181932,37.949326,6425.174856000001,1.921,-16.637,1.333,1.0
9.3333,128.181934,37.949375,6423.596601600001,0.538,-16.643,1.3,1.0
9.35,128.181936,37.949424,6422.0210904000005,-0.926,-16.649,1.269,1.0
9.3666,128.181938,37.949474,6420.4483224000005,-2.47,-16.655,1.239,1.0
9.3833,128.18194,37.949523,6418.8776880000005,-4.087,-16.66,1.209,1.0
9.4,128.181942,37.949573,6417.308577600001,-5.537,-16.663,1.217,1.0
9.4166,128.181944,37.949622,6415.740381600001,-6.826,-16.663,1.262,1.0
9.4333,128.181946,37.949672,6414.1727952,-7.929,-16.66,1.325,1.0
9.45,128.181948,37.949721,6412.6058184,-8.828,-16.656,1.391,1.0
9.4666,128.18195,37.949771,6411.0388416000005,-9.518,-16.648,1.453,1.0
9.4833,128.181952,37.949821,6409.4712552,-10.007,-16.637,1.507,1.0
9.5,128.181954,37.94987,6407.9027544,-10.307,-16.619,1.555,1.0
9.5166,128.181956,37.94992,6406.3330344,-10.43,-16.595,1.599,1.0
9.5333,128.181958,37.949969,6404.7617904,-10.387,-16.565,1.641,1.0
9.55,128.18196,37.950019,6403.188108,-10.188,-16.529,1.681,1.0
9.5666,128.181962,37.950069,6401.612596800001,-9.84,-16.488,1.719,1.0
9.5833,128.181964,37.950118,6400.0340376,-9.351,-16.443,1.755,1.0
9.6,128.181966,37.950168,6398.4524304,-8.729,-16.394,1.79,1.0
9.6166,128.181968,37.950218,6396.867775199999,-7.98,-16.342,1.823,1.0
9.6333,128.18197,37.950267,6395.2794624,-7.11,-16.287,1.855,1.0
9.65,128.181972,37.950317,6393.6871872,-6.127,-16.229,1.887,1.0
9.6666,128.181974,37.950367,6392.0906448000005,-5.038,-16.169,1.917,1.0
9.6833,128.181976,37.950416,6390.4898352,-3.847,-16.107,1.948,1.0
9.7,128.181978,37.950466,6388.885368,-2.562,-16.044,1.979,1.0
9.7166,128.18198,37.950516,6387.277548,-1.186,-15.979,2.01,1.0
9.7333,128.181982,37.950566,6385.665765600001,0.273,-15.914,2.043,1.0
9.75,128.181983,37.950615,6384.0509352,1.813,-15.848,2.076,1.0
9.7666,128.181985,37.950665,6382.4330568000005,3.43,-15.783,2.11,1.0
9.7833,128.181987,37.950715,6380.8133496,4.88,-15.716,2.109,1.0
9.8,128.18199,37.950765,6379.1921184,6.169,-15.645,2.074,1.0
9.8166,128.181992,37.950815,6377.5699728,7.274,-15.573,2.023,1.0
9.8333,128.181994,37.950865,6375.9475224,8.177,-15.5,1.97,1.0
9.85,128.181996,37.950915,6374.3253768,8.875,-15.426,1.923,1.0
9.8666,128.181998,37.950964,6372.704145600001,9.375,-15.352,1.885,1.0
9.8833,128.182,37.951014,6371.084438400001,9.691,-15.277,1.852,1.0
9.9,128.182002,37.951064,6369.466560000001,9.835,-15.201,1.823,1.0
9.9166,128.182004,37.951114,6367.851424800001,9.82,-15.123,1.796,1.0
9.9333,128.182006,37.951164,6366.2390328,9.655,-15.043,1.769,1.0
9.95,128.182008,37.951214,6364.6299936,9.347,-14.962,1.744,1.0
9.9666,128.18201,37.951264,6363.0252216,8.903,-14.881,1.719,1.0
9.9833,128.182012,37.951314,6361.4250216,8.331,-14.798,1.695,1.0
10.0,128.182014,37.951365,6359.8296984,7.636,-14.715,1.671,1.0
10.0166,128.182016,37.951415,6358.2401664,6.825,-14.631,1.646,1.0
10.0333,128.182018,37.951465,6356.6567304,5.903,-14.546,1.622,1.0
10.05,128.18202,37.951515,6355.08,4.877,-14.462,1.597,1.0
10.0666,128.182023,37.951565,6353.5102799999995,3.751,-14.377,1.571,1.0
10.0833,128.182025,37.951615,6351.946960800001,2.531,-14.292,1.544,1.0
10.1,128.182027,37.951666,6350.390347200001,1.222,-14.207,1.516,1.0
10.1166,128.182029,37.951716,6348.8410488,-0.173,-14.123,1.486,1.0
10.1333,128.182031,37.951766,6347.298151200001,-1.649,-14.039,1.454,1.0
10.15,128.182033,37.951816,6345.762568800001,-3.203,-13.957,1.421,1.0
10.1666,128.182035,37.951867,6344.2321680000005,-4.589,-13.873,1.422,1.0
10.1833,128.182038,37.951917,6342.7075584,-5.816,-13.787,1.458,1.0
10.2,128.18204,37.951967,6341.1884352,-6.861,-13.702,1.51,1.0
10.2166,128.182042,37.952018,6339.673884000001,-7.704,-13.617,1.563,1.0
10.2333,128.182044,37.952068,6338.163904800001,-8.344,-13.533,1.61,1.0
10.25,128.182046,37.952119,6336.657888000001,-8.787,-13.451,1.649,1.0
10.2666,128.182048,37.952169,6335.155528800001,-9.047,-13.37,1.682,1.0
10.2833,128.18205,37.952219,6333.6565224000005,-9.137,-13.291,1.712,1.0
10.3,128.182052,37.95227,6332.1602592,-9.069,-13.213,1.74,1.0
10.3166,128.182054,37.952321,6330.6661296,-8.851,-13.137,1.768,1.0
10.3333,128.182056,37.952371,6329.174438400001,-8.492,-13.063,1.796,1.0
10.35,128.182058,37.952422,6327.6839664,-7.999,-12.992,1.824,1.0
10.3666,128.18206,37.952472,6326.195018400001,-7.378,-12.924,1.853,1.0
10.3833,128.182062,37.952523,6324.7069848,-6.635,-12.86,1.882,1.0
10.4,128.182064,37.952573,6323.219560800001,-5.776,-12.8,1.911,1.0
10.4166,128.182066,37.952624,6321.7324416,-4.807,-12.744,1.941,1.0
10.4333,128.182068,37.952675,6320.2447128,-3.734,-12.693,1.972,1.0
10.45,128.18207,37.952725,6318.756679200001,-2.56,-12.647,2.004,1.0
10.4666,128.182072,37.952776,6317.2686456,-1.292,-12.605,2.038,1.0
10.4833,128.182075,37.952827,6315.780612,0.067,-12.569,2.072,1.0
10.5,128.182077,37.952878,6314.292883200001,1.513,-12.538,2.107,1.0
10.5166,128.182079,37.952928,6312.8048496,3.043,-12.512,2.143,1.0
10.5333,128.182081,37.952979,6311.31834,4.409,-12.489,2.142,1.0
10.55,128.182083,37.95303,6309.833354400001,5.62,-12.467,2.106,1.0
10.5666,128.182085,37.953081,6308.350197600001,6.652,-12.448,2.051,1.0
10.5833,128.182087,37.953132,6306.869174400001,7.487,-12.433,1.994,1.0
10.6,128.182089,37.953183,6305.3911992,8.122,-12.422,1.942,1.0
10.6166,128.182091,37.953233,6303.9165768,8.564,-12.414,1.897,1.0
10.6333,128.182093,37.953284,6302.4453072,8.827,-12.408,1.856,1.0
10.65,128.182095,37.953335,6300.9783048,8.921,-12.405,1.817,1.0
10.6666,128.182097,37.953386,6299.5152648,8.859,-12.403,1.779,1.0
10.6833,128.1821,37.953437,6298.0571016,8.65,-12.404,1.741,1.0
10.7,128.182102,37.953488,6296.603815200001,8.299,-12.406,1.703,1.0
10.7166,128.182104,37.953539,6295.156015200001,7.814,-12.411,1.665,1.0
10.7333,128.182106,37.95359,6293.7140064000005,7.201,-12.419,1.627,1.0
10.75,128.182108,37.953641,6292.2780936,6.465,-12.429,1.589,1.0
10.7666,128.18211,37.953693,6290.8485816,5.613,-12.441,1.553,1.0
10.7833,128.182113,37.953744,6289.425775199999,4.649,-12.456,1.516,1.0
10.8,128.182115,37.953795,6288.009979200001,3.579,-12.474,1.48,1.0
10.8166,128.182117,37.953846,6286.6018032,2.408,-12.494,1.445,1.0
10.8333,128.182119,37.953897,6285.1997232,1.14,-12.517,1.41,1.0
10.85,128.182122,37.953948,6283.8046536,-0.219,-12.543,1.376,1.0
10.8666,128.182124,37.954,6282.4159848,-1.667,-12.572,1.343,1.0
10.8833,128.182126,37.954051,6281.033412,-3.198,-12.605,1.311,1.0
10.9,128.182128,37.954102,6279.655716,-4.562,-12.638,1.319,1.0
10.9166,128.18213,37.954153,6278.2825920000005,-5.765,-12.671,1.366,1.0
10.9333,128.182132,37.954205,6276.9131256,-6.78,-12.705,1.433,1.0
10.95,128.182135,37.954256,6275.5473168,-7.587,-12.741,1.504,1.0
10.9666,128.182137,37.954307,6274.1842512,-8.183,-12.781,1.568,1.0
10.9833,128.182139,37.954359,6272.823319200001,-8.576,-12.824,1.627,1.0
11.0,128.182141,37.95441,6271.463606400001,-8.779,-12.868,1.681,1.0
11.0166,128.182143,37.954461,6270.104808,-8.807,-12.915,1.732,1.0
11.0333,128.182145,37.954513,6268.7466192,-8.671,-12.962,1.783,1.0
11.05,128.182147,37.954564,6267.3878208,-8.379,-13.006,1.834,1.0
11.0666,128.18215,37.954616,6266.0284128,-7.94,-13.048,1.883,1.0
11.0833,128.182152,37.954667,6264.667785600001,-7.36,-13.088,1.931,1.0
11.1,128.182154,37.954719,6263.3053296,-6.646,-13.126,1.978,1.0
11.1166,128.182156,37.95477,6261.9401304,-5.803,-13.163,2.023,1.0
11.1333,128.182158,37.954821,6260.572492800001,-4.84,-13.199,2.066,1.0
11.15,128.18216,37.954873,6259.201197600001,-3.761,-13.234,2.108,1.0
11.1666,128.182162,37.954925,6257.8262448000005,-2.573,-13.27,2.148,1.0
11.1833,128.182164,37.954976,6256.446720000001,-1.281,-13.306,2.187,1.0
11.2,128.182167,37.955028,6255.063842400001,0.108,-13.342,2.224,1.0
11.2166,128.182169,37.955079,6253.6770024,1.592,-13.38,2.26,1.0
11.2333,128.182171,37.955131,6252.2865048,3.164,-13.417,2.294,1.0
11.25,128.182173,37.955182,6250.893264,4.564,-13.453,2.287,1.0
11.2666,128.182175,37.955234,6249.49728,5.798,-13.486,2.239,1.0
11.2833,128.182177,37.955286,6248.0994672,6.84,-13.518,2.171,1.0
11.3,128.18218,37.955337,6246.7004352,7.667,-13.549,2.101,1.0
11.3166,128.182182,37.955389,6245.299879200001,8.274,-13.579,2.038,1.0
11.3333,128.182184,37.955441,6243.8990184,8.672,-13.61,1.982,1.0
11.35,128.182186,37.955492,6242.4978528,8.876,-13.639,1.932,1.0
11.3666,128.182188,37.955544,6241.096992000001,8.9,-13.666,1.884,1.0
11.3833,128.182191,37.955596,6239.696436,8.757,-13.691,1.837,1.0
11.4,128.182193,37.955647,6238.2967944,8.457,-13.714,1.79,1.0
11.4166,128.182195,37.955699,6236.8986768,8.006,-13.736,1.744,1.0
11.4333,128.182197,37.955751,6235.502388000001,7.413,-13.757,1.699,1.0
11.45,128.182199,37.955803,6234.1082328,6.683,-13.776,1.656,1.0
11.4666,128.182202,37.955855,6232.7168208,5.823,-13.795,1.614,1.0
11.4833,128.182204,37.955906,6231.328152000001,4.841,-13.812,1.573,1.0
11.5,128.182206,37.955958,6229.9431408,3.742,-13.828,1.534,1.0
11.5166,128.182208,37.95601,6228.5617872,2.533,-13.844,1.496,1.0
11.5333,128.18221,37.956062,6227.1847008,1.219,-13.858,1.46,1.0
11.55,128.182213,37.956114,6225.8106624,-0.192,-13.872,1.424,1.0
11.5666,128.182215,37.956166,6224.4402816,-1.699,-13.886,1.39,1.0
11.5833,128.182217,37.956218,6223.0735584,-3.295,-13.899,1.357,1.0
11.6,128.182219,37.95627,6221.708664000001,-4.712,-13.908,1.366,1.0
11.6166,128.182222,37.956321,6220.3455984,-5.959,-13.914,1.418,1.0
11.6333,128.182224,37.956373,6218.984056800001,-7.004,-13.918,1.49,1.0
11.65,128.182226,37.956425,6217.6237344,-7.824,-13.921,1.562,1.0
11.6666,128.182228,37.956477,6216.263412,-8.415,-13.924,1.626,1.0
11.6833,128.18223,37.956529,6214.9030896,-8.786,-13.926,1.681,1.0
11.7,128.182232,37.956581,6213.5424624,-8.955,-13.927,1.73,1.0
11.7166,128.182235,37.956633,6212.180311200001,-8.939,-13.928,1.776,1.0
11.7333,128.182237,37.956685,6210.8166360000005,-8.749,-13.927,1.822,1.0
11.75,128.182239,37.956737,6209.451132,-8.397,-13.926,1.868,1.0
11.7666,128.182241,37.956789,6208.0828848,-7.889,-13.925,1.914,1.0
11.7833,128.182243,37.956841,6206.7118944,-7.233,-13.925,1.958,1.0
11.8,128.182246,37.956894,6205.3372464,-6.437,-13.925,2.002,1.0
11.8166,128.182248,37.956946,6203.958636,-5.506,-13.927,2.044,1.0
11.8333,128.18225,37.956998,6202.5760632,-4.45,-13.93,2.085,1.0
11.85,128.182252,37.95705,6201.1886136,-3.275,-13.935,2.125,1.0
11.8666,128.182254,37.957102,6199.7956776,-1.987,-13.942,2.164,1.0
11.8833,128.182257,37.957154,6198.39756,-0.594,-13.951,2.202,1.0
11.9,128.182259,37.957206,6196.994565600001,0.898,-13.962,2.24,1.0
11.9166,128.182261,37.957258,6195.5866944,2.486,-13.975,2.275,1.0
11.9333,128.182263,37.957311,6194.1739464,4.163,-13.991,2.31,1.0
11.95,128.182265,37.957363,6192.7578456,5.657,-14.005,2.301,1.0
11.9666,128.182268,37.957415,6191.338087200001,6.976,-14.016,2.25,1.0
11.9833,128.18227,37.957467,6189.9155856,8.089,-14.026,2.178,1.0
12.0,128.182272,37.957519,6188.490950400001,8.973,-14.038,2.106,1.0
12.0166,128.182274,37.957572,6187.0644864000005,9.622,-14.05,2.043,1.0
12.0333,128.182277,37.957624,6185.637108,10.049,-14.064,1.988,1.0
12.05,128.182279,37.957676,6184.208815200001,10.271,-14.076,1.939,1.0
12.0666,128.182281,37.957729,6182.7799128,10.306,-14.088,1.893,1.0
12.0833,128.182283,37.957781,6181.3513152000005,10.166,-14.099,1.846,1.0
12.1,128.182286,37.957833,6179.9233272,9.862,-14.109,1.8,1.0
12.1166,128.182288,37.957886,6178.4962536,9.401,-14.118,1.754,1.0
12.1333,128.18229,37.957938,6177.0703992,8.79,-14.127,1.709,1.0
12.15,128.182292,37.95799,6175.6466784,8.037,-14.135,1.665,1.0
12.1666,128.182295,37.958043,6174.225396000001,7.149,-14.143,1.623,1.0
12.1833,128.182297,37.958095,6172.806552000001,6.132,-14.15,1.582,1.0
12.2,128.182299,37.958147,6171.391060800001,4.995,-14.157,1.543,1.0
12.2166,128.182301,37.9582,6169.978922400001,3.743,-14.164,1.504,1.0
12.2333,128.182304,37.958252,6168.5710512000005,2.383,-14.17,1.467,1.0
12.25,128.182306,37.958305,6167.166228,0.921,-14.176,1.431,1.0
12.2666,128.182308,37.958357,6165.7650624,-0.638,-14.182,1.396,1.0
12.2833,128.182311,37.95841,6164.3669448,-2.289,-14.188,1.362,1.0
12.3,128.182313,37.958462,6162.9724848,-4.027,-14.194,1.329,1.0
12.3166,128.182315,37.958515,6161.5795488,-5.576,-14.197,1.341,1.0
12.3333,128.182317,37.958567,6160.1884416,-6.943,-14.195,1.397,1.0
12.35,128.18232,37.95862,6158.7985536,-8.095,-14.191,1.474,1.0
12.3666,128.182322,37.958672,6157.40958,-9.005,-14.187,1.549,1.0
12.3833,128.182324,37.958725,6156.020911200001,-9.67,-14.184,1.615,1.0
12.4,128.182326,37.958777,6154.631937600001,-10.102,-14.181,1.67,1.0
12.4166,128.182329,37.95883,6153.2420496,-10.321,-14.177,1.719,1.0
12.4333,128.182331,37.958883,6151.8509424,-10.344,-14.171,1.765,1.0
12.45,128.182333,37.958935,6150.458311200001,-10.186,-14.166,1.812,1.0
12.4666,128.182335,37.958988,6149.063241600001,-9.857,-14.159,1.859,1.0
12.4833,128.182338,37.95904,6147.665428800001,-9.365,-14.153,1.906,1.0
12.5,128.18234,37.959093,6146.2645680000005,-8.716,-14.148,1.952,1.0
12.5166,128.182342,37.959146,6144.860354400001,-7.92,-14.144,1.997,1.0
12.5333,128.182344,37.959198,6143.451873600001,-6.983,-14.141,2.04,1.0
12.55,128.182346,37.959251,6142.0388207999995,-5.914,-14.14,2.082,1.0
12.5666,128.182349,37.959304,6140.6208912,-4.721,-14.141,2.123,1.0
12.5833,128.182351,37.959356,6139.1974752,-3.41,-14.144,2.164,1.0
12.6,128.182353,37.959409,6137.768572800001,-1.989,-14.147,2.203,1.0
12.6166,128.182356,37.959462,6136.3347936,-0.463,-14.148,2.242,1.0
12.6333,128.182358,37.959515,6134.896137600001,1.16,-14.145,2.279,1.0
12.65,128.18236,37.959567,6133.452604800001,2.876,-14.138,2.316,1.0
12.6666,128.182362,37.95962,6132.0045,4.679,-14.127,2.352,1.0
12.6833,128.182365,37.959673,6130.553042400001,6.29,-14.109,2.343,1.0
12.7,128.182367,37.959726,6129.098232,7.715,-14.082,2.29,1.0
12.7166,128.182369,37.959779,6127.641592800001,8.921,-14.049,2.219,1.0
12.7333,128.182371,37.959831,6126.183124800001,9.881,-14.013,2.151,1.0
12.75,128.182374,37.959884,6124.7237424,10.592,-13.974,2.094,1.0
12.7666,128.182376,37.959937,6123.2640552,11.068,-13.932,2.049,1.0
12.7833,128.182378,37.95999,6121.8046728,11.329,-13.885,2.012,1.0
12.8,128.182381,37.960043,6120.3455952,11.396,-13.834,1.978,1.0
12.8166,128.182383,37.960096,6118.8880416,11.282,-13.778,1.944,1.0
12.8333,128.182385,37.960149,6117.4323168,10.997,-13.718,1.911,1.0
12.85,128.182388,37.960202,6115.9790304,10.55,-13.654,1.878,1.0
12.8666,128.18239,37.960255,6114.529096800001,9.949,-13.587,1.847,1.0
12.8833,128.182392,37.960308,6113.0825159999995,9.2,-13.517,1.817,1.0
12.9,128.182395,37.960361,6111.6402024,8.314,-13.444,1.787,1.0
12.9166,128.182397,37.960414,6110.202765600001,7.296,-13.367,1.759,1.0
12.9333,128.182399,37.960467,6108.770510400001,6.157,-13.289,1.73,1.0
12.95,128.182402,37.96052,6107.344656,4.901,-13.207,1.701,1.0
12.9666,128.182404,37.960573,6105.9252024,3.537,-13.124,1.672,1.0
12.9833,128.182407,37.960626,6104.51154,2.069,-13.038,1.641,1.0
13.0,128.182409,37.960679,6103.104278400001,0.505,-12.951,1.609,1.0
13.0166,128.182412,37.960732,6101.7034176,-1.149,-12.863,1.575,1.0
13.0333,128.182414,37.960785,6100.3089576,-2.891,-12.774,1.539,1.0
13.0499,128.182416,37.960838,6098.9208984,-4.715,-12.684,1.501,1.0
13.0666,128.182419,37.960892,6097.5380208,-6.34,-12.589,1.506,1.0
13.0833,128.182421,37.960945,6096.160020000001,-7.776,-12.489,1.553,1.0
13.1,128.182423,37.960998,6094.7872008,-8.99,-12.387,1.617,1.0
13.1166,128.182426,37.961051,6093.4186488,-9.955,-12.284,1.677,1.0
13.1333,128.182428,37.961104,6092.054059200001,-10.669,-12.183,1.723,1.0
13.15,128.18243,37.961158,6090.6931272,-11.147,-12.082,1.756,1.0
13.1666,128.182433,37.961211,6089.3352432,-11.41,-11.98,1.782,1.0
13.1833,128.182435,37.961264,6087.9804072,-11.479,-11.878,1.806,1.0
13.2,128.182437,37.961318,6086.6277048,-11.367,-11.775,1.829,1.0
13.2166,128.18244,37.961371,6085.2768312,-11.086,-11.673,1.853,1.0
13.2333,128.182442,37.961424,6083.9277864000005,-10.644,-11.572,1.878,1.0
13.25,128.182444,37.961478,6082.5802656000005,-10.048,-11.473,1.903,1.0
13.2666,128.182446,37.961531,6081.2333544,-9.307,-11.376,1.927,1.0
13.2833,128.182449,37.961585,6079.8870528,-8.428,-11.281,1.953,1.0
13.3,128.182451,37.961638,6078.541056000001,-7.419,-11.19,1.979,1.0
13.3166,128.182453,37.961692,6077.1950592,-6.287,-11.102,2.006,1.0
13.3333,128.182456,37.961745,6075.8484528,-5.04,-11.018,2.036,1.0
13.35,128.182458,37.961798,6074.501236800001,-3.683,-10.937,2.067,1.0
13.3666,128.18246,37.961852,6073.1543255999995,-2.222,-10.861,2.1,1.0
13.3833,128.182462,37.961906,6071.8071096,-0.663,-10.789,2.135,1.0
13.4,128.182465,37.961959,6070.4601984,0.99,-10.721,2.172,1.0
13.4166,128.182467,37.962013,6069.113592000001,2.733,-10.658,2.211,1.0
13.4333,128.182469,37.962066,6067.7672904,4.561,-10.601,2.252,1.0
13.45,128.182472,37.96212,6066.422817600001,6.195,-10.543,2.249,1.0
13.4666,128.182474,37.962174,6065.0804784,7.645,-10.485,2.204,1.0
13.4833,128.182476,37.962227,6063.7405776000005,8.88,-10.428,2.141,1.0
13.5,128.182479,37.962281,6062.4043344,9.874,-10.374,2.08,1.0
13.5166,128.182481,37.962335,6061.0717488,10.626,-10.324,2.031,1.0
13.5333,128.182483,37.962388,6059.7434304,11.148,-10.277,1.993,1.0
13.55,128.182486,37.962442,6058.419988799999,11.461,-10.232,1.96,1.0
13.5666,128.182488,37.962496,6057.1017288,11.584,-10.187,1.93,1.0
13.5833,128.18249,37.96255,6055.7892600000005,11.53,-10.143,1.899,1.0
13.6,128.182493,37.962604,6054.482887200001,11.308,-10.101,1.867,1.0
13.6166,128.182495,37.962658,6053.183220000001,10.928,-10.059,1.834,1.0
13.6333,128.182498,37.962711,6051.8905632000005,10.394,-10.02,1.802,1.0
13.65,128.1825,37.962765,6050.6058312000005,9.715,-9.983,1.769,1.0
13.6666,128.182503,37.962819,6049.328719200001,8.898,-9.947,1.737,1.0
13.6833,128.182505,37.962873,6048.060446400001,7.95,-9.914,1.705,1.0
13.7,128.182508,37.962927,6046.8010128000005,6.878,-9.883,1.672,1.0
13.7166,128.18251,37.962981,6045.5507232,5.689,-9.855,1.639,1.0
13.7333,128.182513,37.963035,6044.3104920000005,4.389,-9.828,1.606,1.0
13.75,128.182515,37.963089,6043.0787952,2.982,-9.805,1.572,1.0
13.7666,128.182518,37.963143,6041.856547200001,1.474,-9.784,1.537,1.0
13.7833,128.18252,37.963197,6040.643138400001,-0.128,-9.766,1.502,1.0
13.8,128.182523,37.963251,6039.4385688,-1.823,-9.751,1.467,1.0
13.8166,128.182525,37.963305,6038.2428384,-3.605,-9.739,1.431,1.0
13.8333,128.182528,37.963359,6037.0538136000005,-5.191,-9.727,1.442,1.0
13.85,128.18253,37.963413,6035.8717992,-6.59,-9.714,1.498,1.0
13.8666,128.182533,37.963467,6034.6961856,-7.767,-9.702,1.574,1.0
13.8833,128.182535,37.963522,6033.5260584,-8.697,-9.693,1.648,1.0
13.9,128.182538,37.963576,6032.360808,-9.377,-9.688,1.71,1.0
13.9166,128.18254,37.96363,6031.2001296,-9.82,-9.686,1.761,1.0
13.9333,128.182543,37.963684,6030.0431088000005,-10.048,-9.686,1.806,1.0
13.95,128.182545,37.963738,6028.889136,-10.081,-9.688,1.85,1.0
13.9666,128.182547,37.963793,6027.737296800001,-9.933,-9.692,1.895,1.0
13.9833,128.18255,37.963847,6026.5872864,-9.614,-9.699,1.942,1.0
14.0,128.182552,37.963901,6025.4388,-9.13,-9.71,1.99,1.0
14.0166,128.182555,37.963955,6024.2906184,-8.49,-9.725,2.037,1.0
14.0333,128.182557,37.96401,6023.142436800001,-7.7,-9.745,2.084,1.0
14.05,128.18256,37.964064,6021.9936456000005,-6.769,-9.77,2.13,1.0
14.0666,128.182562,37.964118,6020.8436352,-5.704,-9.8,2.175,1.0
14.0833,128.182564,37.964173,6019.691796,-4.512,-9.836,2.22,1.0
14.1,128.182567,37.964227,6018.5375184,-3.2,-9.877,2.263,1.0
14.1166,128.182569,37.964281,6017.380497600001,-1.775,-9.924,2.306,1.0
14.1333,128.182572,37.964336,6016.221038400001,-0.241,-9.977,2.348,1.0
14.15,128.182574,37.96439,6015.0591408,1.395,-10.036,2.388,1.0
14.1666,128.182577,37.964445,6013.8941952000005,3.129,-10.099,2.425,1.0
14.1833,128.182579,37.964499,6012.726811200001,4.957,-10.163,2.461,1.0
14.2,128.182581,37.964554,6011.558208,6.587,-10.223,2.447,1.0
14.2166,128.182584,37.964608,6010.3880808,8.027,-10.275,2.384,1.0
14.2333,128.182586,37.964662,6009.2170392,9.24,-10.322,2.301,1.0
14.25,128.182589,37.964717,6008.045997600001,10.2,-10.369,2.219,1.0
14.2666,128.182591,37.964772,6006.874956000001,10.901,-10.415,2.15,1.0
14.2833,128.182594,37.964826,6005.704524000001,11.359,-10.459,2.092,1.0
14.3,128.182596,37.964881,6004.5347016000005,11.598,-10.501,2.041,1.0
14.3166,128.182599,37.964935,6003.3664032,11.638,-10.54,1.99,1.0
14.3333,128.182601,37.96499,6002.199933600001,11.493,-10.575,1.938,1.0
14.35,128.182604,37.965044,6001.035292800001,11.172,-10.608,1.885,1.0
14.3666,128.182606,37.965099,5999.8733952,10.683,-10.638,1.833,1.0
14.3833,128.182609,37.965154,5998.714545600001,10.033,-10.667,1.783,1.0
14.4,128.182611,37.965208,5997.558744,9.229,-10.693,1.735,1.0
14.4166,128.182614,37.965263,5996.4069048,8.281,-10.719,1.689,1.0
14.4333,128.182616,37.965318,5995.2593328,7.196,-10.743,1.645,1.0
14.45,128.182619,37.965372,5994.1163328,5.982,-10.765,1.602,1.0
14.4666,128.182622,37.965427,5992.978209600001,4.648,-10.787,1.561,1.0
14.4833,128.182624,37.965482,5991.8455728,3.199,-10.807,1.522,1.0
14.5,128.182627,37.965536,5990.717508,1.641,-10.826,1.484,1.0
14.5166,128.182629,37.965591,5989.5940152,-0.018,-10.844,1.447,1.0
14.5333,128.182632,37.965646,5988.4753992000005,-1.774,-10.862,1.411,1.0
14.55,128.182634,37.965701,5987.361050400001,-3.623,-10.88,1.377,1.0
14.5666,128.182637,37.965756,5986.2497496000005,-5.262,-10.893,1.394,1.0
14.5833,128.182639,37.96581,5985.1408872,-6.702,-10.901,1.46,1.0
14.6,128.182642,37.965865,5984.034463200001,-7.902,-10.907,1.548,1.0
14.6166,128.182645,37.96592,5982.9295632,-8.831,-10.912,1.63,1.0
14.6333,128.182647,37.965975,5981.8258824,-9.486,-10.917,1.698,1.0
14.65,128.18265,37.96603,5980.7225064,-9.885,-10.923,1.752,1.0
14.6666,128.182652,37.966084,5979.6191304,-10.054,-10.926,1.801,1.0
14.6833,128.182655,37.966139,5978.51484,-10.016,-10.927,1.848,1.0
14.7,128.182657,37.966194,5977.4093304,-9.787,-10.927,1.898,1.0
14.7166,128.18266,37.966249,5976.301992000001,-9.374,-10.926,1.948,1.0
14.7333,128.182662,37.966304,5975.192215200001,-8.787,-10.925,1.999,1.0
14.75,128.182665,37.966359,5974.0796952,-8.032,-10.925,2.048,1.0
14.7666,128.182667,37.966414,5972.9638224,-7.119,-10.926,2.094,1.0
14.7833,128.18267,37.966469,5971.843987200001,-6.055,-10.928,2.14,1.0
14.8,128.182672,37.966523,5970.7201896,-4.852,-10.931,2.184,1.0
14.8166,128.182675,37.966578,5969.591210400001,-3.517,-10.937,2.227,1.0
14.8333,128.182677,37.966633,5968.457049600001,-2.058,-10.944,2.269,1.0
14.85,128.18268,37.966688,5967.317097600001,-0.483,-10.954,2.31,1.0
