Time,Longitude,Latitude,Altitude,Roll (deg),Pitch (deg),Yaw (deg),Health
0.0,128.181881,37.923646,7000.146528,0.0,-0.003,0.0,1.0
0.0166,128.181881,37.923691,7000.1605488000005,0.0,-0.012,0.0,1.0
0.0333,128.181881,37.923736,7000.173960000001,0.0,-0.025,0.0,1.0
0.05,128.181881,37.923781,7000.186152000001,0.0,-0.04,359.999,1.0
0.0666,128.181881,37.923826,7000.1977344,0.0,-0.055,359.999,1.0
0.0833,128.181881,37.923871,7000.2084024,0.0,-0.071,0.0,1.0
0.1,128.181881,37.923916,7000.218156000001,0.0,-0.086,0.0,1.0
0.1166,128.181881,37.923961,7000.226995200001,0.0,-0.101,0.0,1.0
0.1333,128.181881,37.924006,7000.235224800001,0.0,-0.113,0.0,1.0
0.15,128.181881,37.924051,7000.24254,0.0,-0.124,0.0,1.0
0.1666,128.181881,37.924096,7000.248636,0.0,-0.133,0.0,1.0
0.1833,128.181881,37.924141,7000.2544272000005,0.0,-0.141,0.0,1.0
0.2,128.181881,37.924186,7000.2589992,0.0,-0.146,0.0,1.0
0.2166,128.181881,37.924231,7000.2629615999995,0.0,-0.15,0.0,1.0
0.2333,128.181881,37.924276,7000.266009600001,0.0,-0.153,0.0,1.0
0.25,128.181881,37.924321,7000.268448,0.0,-0.154,0.0,1.0
0.2666,128.181881,37.924366,7000.269972,0.0,-0.154,0.0,1.0
0.2833,128.181881,37.924411,7000.270581600001,0.0,-0.153,0.0,1.0
0.3,128.181881,37.924456,7000.270581600001,0.0,-0.152,0.0,1.0
0.3166,128.181881,37.924501,7000.2696672,0.0,-0.15,0.0,1.0
0.3333,128.181881,37.924546,7000.2681432,0.0,-0.148,0.0,1.0
0.35,128.181881,37.924591,7000.266009600001,0.0,-0.146,0.0,1.0
0.3666,128.181881,37.924636,7000.2629615999995,0.001,-0.144,0.0,1.0
0.3833,128.181881,37.924682,7000.2596088,0.001,-0.141,0.0,1.0
0.4,128.181881,37.924727,7000.2550368,0.001,-0.139,0.0,1.0
0.4166,128.181881,37.924772,7000.2501600000005,0.001,-0.137,0.0,1.0
0.4333,128.181881,37.924817,7000.2446736,0.001,-0.135,0.0,1.0
0.45,128.181881,37.924862,7000.2382728,0.001,-0.133,0.0,1.0
0.4666,128.181881,37.924907,7000.2312624,0.001,-0.131,0.0,1.0
0.4833,128.181881,37.924952,7000.223947200001,0.001,-0.13,0.0,1.0
0.5,128.181881,37.924998,7000.2157176,0.002,-0.128,0.0,1.0
0.5166,128.181881,37.925043,7000.2068784,0.002,-0.127,0.0,1.0
0.5333,128.181881,37.925088,7000.1977344,0.002,-0.126,0.0,1.0
0.55,128.181881,37.925133,7000.1876760000005,0.002,-0.125,0.0,1.0
0.5666,128.181881,37.925179,7000.1773128,0.002,-0.124,0.0,1.0
0.5833,128.181881,37.925224,7000.16634,0.002,-0.123,0.0,1.0
0.6,128.181881,37.925269,7000.1547576,0.003,-0.122,0.0,1.0
0.6166,128.181881,37.925314,7000.142565600001,0.003,-0.121,0.0,1.0
0.6333,128.181881,37.92536,7000.1300688,0.003,-0.12,0.0,1.0
0.65,128.181881,37.925405,7000.1169624,0.003,-0.119,0.0,1.0
0.6666,128.181881,37.92545,7000.103246400001,0.003,-0.118,0.0,1.0
0.6833,128.181881,37.925495,7000.0889208,0.004,-0.117,0.0,1.0
0.7,128.181881,37.925541,7000.0742904,0.004,-0.116,0.0,1.0
0.7166,128.181881,37.925586,7000.059355200001,0.004,-0.116,0.0,1.0
0.7333,128.181881,37.925631,7000.0438104,0.004,-0.114,0.0,1.0
0.75,128.181881,37.925677,7000.027656000001,0.004,-0.113,0.0,1.0
0.7666,128.181881,37.925722,7000.011196800001,0.005,-0.112,0.0,1.0
0.7833,128.181881,37.925767,6999.9944328,0.005,-0.111,0.001,1.0
0.8,128.181881,37.925813,6999.9770592,0.005,-0.11,0.001,1.0
0.8166,128.181881,37.925858,6999.959076,0.005,-0.109,0.001,1.0
0.8333,128.181881,37.925903,6999.941092800001,0.006,-0.108,0.001,1.0
0.85,128.181881,37.925949,6999.922500000001,0.006,-0.106,0.001,1.0
0.8666,128.181881,37.925994,6999.903297600001,0.006,-0.105,0.001,1.0
0.8833,128.181881,37.92604,6999.8840952,0.007,-0.104,0.001,1.0
0.9,128.181881,37.926085,6999.8642832000005,0.007,-0.103,0.001,1.0
0.9166,128.181881,37.92613,6999.8441664,0.007,-0.101,0.001,1.0
0.9333,128.181881,37.926176,6999.8237448,0.007,-0.1,0.001,1.0
0.95,128.181881,37.926221,6999.8027136,0.008,-0.099,0.001,1.0
0.9666,128.181881,37.926267,6999.7816824,0.008,-0.097,0.0,1.0
0.9833,128.181881,37.926312,6999.7600416000005,0.008,-0.096,0.0,1.0
1.0,128.181881,37.926358,6999.738096,0.009,-0.095,0.0,1.0
1.0166,128.181881,37.926403,6999.715845600001,0.009,-0.093,0.0,1.0
1.0333,128.181881,37.926448,6999.6932904000005,0.009,-0.092,0.0,1.0
1.05,128.181881,37.926494,6999.6704304,0.01,-0.09,0.0,1.0
1.0666,128.181881,37.926539,6999.647570400001,0.01,-0.089,0.0,1.0
1.0833,128.181881,37.926585,6999.624100800001,0.01,-0.087,0.001,1.0
1.1,128.181881,37.926631,6999.6003264,0.01,-0.086,0.001,1.0
1.1166,128.181881,37.926676,6999.576247200001,0.011,-0.084,0.001,1.0
1.1333,128.181881,37.926722,6999.5518632,0.011,-0.083,0.001,1.0
1.15,128.181881,37.926767,6999.527479200001,0.011,-0.081,0.001,1.0
1.1666,128.181881,37.926813,6999.5027904,0.012,-0.08,0.001,1.0
1.1833,128.181881,37.926858,6999.477492000001,0.012,-0.078,0.001,1.0
1.2,128.181881,37.926904,6999.4521936,0.013,-0.077,0.001,1.0
1.2166,128.181881,37.926949,6999.4265904,0.013,-0.075,0.001,1.0
1.2333,128.181881,37.926995,6999.400987200001,0.013,-0.074,0.001,1.0
1.25,128.181881,37.927041,6999.375079200001,0.014,-0.072,0.001,1.0
1.2666,128.181881,37.927086,6999.3488664,0.014,-0.071,0.001,1.0
1.2833,128.181881,37.927132,6999.3223488,0.015,-0.069,0.001,1.0
1.3,128.181881,37.927177,6999.2955264,0.015,-0.068,0.001,1.0
1.3166,128.181881,37.927223,6999.268704,0.015,-0.066,0.0,1.0
1.3333,128.181881,37.927269,6999.2415768,0.016,-0.065,0.0,1.0
1.35,128.181881,37.927314,6999.2144496,0.016,-0.064,0.0,1.0
1.3666,128.181881,37.92736,6999.1870176,0.017,-0.062,0.0,1.0
1.3833,128.181881,37.927406,6999.1592808000005,0.017,-0.06,0.001,1.0
1.4,128.181881,37.927451,6999.131544,0.017,-0.059,0.001,1.0
1.4166,128.181881,37.927497,6999.1038072,0.018,-0.057,0.001,1.0
1.4333,128.181881,37.927543,6999.075460800001,0.018,-0.056,0.001,1.0
1.45,128.181881,37.927588,6999.0474192,0.019,-0.054,0.001,1.0
1.4666,128.181881,37.927634,6999.018768,0.019,-0.052,0.001,1.0
1.4833,128.181881,37.92768,6998.9904216,0.02,-0.051,0.001,1.0
1.5,128.181881,37.927726,6998.961465600001,0.02,-0.049,0.001,1.0
1.5166,128.181881,37.927771,6998.9328144,0.021,-0.048,0.001,1.0
1.5333,128.181881,37.927817,6998.9038584,0.021,-0.046,0.001,1.0
1.55,128.181881,37.927863,6998.874597600001,0.022,-0.045,0.001,1.0
1.5666,128.181881,37.927909,6998.8453368,0.022,-0.043,0.001,1.0
1.5833,128.181881,37.927954,6998.816076,0.023,-0.042,0.001,1.0
1.6,128.181881,37.928,6998.7865104,0.023,-0.04,0.001,1.0
1.6166,128.181881,37.928046,6998.7569448,0.024,-0.039,0.001,1.0
1.6333,128.181881,37.928092,6998.7273792000005,0.024,-0.037,0.001,1.0
1.65,128.181881,37.928138,6998.6975088,0.025,-0.036,0.001,1.0
1.6666,128.181881,37.928183,6998.667638400001,0.026,-0.034,0.001,1.0
1.6833,128.181881,37.928229,6998.6377680000005,0.026,-0.033,0.001,1.0
1.7,128.181881,37.928275,6998.607897600001,0.027,-0.032,0.001,1.0
1.7166,128.181881,37.928321,6998.5777224,0.027,-0.03,0.001,1.0
1.7333,128.181881,37.928367,6998.547547200001,0.028,-0.029,0.001,1.0
1.75,128.181881,37.928413,6998.5170672,0.028,-0.027,0.001,1.0
1.7666,128.181881,37.928459,6998.486892000001,0.029,-0.026,0.001,1.0
1.7833,128.181881,37.928505,6998.456412,0.029,-0.024,0.001,1.0
1.8,128.181881,37.92855,6998.425932,0.03,-0.023,0.001,1.0
1.8166,128.181881,37.928596,6998.395452000001,0.031,-0.021,0.001,1.0
1.8333,128.181881,37.928642,6998.364972,0.031,-0.02,0.001,1.0
1.85,128.181881,37.928688,6998.334187200001,0.032,-0.018,0.001,1.0
1.8666,128.181881,37.928734,6998.3037072,0.033,-0.017,0.001,1.0
1.8833,128.181881,37.92878,6998.2729224,0.033,-0.015,0.001,1.0
1.9,128.181881,37.928826,6998.2421376,0.034,-0.014,0.001,1.0
1.9166,128.181881,37.928872,6998.2113528,0.034,-0.012,0.001,1.0
1.9333,128.181881,37.928918,6998.180568000001,0.035,-0.011,0.001,1.0
1.95,128.181881,37.928964,6998.1497832000005,0.036,-0.009,0.001,1.0
1.9666,128.181881,37.92901,6998.1189984,0.036,-0.008,0.001,1.0
1.9833,128.181881,37.929056,6998.0882136,0.037,-0.007,0.001,1.0
2.0,128.181881,37.929102,6998.057428800001,0.038,-0.005,0.001,1.0
2.0166,128.181881,37.929148,6998.0263392,0.038,-0.004,0.001,1.0
2.0333,128.181881,37.929194,6997.9955544,0.039,-0.003,0.001,1.0
2.05,128.181881,37.92924,6997.9644648,0.04,-0.002,0.001,1.0
2.0666,128.181881,37.929286,6997.93368,0.04,-0.001,0.001,1.0
2.0833,128.181881,37.929332,6997.9025904,0.041,-0.001,0.001,1.0
2.1,128.181881,37.929378,6997.871805600001,0.042,-0.001,0.001,1.0
2.1166,128.181881,37.929424,6997.840716,0.042,-0.001,0.001,1.0
2.1333,128.181881,37.92947,6997.8099312,0.043,-0.001,0.002,1.0
2.15,128.181881,37.929517,6997.7788416,0.044,-0.001,0.002,1.0
2.1666,128.181881,37.929563,6997.748056800001,0.044,-0.002,0.002,1.0
2.1833,128.181881,37.929609,6997.7169672,0.045,-0.002,0.002,1.0
2.2,128.181882,37.929655,6997.685877600001,0.046,-0.003,0.002,1.0
2.2166,128.181882,37.929701,6997.655092800001,0.047,-0.004,0.002,1.0
2.2333,128.181882,37.929747,6997.6240032,0.047,-0.005,0.002,1.0
2.25,128.181882,37.929793,6997.5929136,0.048,-0.006,0.002,1.0
2.2666,128.181882,37.92984,6997.562128800001,0.049,-0.007,0.002,1.0
2.2833,128.181882,37.929886,6997.5310392,0.05,-0.008,0.002,1.0
2.3,128.181882,37.929932,6997.4999496,0.05,-0.009,0.002,1.0
2.3166,128.181882,37.929978,6997.469164800001,0.051,-0.01,0.002,1.0
2.3333,128.181882,37.930024,6997.4380752,0.052,-0.011,0.002,1.0
2.35,128.181882,37.930071,6997.406985600001,0.052,-0.011,0.002,1.0
2.3666,128.181882,37.930117,6997.3758960000005,0.053,-0.012,0.002,1.0
2.3833,128.181882,37.930163,6997.345111200001,0.054,-0.013,0.001,1.0
2.4,128.181882,37.930209,6997.3140216,0.054,-0.013,0.001,1.0
2.4166,128.181882,37.930256,6997.282932,0.055,-0.014,0.001,1.0
2.4333,128.181882,37.930302,6997.251842400001,0.056,-0.015,0.001,1.0
2.45,128.181882,37.930348,6997.2210576,0.057,-0.015,0.001,1.0
2.4666,128.181882,37.930394,6997.189968000001,0.057,-0.016,0.002,1.0
2.4833,128.181882,37.930441,6997.1588784000005,0.058,-0.016,0.002,1.0
2.5,128.181882,37.930487,6997.1280936,0.059,-0.016,0.002,1.0
2.5166,128.181882,37.930533,6997.097004,0.06,-0.017,0.002,1.0
2.5333,128.181882,37.93058,6997.0659144,0.06,-0.017,0.002,1.0
2.55,128.181882,37.930626,6997.034824800001,0.061,-0.018,0.002,1.0
2.5666,128.181882,37.930672,6997.00404,0.062,-0.018,0.002,1.0
2.5833,128.181882,37.930719,6996.972950400001,0.063,-0.019,0.002,1.0
2.6,128.181882,37.930765,6996.9418608000005,0.064,-0.02,0.002,1.0
2.6166,128.181882,37.930811,6996.911076,0.065,-0.02,0.002,1.0
2.6333,128.181882,37.930858,6996.8799864,0.065,-0.021,0.002,1.0
2.65,128.181882,37.930904,6996.848896800001,0.066,-0.022,0.002,1.0
2.6666,128.181882,37.930951,6996.818112,0.067,-0.022,0.002,1.0
2.6833,128.181882,37.930997,6996.7870224,0.068,-0.023,0.002,1.0
2.7,128.181882,37.931043,6996.755932800001,0.069,-0.024,0.002,1.0
2.7166,128.181882,37.93109,6996.7251479999995,0.07,-0.024,0.002,1.0
2.7333,128.181882,37.931136,6996.6940584,0.071,-0.025,0.002,1.0
2.75,128.181882,37.931183,6996.6632736,0.071,-0.026,0.002,1.0
2.7666,128.181882,37.931229,6996.632184000001,0.072,-0.026,0.002,1.0
2.7833,128.181882,37.931276,6996.6013992,0.073,-0.027,0.002,1.0
2.8,128.181882,37.931322,6996.570309600001,0.074,-0.027,0.002,1.0
2.8166,128.181882,37.931369,6996.5395248,0.075,-0.028,0.002,1.0
2.8333,128.181882,37.931415,6996.5084352,0.076,-0.029,0.002,1.0
2.85,128.181882,37.931462,6996.4776504,0.077,-0.029,0.002,1.0
2.8666,128.181882,37.931508,6996.446560800001,0.078,-0.03,0.002,1.0
2.8833,128.181882,37.931555,6996.415776,0.079,-0.03,0.002,1.0
2.9,128.181882,37.931601,6996.384686400001,0.08,-0.031,0.002,1.0
2.9166,128.181882,37.931648,6996.3539016,0.081,-0.032,0.002,1.0
2.9333,128.181882,37.931694,6996.3231168,0.082,-0.032,0.002,1.0
2.95,128.181882,37.931741,6996.292332,0.083,-0.033,0.002,1.0
2.9666,128.181882,37.931788,6996.261242400001,0.084,-0.034,0.002,1.0
2.9833,128.181882,37.931834,6996.2304576,0.084,-0.034,0.002,1.0
3.0,128.181882,37.931881,6996.1996728,0.085,-0.035,0.002,1.0
3.0166,128.181882,37.931927,6996.168888000001,0.086,-0.036,0.002,1.0
3.0333,128.181882,37.931974,6996.1381032,0.087,-0.036,0.002,1.0
3.05,128.181882,37.932021,6996.107013600001,0.088,-0.037,0.002,1.0
3.0666,128.181882,37.932067,6996.0762288000005,0.089,-0.038,0.002,1.0
3.0833,128.181882,37.932114,6996.045444,0.091,-0.038,0.002,1.0
3.1,128.181882,37.932161,6996.0146592,0.092,-0.039,0.002,1.0
3.1166,128.181882,37.932207,6995.983874400001,0.093,-0.04,0.002,1.0
3.1333,128.181882,37.932254,6995.9530896,0.094,-0.04,0.002,1.0
3.15,128.181882,37.932301,6995.9223048,0.095,-0.041,0.002,1.0
3.1666,128.181882,37.932347,6995.891520000001,0.096,-0.042,0.002,1.0
3.1833,128.181882,37.932394,6995.86104,0.097,-0.043,0.002,1.0
3.2,128.181882,37.932441,6995.8302552000005,0.098,-0.043,0.002,1.0
3.2166,128.181882,37.932488,6995.799470400001,0.099,-0.044,0.002,1.0
3.2333,128.181882,37.932534,6995.7686856,0.1,-0.045,0.003,1.0
3.25,128.181882,37.932581,6995.737900800001,0.101,-0.046,0.003,1.0
3.2666,128.181882,37.932628,6995.707420799999,0.102,-0.047,0.003,1.0
3.2833,128.181882,37.932675,6995.676636,0.103,-0.048,0.003,1.0
3.3,128.181882,37.932721,6995.645851200001,0.104,-0.049,0.003,1.0
3.3166,128.181882,37.932768,6995.6153712,0.106,-0.05,0.003,1.0
3.3333,128.181882,37.932815,6995.5845864,0.107,-0.051,0.003,1.0
3.35,128.181882,37.932862,6995.553801600001,0.108,-0.052,0.003,1.0
3.3666,128.181882,37.932909,6995.5233216,0.109,-0.053,0.003,1.0
3.3833,128.181883,37.932956,6995.4925368,0.11,-0.054,0.003,1.0
3.4,128.181883,37.933002,6995.462056800001,0.111,-0.055,0.003,1.0
3.4166,128.181883,37.933049,6995.431272,0.112,-0.056,0.003,1.0
3.4333,128.181883,37.933096,6995.400792,0.113,-0.057,0.003,1.0
3.45,128.181883,37.933143,6995.3700072,0.114,-0.059,0.003,1.0
3.4666,128.181883,37.93319,6995.339527200001,0.115,-0.06,0.003,1.0
3.4833,128.181883,37.933237,6995.3087424000005,0.116,-0.061,0.003,1.0
3.5,128.181883,37.933284,6995.2782624,0.117,-0.062,0.003,1.0
3.5166,128.181883,37.933331,6995.247477600001,0.118,-0.063,0.003,1.0
3.5333,128.181883,37.933378,6995.2169976000005,0.119,-0.064,0.003,1.0
3.55,128.181883,37.933424,6995.1862128,0.12,-0.065,0.003,1.0
3.5666,128.181883,37.933471,6995.155732800001,0.121,-0.067,0.003,1.0
3.5833,128.181883,37.933518,6995.124948,0.122,-0.068,0.003,1.0
3.6,128.181883,37.933565,6995.094468,0.124,-0.069,0.003,1.0
3.6166,128.181883,37.933612,6995.063683200001,0.125,-0.071,0.003,1.0
3.6333,128.181883,37.933659,6995.0328984,0.126,-0.072,0.003,1.0
3.65,128.181883,37.933706,6995.0024184,0.127,-0.073,0.003,1.0
3.6666,128.181883,37.933753,6994.971633600001,0.128,-0.075,0.003,1.0
3.6833,128.181883,37.9338,6994.9411536,0.129,-0.076,0.003,1.0
3.7,128.181883,37.933847,6994.9103688000005,0.13,-0.078,0.003,1.0
3.7166,128.181883,37.933895,6994.8798888,0.131,-0.079,0.003,1.0
3.7333,128.181883,37.933942,6994.849104,0.133,-0.081,0.003,1.0
3.75,128.181883,37.933989,6994.818319200001,0.134,-0.082,0.003,1.0
3.7666,128.181883,37.934036,6994.7875343999995,0.135,-0.084,0.003,1.0
3.7833,128.181883,37.934083,6994.7570544,0.136,-0.086,0.003,1.0
3.8,128.181883,37.93413,6994.726269600001,0.137,-0.088,0.003,1.0
3.8166,128.181883,37.934177,6994.6954848,0.139,-0.089,0.003,1.0
3.8333,128.181883,37.934224,6994.6647,0.14,-0.091,0.003,1.0
3.85,128.181883,37.934271,6994.633915200001,0.141,-0.093,0.003,1.0
3.8666,128.181883,37.934318,6994.6031304,0.142,-0.095,0.003,1.0
3.8833,128.181883,37.934366,6994.5723456000005,0.143,-0.097,0.003,1.0
3.9,128.181883,37.934413,6994.541560800001,0.145,-0.099,0.003,1.0
3.9166,128.181883,37.93446,6994.5104712,0.146,-0.101,0.003,1.0
3.9333,128.181883,37.934507,6994.4796864,0.147,-0.103,0.003,1.0
3.95,128.181883,37.934554,6994.448901600001,0.148,-0.105,0.003,1.0
3.9666,128.181883,37.934602,6994.417812,0.15,-0.107,0.003,1.0
3.9833,128.181883,37.934649,6994.3867224000005,0.151,-0.109,0.003,1.0
4.0,128.181883,37.934696,6994.3559376,0.152,-0.111,0.003,1.0
4.0166,128.181883,37.934743,6994.324848,0.154,-0.113,0.003,1.0
4.0333,128.181883,37.93479,6994.2937584,0.155,-0.115,0.003,1.0
4.05,128.181883,37.934838,6994.262668800001,0.156,-0.117,0.003,1.0
4.0666,128.181883,37.934885,6994.231579200001,0.158,-0.12,0.003,1.0
4.0833,128.181883,37.934932,6994.2001848,0.159,-0.122,0.004,1.0
4.1,128.181883,37.93498,6994.1690952,0.16,-0.124,0.004,1.0
4.1166,128.181883,37.935027,6994.137700800001,0.162,-0.127,0.004,1.0
4.1333,128.181883,37.935074,6994.106611200001,0.163,-0.129,0.004,1.0
4.15,128.181883,37.935122,6994.0752168,0.164,-0.132,0.004,1.0
4.1666,128.181883,37.935169,6994.0438224,0.166,-0.135,0.004,1.0
4.1833,128.181883,37.935216,6994.012428000001,0.167,-0.137,0.004,1.0
4.2,128.181884,37.935264,6993.980728800001,0.168,-0.14,0.004,1.0
4.2166,128.181884,37.935311,6993.9493344,0.169,-0.143,0.004,1.0
4.2333,128.181884,37.935358,6993.9176352,0.171,-0.146,0.004,1.0
4.25,128.181884,37.935406,6993.885936000001,0.172,-0.149,0.004,1.0
4.2666,128.181884,37.935453,6993.854236800001,0.173,-0.152,0.004,1.0
4.2833,128.181884,37.935501,6993.822537600001,0.174,-0.155,0.004,1.0
4.3,128.181884,37.935548,6993.7905336,0.176,-0.158,0.004,1.0
4.3166,128.181884,37.935595,6993.7585296,0.177,-0.161,0.004,1.0
4.3333,128.181884,37.935643,6993.7265256,0.178,-0.163,0.004,1.0
4.35,128.181884,37.93569,6993.6945216,0.179,-0.166,0.004,1.0
4.3666,128.181884,37.935738,6993.6625176,0.18,-0.169,0.004,1.0
4.3833,128.181884,37.935785,6993.6302088,0.182,-0.172,0.004,1.0
4.4,128.181884,37.935833,6993.597900000001,0.183,-0.175,0.004,1.0
4.4166,128.181884,37.93588,6993.5655912,0.184,-0.178,0.004,1.0
4.4333,128.181884,37.935928,6993.532977600001,0.185,-0.182,0.004,1.0
4.45,128.181884,37.935975,6993.5006688,0.187,-0.185,0.004,1.0
4.4666,128.181884,37.936023,6993.468055200001,0.188,-0.188,0.004,1.0
4.4833,128.181884,37.93607,6993.435136800001,0.189,-0.192,0.004,1.0
4.5,128.181884,37.936118,6993.4025232,0.191,-0.195,0.004,1.0
4.5166,128.181884,37.936166,6993.3696048,0.192,-0.198,0.004,1.0
4.5333,128.181884,37.936213,6993.3363816,0.193,-0.202,0.004,1.0
4.55,128.181884,37.936261,6993.3034632,0.194,-0.205,0.004,1.0
4.5666,128.181884,37.936308,6993.27024,0.196,-0.209,0.004,1.0
4.5833,128.181884,37.936356,6993.2370168,0.197,-0.212,0.004,1.0
4.6,128.181884,37.936404,6993.2034888,0.198,-0.216,0.004,1.0
4.6166,128.181884,37.936451,6993.169960800001,0.2,-0.22,0.004,1.0
4.6333,128.181884,37.936499,6993.136432800001,0.201,-0.223,0.004,1.0
4.65,128.181884,37.936547,6993.1026,0.203,-0.227,0.004,1.0
4.6666,128.181884,37.936594,6993.0687672,0.204,-0.231,0.004,1.0
4.6833,128.181884,37.936642,6993.0346296,0.205,-0.235,0.004,1.0
4.7,128.181884,37.93669,6993.000492000001,0.207,-0.239,0.004,1.0
4.7166,128.181884,37.936737,6992.9663544000005,0.208,-0.243,0.005,1.0
4.7333,128.181884,37.936785,6992.931912,0.21,-0.247,0.005,1.0
4.75,128.181884,37.936833,6992.8974696000005,0.211,-0.251,0.005,1.0
4.7666,128.181884,37.936881,6992.8630272,0.212,-0.255,0.005,1.0
4.7833,128.181884,37.936928,6992.8279752,0.214,-0.26,0.005,1.0
4.8,128.181884,37.936976,6992.793228,0.215,-0.264,0.005,1.0
4.8166,128.181884,37.937024,6992.758176,0.216,-0.269,0.005,1.0
4.8333,128.181884,37.937072,6992.7228192,0.218,-0.273,0.005,1.0
4.85,128.181885,37.937119,6992.6874624,0.219,-0.278,0.005,1.0
4.8666,128.181885,37.937167,6992.652105600001,0.22,-0.283,0.005,1.0
4.8833,128.181885,37.937215,6992.616444,0.221,-0.287,0.005,1.0
4.9,128.181885,37.937263,6992.5810872,0.218,-0.294,0.004,1.0
4.9166,128.181885,37.937311,6992.5454256,0.209,-0.303,0.002,1.0
4.9333,128.181885,37.937359,6992.509764,0.196,-0.313,0.0,1.0
4.95,128.181885,37.937407,6992.473797600001,0.179,-0.324,359.997,1.0
4.9666,128.181885,37.937454,6992.4378312,0.159,-0.334,359.995,1.0
4.9833,128.181885,37.937502,6992.401864800001,0.138,-0.344,359.993,1.0
5.0,128.181885,37.93755,6992.3658984,0.109,-0.353,359.99,1.0
5.0166,128.181885,37.937598,6992.329627200001,0.076,-0.361,359.988,1.0
5.0333,128.181885,37.937646,6992.293356000001,0.039,-0.368,359.986,1.0
5.05,128.181885,37.937694,6992.25678,0.003,-0.374,359.984,1.0
5.0666,128.181885,37.937742,6992.2198992,-0.031,-0.378,359.983,1.0
5.0833,128.181885,37.93779,6992.1827136,-0.064,-0.382,359.982,1.0
5.1,128.181885,37.937838,6992.1452232,-0.095,-0.385,359.981,1.0
5.1166,128.181885,37.937886,6992.107428,-0.122,-0.389,359.98,1.0
5.1333,128.181885,37.937934,6992.0693280000005,-0.146,-0.392,359.98,1.0
5.15,128.181885,37.937982,6992.030923200001,-0.168,-0.395,359.979,1.0
5.1666,128.181885,37.93803,6991.9922136000005,-0.187,-0.399,359.979,1.0
5.1833,128.181885,37.938078,6991.9531992,-0.205,-0.403,359.978,1.0
5.2,128.181885,37.938126,6991.91388,-0.22,-0.408,359.978,1.0
5.2166,128.181885,37.938174,6991.874560800001,-0.235,-0.414,359.977,1.0
5.2333,128.181885,37.938222,6991.834936800001,-0.247,-0.404,359.977,1.0
5.25,128.181885,37.93827,6991.7962272,-0.257,-0.363,359.977,1.0
5.2666,128.181885,37.938318,6991.7578224,-0.265,-0.277,359.978,1.0
5.2833,128.181885,37.938366,6991.7209416000005,-0.272,-0.131,359.979,1.0
5.3,128.181885,37.938414,6991.6861944,-0.278,0.084,359.98,1.0
5.3166,128.181885,37.938463,6991.6538856,-0.282,0.378,359.98,1.0
5.3333,128.181885,37.938511,6991.6252343999995,-0.284,0.757,359.98,1.0
5.35,128.181885,37.938559,6991.5996312,-0.286,1.208,359.98,1.0
5.3666,128.181885,37.938607,6991.578600000001,-0.287,1.715,359.98,1.0
5.3833,128.181885,37.938655,6991.5627504,-0.288,2.261,359.979,1.0
5.4,128.181885,37.938703,6991.5520824000005,-0.288,2.827,359.979,1.0
5.4166,128.181885,37.938751,6991.547205600001,-0.288,3.392,359.978,1.0
5.4333,128.181885,37.938799,6991.5490344,-0.287,3.935,359.978,1.0
5.45,128.181886,37.938848,6991.557873600001,-0.287,4.437,359.978,1.0
5.4666,128.181886,37.938896,6991.5737232,-0.286,4.889,359.978,1.0
5.4833,128.181886,37.938944,6991.597497600001,-0.286,5.295,359.979,1.0
5.5,128.181886,37.938992,6991.6295016,-0.285,5.663,359.98,1.0
5.5166,128.181886,37.93904,6991.6703448,-0.284,6.0,359.981,1.0
5.5333,128.181886,37.939088,6991.7200272,-0.284,6.31,359.982,1.0
5.55,128.181886,37.939137,6991.779158400001,-0.283,6.598,359.984,1.0
5.5666,128.181886,37.939185,6991.847433600001,-0.282,6.867,359.985,1.0
5.5833,128.181886,37.939233,6991.9254624000005,-0.282,7.12,359.987,1.0
5.6,128.181886,37.939281,6992.0135496,-0.281,7.359,359.989,1.0
5.6166,128.181886,37.939329,6992.1113904,-0.281,7.585,359.991,1.0
5.6333,128.181886,37.939378,6992.2192896,-0.28,7.8,359.992,1.0
5.65,128.181886,37.939426,6992.337552000001,-0.28,8.005,359.994,1.0
5.6666,128.181886,37.939474,6992.4664824,-0.279,8.202,359.996,1.0
5.6833,128.181886,37.939522,6992.6054712,-0.279,8.391,359.998,1.0
5.7,128.181886,37.93957,6992.755128000001,-0.278,8.573,0.0,1.0
5.7166,128.181886,37.939618,6992.9157576,-0.278,8.748,0.002,1.0
5.7333,128.181886,37.939667,6993.086750400001,-0.278,8.919,0.003,1.0
5.75,128.181886,37.939715,6993.268716,-0.277,9.084,0.005,1.0
5.7666,128.181886,37.939763,6993.4613496,-0.277,9.244,0.007,1.0
5.7833,128.181886,37.939811,6993.6649560000005,-0.277,9.4,0.009,1.0
5.8,128.181886,37.939859,6993.8795352,-0.277,9.552,0.01,1.0
5.8166,128.181886,37.939907,6994.1050872000005,-0.277,9.7,0.012,1.0
5.8333,128.181886,37.939955,6994.341612,-0.278,9.844,0.014,1.0
5.85,128.181886,37.940004,6994.5891096000005,-0.278,9.986,0.015,1.0
5.8666,128.181886,37.940052,6994.84758,-0.278,10.125,0.017,1.0
5.8833,128.181886,37.9401,6995.1170232,-0.279,10.262,0.019,1.0
5.9,128.181886,37.940148,6995.397744,-0.28,10.396,0.02,1.0
5.9166,128.181886,37.940196,6995.689742400001,-0.281,10.529,0.022,1.0
5.9333,128.181886,37.940244,6995.992408800001,-0.281,10.66,0.023,1.0
5.95,128.181886,37.940292,6996.3063528,-0.282,10.789,0.025,1.0
5.9666,128.181886,37.94034,6996.6315744,-0.284,10.918,0.026,1.0
5.9833,128.181886,37.940388,6996.9677688,-0.285,11.045,0.028,1.0
6.0,128.181886,37.940436,6997.3152408000005,-0.286,11.171,0.029,1.0
6.0166,128.181886,37.940484,6997.6736856,-0.288,11.296,0.03,1.0
6.0333,128.181886,37.940532,6998.0431032,-0.289,11.421,0.032,1.0
6.05,128.181886,37.94058,6998.4237984,-0.291,11.545,0.033,1.0
6.0666,128.181886,37.940628,6998.8157712,-0.293,11.668,0.034,1.0
6.0833,128.181886,37.940676,6999.2187168,-0.295,11.791,0.036,1.0
6.1,128.181886,37.940724,6999.6326352,-0.297,11.914,0.037,1.0
6.1166,128.181886,37.940772,7000.0578312,-0.299,12.036,0.038,1.0
6.1333,128.181886,37.94082,7000.494000000001,-0.301,12.158,0.04,1.0
6.15,128.181886,37.940868,7000.9414464,-0.303,12.279,0.041,1.0
6.1666,128.181886,37.940916,7001.399865600001,-0.306,12.4,0.042,1.0
6.1833,128.181886,37.940964,7001.8695624,-0.308,12.521,0.043,1.0
6.2,128.181886,37.941012,7002.3499272,-0.311,12.642,0.044,1.0
6.2166,128.181886,37.94106,7002.841874400001,-0.314,12.763,0.045,1.0
6.2333,128.181886,37.941107,7003.3444896,-0.316,12.883,0.047,1.0
6.25,128.181886,37.941155,7003.858382400001,-0.319,13.003,0.048,1.0
6.2666,128.181886,37.941203,7004.383248,-0.322,13.123,0.049,1.0
6.2833,128.181886,37.941251,7004.9193912,-0.326,13.243,0.05,1.0
6.3,128.181886,37.941299,7005.4662024,-0.329,13.363,0.051,1.0
6.3166,128.181886,37.941346,7006.0242912,-0.332,13.483,0.052,1.0
6.3333,128.181886,37.941394,7006.5933528,-0.336,13.603,0.053,1.0
6.35,128.181886,37.941442,7007.1733872,-0.339,13.723,0.054,1.0
6.3666,128.181886,37.94149,7007.7643944,-0.343,13.842,0.055,1.0
6.3833,128.181886,37.941537,7008.366679200001,-0.347,13.962,0.056,1.0
6.4,128.181886,37.941585,7008.9796320000005,-0.351,14.082,0.057,1.0
6.4166,128.181886,37.941633,7009.6035576,-0.355,14.201,0.058,1.0
6.4333,128.181886,37.94168,7010.238760800001,-0.359,14.32,0.06,1.0
6.45,128.181886,37.941728,7010.884632,-0.363,14.44,0.061,1.0
6.4666,128.181886,37.941776,7011.5417808,-0.367,14.559,0.062,1.0
6.4833,128.181886,37.941823,7012.209597600001,-0.371,14.678,0.063,1.0
6.5,128.181886,37.941871,7012.888387200001,-0.376,14.798,0.064,1.0
6.5166,128.181886,37.941918,7013.5781496,-0.38,14.917,0.065,1.0
6.5333,128.181886,37.941966,7014.2788848,-0.385,15.036,0.066,1.0
6.55,128.181886,37.942013,7014.990592800001,-0.39,15.155,0.067,1.0
6.5666,128.181886,37.942061,7015.7132736,-0.395,15.274,0.068,1.0
6.5833,128.181886,37.942108,7016.446622400001,-0.4,15.393,0.069,1.0
6.6,128.181886,37.942156,7017.190944,-0.405,15.512,0.07,1.0
6.6166,128.181886,37.942203,7017.945933600001,-0.41,15.631,0.071,1.0
6.6333,128.181886,37.942251,7018.712200800001,-0.415,15.75,0.072,1.0
6.65,128.181886,37.942298,7019.4888312,-0.421,15.869,0.073,1.0
6.6666,128.181886,37.942346,7020.2767392,-0.426,15.988,0.074,1.0
6.6833,128.181886,37.942393,7021.075315200001,-0.432,16.107,0.075,1.0
6.7,128.181886,37.94244,7021.884559200001,-0.437,16.225,0.076,1.0
6.7166,128.181886,37.942488,7022.7047760000005,-0.443,16.344,0.077,1.0
6.7333,128.181886,37.942535,7023.535965600001,-0.449,16.463,0.078,1.0
6.75,128.181886,37.942582,7024.377518400001,-0.455,16.582,0.079,1.0
6.7666,128.181886,37.942629,7025.2303488,-0.461,16.7,0.08,1.0
6.7833,128.181886,37.942677,7026.093542400001,-0.467,16.819,0.081,1.0
6.8,128.181885,37.942724,7026.9677088,-0.474,16.937,0.082,1.0
6.8166,128.181885,37.942771,7027.8525432,-0.48,17.056,0.083,1.0
6.8333,128.181885,37.942818,7028.7480456,-0.487,17.174,0.084,1.0
6.85,128.181885,37.942865,7029.6545208,-0.493,17.293,0.085,1.0
6.8666,128.181885,37.942912,7030.5713592,-0.5,17.411,0.086,1.0
6.8833,128.181885,37.94296,7031.499170400001,-0.507,17.53,0.088,1.0
6.9,128.181885,37.943007,7032.4376496,-0.514,17.648,0.089,1.0
6.9166,128.181885,37.943054,7033.3867968,-0.521,17.766,0.09,1.0
6.9333,128.181885,37.943101,7034.3463071999995,-0.528,17.885,0.091,1.0
6.95,128.181885,37.943148,7035.3167904,-0.535,18.003,0.092,1.0
6.9666,128.181885,37.943195,7036.297941600001,-0.543,18.121,0.093,1.0
6.9833,128.181885,37.943242,7037.289760800001,-0.55,18.239,0.094,1.0
7.0,128.181885,37.943289,7038.2919432,-0.558,18.357,0.096,1.0
7.0166,128.181885,37.943335,7039.3047936,-0.566,18.475,0.097,1.0
7.0333,128.181885,37.943382,7040.328312,-0.574,18.594,0.098,1.0
7.05,128.181885,37.943429,7041.3624984,-0.582,18.712,0.099,1.0
7.0666,128.181885,37.943476,7042.4073528,-0.59,18.83,0.1,1.0
7.0833,128.181885,37.943523,7043.462570400001,-0.598,18.947,0.102,1.0
7.1,128.181885,37.943569,7044.528151200001,-0.606,19.065,0.103,1.0
7.1166,128.181885,37.943616,7045.6047048,-0.615,19.183,0.104,1.0
7.1333,128.181885,37.943663,7046.6913168,-0.623,19.301,0.106,1.0
7.15,128.181885,37.94371,7047.788901600001,-0.632,19.419,0.107,1.0
7.1666,128.181885,37.943756,7048.8965448,-0.641,19.537,0.108,1.0
7.1833,128.181885,37.943803,7050.014856000001,-0.65,19.654,0.109,1.0
7.2,128.181885,37.943849,7051.1438352000005,-0.659,19.772,0.111,1.0
7.2166,128.181885,37.943896,7052.2831776,-0.668,19.89,0.112,1.0
7.2333,128.181885,37.943943,7053.432883200001,-0.678,20.007,0.114,1.0
7.25,128.181885,37.943989,7054.592952000001,-0.687,20.125,0.115,1.0
7.2666,128.181885,37.944036,7055.763384000001,-0.697,20.242,0.116,1.0
7.2833,128.181884,37.944082,7056.944484000001,-0.707,20.36,0.118,1.0
7.3,128.181884,37.944128,7058.1356424000005,-0.717,20.477,0.119,1.0
7.3166,128.181884,37.944175,7059.3374688,-0.727,20.594,0.121,1.0
7.3333,128.181884,37.944221,7060.5496584,-0.737,20.712,0.122,1.0
7.35,128.181884,37.944267,7061.771906400001,-0.747,20.829,0.124,1.0
7.3666,128.181884,37.944314,7063.0048224,-0.758,20.946,0.125,1.0
7.3833,128.181884,37.94436,7064.2477968,-0.768,21.064,0.127,1.0
7.4,128.181884,37.944406,7065.5014392,-0.779,21.181,0.128,1.0
7.4166,128.181884,37.944452,7066.76514,-0.79,21.298,0.13,1.0
7.4333,128.181884,37.944499,7068.0388992,-0.801,21.415,0.132,1.0
7.45,128.181884,37.944545,7069.3233264,-0.812,21.532,0.133,1.0
7.4666,128.181884,37.944591,7070.6178119999995,-0.824,21.649,0.135,1.0
7.4833,128.181884,37.944637,7071.922660800001,-0.835,21.766,0.137,1.0
7.5,128.181884,37.944683,7073.2375680000005,-0.847,21.883,0.138,1.0
7.5166,128.181884,37.944729,7074.562533600001,-0.859,22.0,0.14,1.0
7.5333,128.181884,37.944775,7075.8978624,-0.871,22.117,0.142,1.0
7.55,128.181884,37.944821,7077.2435544,-0.883,22.233,0.143,1.0
7.5666,128.181883,37.944867,7078.5993048,-0.895,22.35,0.145,1.0
7.5833,128.181883,37.944913,7079.9651136,-0.907,22.467,0.147,1.0
7.6,128.181883,37.944959,7081.3409808,-0.92,22.583,0.149,1.0
7.6166,128.181883,37.945004,7082.727211200001,-0.932,22.7,0.15,1.0
7.6333,128.181883,37.94505,7084.123500000001,-0.945,22.816,0.152,1.0
7.65,128.181883,37.945096,7085.5295424000005,-0.958,22.933,0.153,1.0
7.6666,128.181883,37.945142,7086.945948,-0.971,23.049,0.154,1.0
7.6833,128.181883,37.945187,7088.372412,-0.984,23.166,0.156,1.0
7.7,128.181883,37.945233,7089.8089344,-0.997,23.282,0.157,1.0
7.7166,128.181883,37.945279,7091.2555152,-1.01,23.399,0.158,1.0
7.7333,128.181883,37.945324,7092.7118496,-1.024,23.515,0.159,1.0
7.75,128.181883,37.94537,7094.178547200001,-1.037,23.631,0.16,1.0
7.7666,128.181882,37.945415,7095.6549984,-1.051,23.747,0.16,1.0
7.7833,128.181882,37.945461,7097.141508,-1.065,23.863,0.161,1.0
7.8,128.181882,37.945506,7098.6377712,-1.079,23.979,0.162,1.0
7.8166,128.181882,37.945551,7100.144092800001,-1.093,24.095,0.162,1.0
7.8333,128.181882,37.945597,7101.6604728,-1.108,24.211,0.163,1.0
7.85,128.181882,37.945642,7103.1866064000005,-1.122,24.327,0.163,1.0
7.8666,128.181882,37.945687,7104.7227984,-1.137,24.443,0.163,1.0
7.8833,128.181882,37.945733,7106.268744,-1.152,24.559,0.163,1.0
7.9,128.181882,37.945778,7107.8244432,-1.167,24.675,0.163,1.0
7.9166,128.181882,37.945823,7109.3902008000005,-1.183,24.791,0.164,1.0
7.9333,128.181881,37.945868,7110.965712,-1.198,24.906,0.163,1.0
7.95,128.181881,37.945913,7112.5509768,-1.214,25.022,0.163,1.0
7.9666,128.181881,37.945958,7114.1459952000005,-1.23,25.137,0.163,1.0
7.9833,128.181881,37.946003,7115.7507672,-1.246,25.253,0.163,1.0
8.0,128.181881,37.946048,7117.365292800001,-1.262,25.368,0.162,1.0
8.0166,128.181881,37.946093,7118.989572,-1.278,25.484,0.162,1.0
8.0333,128.181881,37.946138,7120.6236048,-1.294,25.599,0.161,1.0
8.05,128.181881,37.946183,7122.2673912,-1.311,25.715,0.161,1.0
8.0666,128.181881,37.946228,7123.9209312,-1.328,25.83,0.16,1.0
8.0833,128.18188,37.946273,7125.583920000001,-1.345,25.945,0.159,1.0
8.1,128.18188,37.946317,7127.2566624,-1.362,26.06,0.158,1.0
8.1166,128.18188,37.946362,7128.9391584,-1.379,26.175,0.157,1.0
8.1333,128.18188,37.946407,7130.631408,-1.396,26.29,0.156,1.0
8.15,128.18188,37.946451,7132.3328016000005,-1.414,26.405,0.155,1.0
8.1666,128.18188,37.946496,7134.0442536,-1.431,26.52,0.154,1.0
8.1833,128.18188,37.946541,7135.7648496,-1.449,26.635,0.153,1.0
8.2,128.18188,37.946585,7137.495199200001,-1.467,26.75,0.151,1.0
8.2166,128.181879,37.94663,7139.2353023999995,-1.485,26.865,0.15,1.0
8.2333,128.181879,37.946674,7140.9845496,-1.503,26.98,0.148,1.0
8.25,128.181879,37.946718,7142.7435504000005,-1.521,27.094,0.147,1.0
8.2666,128.181879,37.946763,7144.512000000001,-1.539,27.209,0.145,1.0
8.2833,128.181879,37.946807,7146.2898984,-1.558,27.324,0.143,1.0
8.3,128.181879,37.946851,7148.0772456,-1.576,27.438,0.142,1.0
8.3166,128.181878,37.946895,7149.874041600001,-1.595,27.553,0.14,1.0
8.3333,128.181878,37.94694,7151.6802864,-1.613,27.667,0.138,1.0
8.35,128.181878,37.946984,7153.4956752,-1.632,27.781,0.136,1.0
8.3666,128.181878,37.947028,7155.3208176,-1.651,27.896,0.133,1.0
8.3833,128.181878,37.947072,7157.155104,-1.67,28.01,0.131,1.0
8.4,128.181878,37.947116,7158.9985344,-1.689,28.124,0.129,1.0
8.4166,128.181877,37.94716,7160.8517184,-1.708,28.238,0.127,1.0
8.4333,128.181877,37.947204,7162.7140464,-1.727,28.352,0.124,1.0
8.45,128.181877,37.947248,7164.5855184,-1.746,28.466,0.122,1.0
8.4666,128.181877,37.947292,7166.4664391999995,-1.766,28.58,0.119,1.0
8.4833,128.181877,37.947335,7168.356504,-1.785,28.694,0.116,1.0
8.5,128.181877,37.947379,7170.2557128,-1.805,28.808,0.113,1.0
8.5166,128.181876,37.947423,7172.164370400001,-1.824,28.922,0.111,1.0
8.5333,128.181876,37.947466,7174.082172,-1.844,29.035,0.108,1.0
8.55,128.181876,37.94751,7176.0091176000005,-1.863,29.149,0.105,1.0
8.5666,128.181876,37.947554,7177.9452071999995,-1.883,29.263,0.102,1.0
8.5833,128.181876,37.947597,7179.890440800001,-1.903,29.376,0.098,1.0
8.6,128.181875,37.947641,7181.844818400001,-1.923,29.49,0.095,1.0
8.6166,128.181875,37.947684,7183.8083400000005,-1.942,29.603,0.092,1.0
8.6333,128.181875,37.947727,7185.781005600001,-1.962,29.717,0.088,1.0
8.65,128.181875,37.947771,7187.762510400001,-1.982,29.83,0.085,1.0
8.6666,128.181874,37.947814,7189.7531592000005,-2.002,29.943,0.081,1.0
8.6833,128.181874,37.947857,7191.752952000001,-2.022,30.056,0.078,1.0
8.7,128.181874,37.947901,7193.7618888,-2.042,30.17,0.074,1.0
8.7166,128.181874,37.947944,7195.77936,-2.062,30.283,0.07,1.0
8.7333,128.181874,37.947987,7197.80628,-2.082,30.396,0.067,1.0
8.75,128.181873,37.94803,7199.8420392,-2.102,30.509,0.063,1.0
8.7666,128.181873,37.948073,7201.8866376000005,-2.122,30.622,0.059,1.0
8.7833,128.181873,37.948116,7203.9400752,-2.142,30.734,0.055,1.0
8.8,128.181873,37.948159,7206.002656800001,-2.162,30.847,0.05,1.0
8.8166,128.181872,37.948202,7208.0737728,-2.182,30.96,0.046,1.0
8.8333,128.181872,37.948245,7210.154032800001,-2.202,31.073,0.042,1.0
8.85,128.181872,37.948287,7212.2431320000005,-2.222,31.185,0.038,1.0
8.8666,128.181871,37.94833,7214.341070400001,-2.242,31.298,0.033,1.0
8.8833,128.181871,37.948373,7216.4475432,-2.262,31.41,0.029,1.0
8.9,128.181871,37.948415,7218.563160000001,-2.282,31.523,0.024,1.0
8.9166,128.181871,37.948458,7220.687311200001,-2.302,31.635,0.02,1.0
8.9333,128.18187,37.948501,7222.820301600001,-2.322,31.747,0.015,1.0
8.95,128.18187,37.948543,7224.9618264,-2.342,31.86,0.01,1.0
8.9666,128.18187,37.948586,7227.1124952,-2.362,31.972,0.005,1.0
8.9833,128.18187,37.948628,7229.2713936,-2.382,32.085,0.0,1.0
9.0,128.181869,37.94867,7231.4391312,-2.402,32.198,359.995,1.0
9.0166,128.181869,37.948713,7233.615708,-2.422,32.311,359.99,1.0
9.0333,128.181869,37.948755,7235.800819200001,-2.442,32.425,359.985,1.0
9.05,128.181868,37.948797,7237.994464800001,-2.461,32.539,359.98,1.0
9.0666,128.181868,37.948839,7240.1969496,-2.481,32.653,359.974,1.0
9.0833,128.181868,37.948881,7242.407664,-2.501,32.768,359.969,1.0
9.1,128.181867,37.948924,7244.6272176,-2.52,32.883,359.963,1.0
9.1166,128.181867,37.948966,7246.855305600001,-2.54,32.998,359.957,1.0
9.1333,128.181867,37.949008,7249.091928000001,-2.559,33.114,359.952,1.0
9.15,128.181866,37.949049,7251.33678,-2.579,33.23,359.946,1.0
9.1666,128.181866,37.949091,7253.5904712,-2.598,33.347,359.94,1.0
9.1833,128.181866,37.949133,7255.852696800001,-2.617,33.463,359.934,1.0
9.2,128.181865,37.949175,7258.123152000001,-2.636,33.58,359.928,1.0
9.2166,128.181865,37.949217,7260.4024464,-2.655,33.697,359.922,1.0
9.2333,128.181865,37.949258,7262.689970400001,-2.674,33.815,359.916,1.0
9.25,128.181864,37.9493,7264.985724000001,-2.693,33.932,359.909,1.0
9.2666,128.181864,37.949341,7267.2903168,-2.712,34.05,359.903,1.0
9.2833,128.181863,37.949383,7269.6031391999995,-2.731,34.168,359.896,1.0
9.3,128.181863,37.949424,7271.924191200001,-2.749,34.285,359.89,1.0
9.3166,128.181863,37.949466,7274.253777600001,-2.768,34.403,359.883,1.0
9.3333,128.181862,37.949507,7276.5915936,-2.786,34.522,359.877,1.0
9.35,128.181862,37.949549,7278.937944,-2.804,34.64,359.87,1.0
9.3666,128.181862,37.94959,7281.292828800001,-2.822,34.758,359.863,1.0
9.3833,128.181861,37.949631,7283.6556384000005,-2.84,34.877,359.856,1.0
9.4,128.181861,37.949672,7286.026982400001,-2.858,34.995,359.849,1.0
9.4166,128.18186,37.949713,7288.406556000001,-2.876,35.114,359.842,1.0
9.4333,128.18186,37.949754,7290.7943592,-2.893,35.232,359.835,1.0
9.45,128.181859,37.949795,7293.1906968,-2.911,35.351,359.828,1.0
9.4666,128.181859,37.949836,7295.594959200001,-2.928,35.47,359.82,1.0
9.4833,128.181859,37.949877,7298.007756000001,-2.945,35.589,359.813,1.0
9.5,128.181858,37.949918,7300.4287824,-2.962,35.708,359.806,1.0
9.5166,128.181858,37.949959,7302.857733600001,-2.979,35.827,359.798,1.0
9.5333,128.181857,37.949999,7305.2952192,-2.996,35.946,359.791,1.0
9.55,128.181857,37.95004,7307.7406296,-3.013,36.065,359.783,1.0
9.5666,128.181856,37.950081,7310.194269600001,-3.029,36.184,359.776,1.0
9.5833,128.181856,37.950121,7312.6561392,-3.045,36.303,359.768,1.0
9.6,128.181855,37.950162,7315.126238400001,-3.062,36.422,359.76,1.0
9.6166,128.181855,37.950202,7317.6042624,-3.078,36.542,359.752,1.0
9.6333,128.181854,37.950243,7320.090516,-3.093,36.661,359.744,1.0
9.65,128.181854,37.950283,7322.5846944,-3.109,36.78,359.736,1.0
9.6666,128.181853,37.950323,7325.0874072,-3.125,36.9,359.728,1.0
9.6833,128.181853,37.950364,7327.59774,-3.14,37.019,359.72,1.0
9.7,128.181852,37.950404,7330.1163024,-3.155,37.139,359.712,1.0
9.7166,128.181852,37.950444,7332.6430944,-3.171,37.259,359.704,1.0
9.7333,128.181851,37.950484,7335.177506400001,-3.185,37.378,359.695,1.0
9.75,128.181851,37.950524,7337.720148,-3.2,37.498,359.687,1.0
9.7666,128.18185,37.950564,7340.2710192,-3.215,37.618,359.679,1.0
9.7833,128.18185,37.950604,7342.829510400001,-3.229,37.737,359.67,1.0
9.8,128.181849,37.950644,7345.3962312,-3.244,37.857,359.662,1.0
9.8166,128.181849,37.950683,7347.9708768,-3.258,37.977,359.653,1.0
9.8333,128.181848,37.950723,7350.553447200001,-3.272,38.097,359.644,1.0
9.85,128.181848,37.950763,7353.143942400001,-3.286,38.217,359.636,1.0
9.8666,128.181847,37.950802,7355.7423624,-3.3,38.337,359.627,1.0
9.8833,128.181847,37.950842,7358.3484024,-3.313,38.457,359.618,1.0
9.9,128.181846,37.950881,7360.962672000001,-3.326,38.578,359.609,1.0
9.9166,128.181845,37.950921,7363.5848664,-3.34,38.698,359.6,1.0
9.9333,128.181845,37.95096,7366.2146808,-3.353,38.818,359.591,1.0
9.95,128.181844,37.951,7368.852420000001,-3.366,38.939,359.582,1.0
9.9666,128.181844,37.951039,7371.498084000001,-3.378,39.059,359.573,1.0
9.9833,128.181843,37.951078,7374.151368000001,-3.391,39.179,359.564,1.0
10.0,128.181842,37.951117,7376.8125768,-3.403,39.3,359.555,1.0
10.0166,128.181842,37.951156,7379.4814056000005,-3.416,39.42,359.546,1.0
10.0333,128.181841,37.951195,7382.1581592,-3.428,39.541,359.536,1.0
10.05,128.181841,37.951234,7384.8425328,-3.44,39.662,359.527,1.0
10.0666,128.18184,37.951273,7387.534831200001,-3.452,39.782,359.518,1.0
10.0833,128.181839,37.951312,7390.2347496,-3.463,39.903,359.508,1.0
10.1,128.181839,37.951351,7392.942592800001,-3.475,40.024,359.499,1.0
10.1166,128.181838,37.95139,7395.6577512,-3.486,40.145,359.489,1.0
10.1333,128.181837,37.951428,7398.3808344,-3.497,40.266,359.479,1.0
10.15,128.181837,37.951467,7401.111537600001,-3.508,40.387,359.47,1.0
10.1666,128.181836,37.951506,7403.849860800001,-3.519,40.508,359.46,1.0
10.1833,128.181835,37.951544,7406.5958040000005,-3.53,40.629,359.45,1.0
10.2,128.181835,37.951582,7409.3493672,-3.54,40.75,359.44,1.0
10.2166,128.181834,37.951621,7412.110550400001,-3.551,40.872,359.43,1.0
10.2333,128.181833,37.951659,7414.8793536,-3.561,40.993,359.421,1.0
10.25,128.181833,37.951697,7417.655472,-3.571,41.114,359.411,1.0
10.2666,128.181832,37.951736,7420.439515200001,-3.581,41.236,359.401,1.0
10.2833,128.181831,37.951774,7423.2308736,-3.591,41.357,359.391,1.0
10.3,128.18183,37.951812,7426.029852000001,-3.601,41.479,359.38,1.0
10.3166,128.18183,37.95185,7428.8361456,-3.61,41.6,359.37,1.0
10.3333,128.181829,37.951888,7431.6500592,-3.619,41.722,359.36,1.0
10.35,128.181828,37.951926,7434.4715928000005,-3.629,41.844,359.35,1.0
10.3666,128.181828,37.951963,7437.3004416,-3.638,41.966,359.339,1.0
10.3833,128.181827,37.952001,7440.136605600001,-3.647,42.087,359.329,1.0
10.4,128.181826,37.952039,7442.9803896,-3.655,42.209,359.319,1.0
10.4166,128.181825,37.952077,7445.8314887999995,-3.664,42.331,359.308,1.0
10.4333,128.181825,37.952114,7448.690208,-3.673,42.453,359.298,1.0
10.45,128.181824,37.952152,7451.556242400001,-3.681,42.576,359.287,1.0
10.4666,128.181823,37.952189,7454.429592,-3.689,42.698,359.277,1.0
10.4833,128.181822,37.952227,7457.310256800001,-3.697,42.82,359.266,1.0
10.5,128.181821,37.952264,7460.198236800001,-3.705,42.942,359.255,1.0
10.5166,128.181821,37.952301,7463.093532000001,-3.713,43.065,359.245,1.0
10.5333,128.18182,37.952338,7465.996142400001,-3.721,43.187,359.234,1.0
10.55,128.181819,37.952375,7468.906068,-3.728,43.31,359.223,1.0
10.5666,128.181818,37.952412,7471.823004,-3.736,43.432,359.212,1.0
10.5833,128.181817,37.952449,7474.747560000001,-3.743,43.555,359.202,1.0
10.6,128.181817,37.952486,7477.6791264,-3.75,43.678,359.191,1.0
10.6166,128.181816,37.952523,7480.618008,-3.757,43.801,359.18,1.0
10.6333,128.181815,37.95256,7483.564204800001,-3.764,43.923,359.169,1.0
10.65,128.181814,37.952597,7486.517412,-3.771,44.046,359.158,1.0
10.6666,128.181813,37.952634,7489.4779344,-3.777,44.169,359.147,1.0
10.6833,128.181812,37.95267,7492.4454672,-3.784,44.292,359.135,1.0
10.7,128.181812,37.952707,7495.420315200001,-3.79,44.416,359.124,1.0
10.7166,128.181811,37.952743,7498.4021736,-3.797,44.539,359.113,1.0
10.7333,128.18181,37.95278,7501.3913472,-3.803,44.662,359.102,1.0
10.75,128.181809,37.952816,7504.3872264,-3.809,44.785,359.091,1.0
10.7666,128.181808,37.952852,7507.3904208,-3.815,44.909,359.079,1.0
10.7833,128.181807,37.952889,7510.4006256,-3.821,45.032,359.068,1.0
10.8,128.181806,37.952925,7513.418145600001,-3.826,45.156,359.057,1.0
10.8166,128.181805,37.952961,7516.4423712,-3.832,45.28,359.045,1.0
10.8333,128.181804,37.952997,7519.4736072,-3.837,45.403,359.034,1.0
10.85,128.181804,37.953033,7522.5118536,-3.843,45.527,359.022,1.0
10.8666,128.181803,37.953069,7525.557110400001,-3.848,45.651,359.011,1.0
10.8833,128.181802,37.953104,7528.609377600001,-3.853,45.775,358.999,1.0
10.9,128.181801,37.95314,7531.6686552,-3.858,45.899,358.987,1.0
10.9166,128.1818,37.953176,7534.7349432,-3.863,46.023,358.976,1.0
10.9333,128.181799,37.953212,7537.807936800001,-3.868,46.147,358.964,1.0
10.95,128.181798,37.953247,7540.8879408,-3.873,46.272,358.952,1.0
10.9666,128.181797,37.953283,7543.9746504,-3.877,46.396,358.941,1.0
10.9833,128.181796,37.953318,7547.068370400001,-3.882,46.52,358.929,1.0
11.0,128.181795,37.953353,7550.168796000001,-3.886,46.645,358.917,1.0
11.0166,128.181794,37.953389,7553.276232,-3.891,46.769,358.905,1.0
11.0333,128.181793,37.953424,7556.3903736,-3.895,46.894,358.893,1.0
11.05,128.181792,37.953459,7559.5112208,-3.899,47.019,358.881,1.0
11.0666,128.181791,37.953494,7562.6390784000005,-3.903,47.144,358.869,1.0
11.0833,128.18179,37.953529,7565.773641600001,-3.907,47.268,358.857,1.0
11.1,128.181789,37.953564,7568.914910400001,-3.911,47.393,358.845,1.0
11.1166,128.181788,37.953599,7572.0628848,-3.915,47.518,358.833,1.0
11.1333,128.181787,37.953634,7575.2175648,-3.918,47.644,358.821,1.0
11.15,128.181786,37.953668,7578.378950400001,-3.922,47.769,358.809,1.0
11.1666,128.181785,37.953703,7581.547041600001,-3.925,47.894,358.796,1.0
11.1833,128.181784,37.953738,7584.721533600001,-3.929,48.019,358.784,1.0
11.2,128.181783,37.953772,7587.903036000001,-3.932,48.145,358.772,1.0
11.2166,128.181782,37.953807,7591.0909392,-3.935,48.27,358.76,1.0
11.2333,128.181781,37.953841,7594.285548,-3.938,48.396,358.747,1.0
11.25,128.18178,37.953875,7597.4868624,-3.942,48.522,358.735,1.0
11.2666,128.181779,37.95391,7600.6945776,-3.945,48.648,358.722,1.0
11.2833,128.181778,37.953944,7603.9086936,-3.948,48.773,358.71,1.0
11.3,128.181777,37.953978,7607.129515200001,-3.95,48.899,358.697,1.0
11.3166,128.181776,37.954012,7610.357042400001,-3.953,49.025,358.685,1.0
11.3333,128.181775,37.954046,7613.5909704000005,-3.956,49.152,358.672,1.0
11.35,128.181773,37.95408,7616.8312992,-3.959,49.278,358.66,1.0
11.3666,128.181772,37.954114,7620.0780288000005,-3.961,49.404,358.647,1.0
11.3833,128.181771,37.954147,7623.331464000001,-3.964,49.531,358.634,1.0
11.4,128.18177,37.954181,7626.5909952,-3.966,49.657,358.622,1.0
11.4166,128.181769,37.954215,7629.857232,-3.969,49.784,358.609,1.0
11.4333,128.181768,37.954248,7633.1295648000005,-3.971,49.91,358.596,1.0
11.45,128.181767,37.954282,7636.4086032000005,-3.973,50.037,358.583,1.0
11.4666,128.181766,37.954315,7639.6937376000005,-3.975,50.164,358.571,1.0
11.4833,128.181765,37.954348,7642.9855776,-3.977,50.291,358.558,1.0
11.5,128.181763,37.954382,7646.2835136,-3.979,50.418,358.545,1.0
11.5166,128.181762,37.954415,7649.5878504,-3.981,50.545,358.532,1.0
11.5333,128.181761,37.954448,7652.898283200001,-3.983,50.672,358.519,1.0
11.55,128.18176,37.954481,7656.2151168,-3.985,50.8,358.506,1.0
11.5666,128.181759,37.954514,7659.538351200001,-3.987,50.927,358.493,1.0
11.5833,128.181758,37.954547,7662.8673768,-3.989,51.054,358.48,1.0
11.6,128.181756,37.95458,7666.203108,-3.991,51.182,358.466,1.0
11.6166,128.181755,37.954612,7669.5449352000005,-3.992,51.31,358.453,1.0
11.6333,128.181754,37.954645,7672.8928584000005,-3.994,51.437,358.44,1.0
11.65,128.181753,37.954678,7676.2468776000005,-3.995,51.565,358.427,1.0
11.6666,128.181752,37.95471,7679.606992800001,-3.997,51.693,358.413,1.0
11.6833,128.181751,37.954743,7682.973508800001,-3.998,51.821,358.4,1.0
11.7,128.181749,37.954775,7686.3461208,-4.0,51.949,358.387,1.0
11.7166,128.181748,37.954807,7689.724524000001,-4.001,52.078,358.373,1.0
11.7333,128.181747,37.954839,7693.1093280000005,-4.002,52.206,358.36,1.0
11.75,128.181746,37.954872,7696.499923200001,-4.004,52.335,358.346,1.0
11.7666,128.181744,37.954904,7699.8969192,-4.005,52.463,358.333,1.0
11.7833,128.181743,37.954936,7703.299706400001,-4.006,52.592,358.319,1.0
11.8,128.181742,37.954968,7706.7082848,-4.007,52.72,358.306,1.0
11.8166,128.181741,37.954999,7710.123264000001,-4.008,52.849,358.292,1.0
11.8333,128.18174,37.955031,7713.5440344,-4.009,52.978,358.278,1.0
11.85,128.181738,37.955063,7716.970596,-4.01,53.107,358.265,1.0
11.8666,128.181737,37.955094,7720.4032536,-4.011,53.235,358.251,1.0
11.8833,128.181736,37.955126,7723.8417024,-4.012,53.364,358.237,1.0
11.9,128.181734,37.955157,7727.286247200001,-4.013,53.493,358.223,1.0
11.9166,128.181733,37.955189,7730.7365832000005,-4.014,53.622,358.21,1.0
11.9333,128.181732,37.95522,7734.192710400001,-4.015,53.752,358.196,1.0
11.95,128.181731,37.955251,7737.654628800001,-4.016,53.881,358.182,1.0
11.9666,128.181729,37.955283,7741.1223384,-4.016,54.01,358.168,1.0
11.9833,128.181728,37.955314,7744.5958392,-4.017,54.139,358.154,1.0
12.0,128.181727,37.955345,7748.075436,-4.018,54.269,358.14,1.0
12.0166,128.181726,37.955376,7751.5605192,-4.018,54.398,358.126,1.0
12.0333,128.181724,37.955406,7755.0510888,-4.019,54.528,358.112,1.0
12.05,128.181723,37.955437,7758.5477544000005,-4.019,54.658,358.098,1.0
12.0666,128.181722,37.955468,7762.0499064000005,-4.02,54.787,358.084,1.0
12.0833,128.18172,37.955499,7765.557849600001,-4.02,54.917,358.069,1.0
12.1,128.181719,37.955529,7769.071584000001,-4.021,55.047,358.055,1.0
12.1166,128.181718,37.95556,7772.5908048,-4.021,55.177,358.041,1.0
12.1333,128.181716,37.95559,7776.115512,-4.022,55.307,358.027,1.0
12.15,128.181715,37.95562,7779.646010400001,-4.022,55.437,358.012,1.0
12.1666,128.181714,37.955651,7783.1798616,-3.995,55.568,358.003,1.0
12.1833,128.181712,37.955681,7786.721332800001,-3.971,55.699,357.994,1.0
12.2,128.181711,37.955711,7790.2679856,-3.953,55.83,357.981,1.0
12.2166,128.18171,37.955741,7793.8201248000005,-3.942,55.961,357.967,1.0
12.2333,128.181708,37.955771,7797.377750400001,-3.935,56.092,357.951,1.0
12.25,128.181707,37.955801,7800.941167200001,-3.934,56.223,357.935,1.0
12.2666,128.181705,37.95583,7804.510070400001,-3.937,56.354,357.917,1.0
12.2833,128.181704,37.95586,7808.084460000001,-3.945,56.485,357.899,1.0
12.3,128.181703,37.95589,7811.664640800001,-3.956,56.616,357.881,1.0
12.3166,128.181701,37.955919,7815.2500032,-3.971,56.748,357.862,1.0
12.3333,128.1817,37.955948,7818.8405472,-3.988,56.879,357.844,1.0
12.35,128.181699,37.955978,7822.4368824,-4.009,57.011,357.825,1.0
12.3666,128.181697,37.956007,7826.038399200001,-4.032,57.143,357.806,1.0
12.3833,128.181696,37.956036,7829.6454023999995,-4.057,57.275,357.787,1.0
12.4,128.181694,37.956065,7833.257587200001,-4.084,57.408,357.767,1.0
12.4166,128.181693,37.956094,7836.8752584,-4.113,57.54,357.748,1.0
12.4333,128.181692,37.956123,7840.4981112000005,-4.143,57.673,357.728,1.0
12.45,128.18169,37.956152,7844.1261456,-4.175,57.806,357.708,1.0
12.4666,128.181689,37.956181,7847.7593615999995,-4.208,57.939,357.687,1.0
12.4833,128.181687,37.95621,7851.398064000001,-4.242,58.072,357.667,1.0
12.5,128.181686,37.956238,7855.0416432,-4.278,58.205,357.646,1.0
12.5166,128.181684,37.956267,7858.690708800001,-4.314,58.339,357.624,1.0
12.5333,128.181683,37.956295,7862.344651200001,-4.351,58.472,357.602,1.0
12.55,128.181682,37.956324,7866.0037752,-4.389,58.606,357.58,1.0
12.5666,128.18168,37.956352,7869.6680808,-4.428,58.74,357.557,1.0
12.5833,128.181679,37.95638,7873.337568,-4.467,58.873,357.534,1.0
12.6,128.181677,37.956408,7877.011932,-4.507,59.007,357.511,1.0
12.6166,128.181676,37.956437,7880.6914776,-4.548,59.141,357.487,1.0
12.6333,128.181674,37.956465,7884.3759,-4.59,59.276,357.463,1.0
12.65,128.181673,37.956492,7888.065504,-4.632,59.41,357.438,1.0
12.6666,128.181671,37.95652,7891.75968,-4.674,59.544,357.414,1.0
12.6833,128.18167,37.956548,7895.4593424,-4.717,59.679,357.389,1.0
12.7,128.181668,37.956576,7899.163576800001,-4.761,59.813,357.363,1.0
12.7166,128.181667,37.956603,7902.872688,-4.805,59.948,357.337,1.0
12.7333,128.181665,37.956631,7906.5869808,-4.849,60.083,357.311,1.0
12.75,128.181664,37.956658,7910.305845600001,-4.894,60.217,357.285,1.0
12.7666,128.181662,37.956685,7914.029587200001,-4.939,60.352,357.258,1.0
12.7833,128.181661,37.956713,7917.758205600001,-4.985,60.487,357.231,1.0
12.8,128.181659,37.95674,7921.4917008,-5.031,60.623,357.203,1.0
12.8166,128.181658,37.956767,7925.229768,-5.077,60.758,357.175,1.0
12.8333,128.181656,37.956794,7928.972712,-5.124,60.893,357.147,1.0
12.85,128.181655,37.956821,7932.720532800001,-5.171,61.029,357.118,1.0
12.8666,128.181653,37.956848,7936.4729256,-5.218,61.164,357.089,1.0
12.8833,128.181652,37.956874,7940.2298904,-5.266,61.3,357.059,1.0
12.9,128.18165,37.956901,7943.991732,-5.314,61.436,357.029,1.0
12.9166,128.181649,37.956927,7947.758145600001,-5.363,61.571,356.999,1.0
12.9333,128.181647,37.956954,7951.5291312,-5.412,61.707,356.968,1.0
12.95,128.181646,37.95698,7955.3046888,-5.461,61.844,356.936,1.0
12.9666,128.181644,37.957007,7959.084818400001,-5.51,61.98,356.904,1.0
12.9833,128.181643,37.957033,7962.869520000001,-5.56,62.116,356.872,1.0
13.0,128.181641,37.957059,7966.6587936,-5.611,62.252,356.839,1.0
13.0166,128.181639,37.957085,7970.4526392,-5.661,62.389,356.806,1.0
13.0333,128.181638,37.957111,7974.251056800001,-5.712,62.526,356.773,1.0
13.0499,128.181636,37.957137,7978.053741600001,-5.763,62.662,356.738,1.0
13.0666,128.181635,37.957163,7981.8609984,-5.815,62.799,356.704,1.0
13.0833,128.181633,37.957189,7985.6725224,-5.867,62.936,356.669,1.0
13.1,128.181631,37.957214,7989.488618400001,-5.92,63.073,356.633,1.0
13.1166,128.18163,37.95724,7993.3089816,-5.972,63.21,356.597,1.0
13.1333,128.181628,37.957265,7997.133612,-6.026,63.348,356.56,1.0
13.15,128.181626,37.957291,8000.962814400001,-6.079,63.485,356.523,1.0
13.1666,128.181625,37.957316,8004.796284000001,-6.133,63.623,356.485,1.0
13.1833,128.181623,37.957341,8008.6340208,-6.188,63.76,356.447,1.0
13.2,128.181622,37.957366,8012.476024800001,-6.242,63.898,356.408,1.0
13.2166,128.18162,37.957391,8016.3219912,-6.298,64.036,356.369,1.0
13.2333,128.181618,37.957416,8020.1725295999995,-6.353,64.174,356.329,1.0
13.25,128.181617,37.957441,8024.0270304000005,-6.409,64.312,356.288,1.0
13.2666,128.181615,37.957466,8027.8861032,-6.466,64.45,356.247,1.0
13.2833,128.181613,37.957491,8031.748833600001,-6.523,64.589,356.205,1.0
13.3,128.181612,37.957515,8035.616136000001,-6.58,64.727,356.163,1.0
13.3166,128.18161,37.95754,8039.487400800001,-6.638,64.866,356.12,1.0
13.3333,128.181608,37.957564,8043.362628000001,-6.696,65.005,356.076,1.0
13.35,128.181606,37.957588,8047.2418176,-6.755,65.144,356.032,1.0
13.3666,128.181605,37.957613,8051.125274400001,-6.815,65.283,355.987,1.0
13.3833,128.181603,37.957637,8055.0126936,-6.875,65.423,355.941,1.0
13.4,128.181601,37.957661,8058.9040752,-6.935,65.563,355.895,1.0
13.4166,128.1816,37.957685,8062.799419200001,-6.996,65.703,355.848,1.0
13.4333,128.181598,37.957709,8066.6987256,-7.057,65.843,355.8,1.0
13.45,128.181596,37.957733,8070.6019944,-7.12,65.984,355.751,1.0
13.4666,128.181594,37.957756,8074.5092256,-7.182,66.125,355.702,1.0
13.4833,128.181593,37.95778,8078.420419200001,-7.245,66.266,355.652,1.0
13.5,128.181591,37.957804,8082.335270400001,-7.309,66.408,355.601,1.0
13.5166,128.181589,37.957827,8086.253779200001,-7.373,66.55,355.549,1.0
13.5333,128.181587,37.957851,8090.176555200001,-7.438,66.692,355.497,1.0
13.55,128.181586,37.957874,8094.102684000001,-7.504,66.834,355.444,1.0
13.5666,128.181584,37.957897,8098.0327752,-7.57,66.977,355.389,1.0
13.5833,128.181582,37.95792,8101.966828800001,-7.637,67.12,355.334,1.0
13.6,128.18158,37.957943,8105.9042352,-7.704,67.263,355.278,1.0
13.6166,128.181578,37.957966,8109.845604,-7.772,67.407,355.221,1.0
13.6333,128.181577,37.957989,8113.7903256,-7.841,67.55,355.164,1.0
13.65,128.181575,37.958012,8117.739009600001,-7.91,67.695,355.105,1.0
13.6666,128.181573,37.958034,8121.6910464,-7.981,67.839,355.045,1.0
13.6833,128.181571,37.958057,8125.647045600001,-8.051,67.983,354.985,1.0
13.7,128.181569,37.958079,8129.6063976000005,-8.123,68.128,354.923,1.0
13.7166,128.181567,37.958102,8133.5691024,-8.196,68.273,354.861,1.0
13.7333,128.181565,37.958124,8137.535769600001,-8.269,68.419,354.797,1.0
13.75,128.181564,37.958146,8141.5054848,-8.343,68.564,354.732,1.0
13.7666,128.181562,37.958169,8145.4791624,-8.417,68.71,354.667,1.0
13.7833,128.18156,37.958191,8149.455888,-8.493,68.856,354.6,1.0
13.8,128.181558,37.958213,8153.4362712,-8.569,69.003,354.532,1.0
13.8166,128.181556,37.958234,8157.4200072,-8.647,69.149,354.463,1.0
13.8333,128.181554,37.958256,8161.407400800001,-8.725,69.296,354.393,1.0
13.85,128.181552,37.958278,8165.397842400001,-8.804,69.443,354.321,1.0
13.8666,128.18155,37.958299,8169.391636800001,-8.884,69.59,354.249,1.0
13.8833,128.181548,37.958321,8173.388784000001,-8.965,69.738,354.175,1.0
13.9,128.181546,37.958342,8177.389284000001,-9.047,69.886,354.1,1.0
13.9166,128.181545,37.958364,8181.3931368,-9.131,70.034,354.024,1.0
13.9333,128.181543,37.958385,8185.4000376,-9.215,70.182,353.946,1.0
13.95,128.181541,37.958406,8189.410291200001,-9.3,70.331,353.867,1.0
13.9666,128.181539,37.958427,8193.423897600002,-9.386,70.479,353.787,1.0
13.9833,128.181537,37.958448,8197.440552,-9.474,70.628,353.705,1.0
14.0,128.181535,37.958469,8201.4602544,-9.563,70.778,353.621,1.0
14.0166,128.181533,37.95849,8205.4830048,-9.653,70.927,353.537,1.0
14.0333,128.181531,37.95851,8209.509108,-9.744,71.077,353.451,1.0
14.05,128.181529,37.958531,8213.5382592,-9.837,71.227,353.363,1.0
14.0666,128.181527,37.958551,8217.5704584,-9.93,71.377,353.273,1.0
14.0833,128.181525,37.958572,8221.605400800001,-10.026,71.527,353.182,1.0
14.1,128.181523,37.958592,8225.643696000001,-10.122,71.678,353.09,1.0
14.1166,128.181521,37.958612,8229.6847344,-10.221,71.829,352.995,1.0
14.1333,128.181519,37.958632,8233.7291256,-10.32,71.98,352.899,1.0
14.15,128.181517,37.958652,8237.7759552,-10.422,72.132,352.801,1.0
14.1666,128.181515,37.958672,8241.826137600001,-10.524,72.283,352.701,1.0
14.1833,128.181512,37.958692,8245.8790632,-10.629,72.435,352.6,1.0
14.2,128.18151,37.958712,8249.934732,-10.735,72.587,352.496,1.0
14.2166,128.181508,37.958732,8253.993144,-10.843,72.739,352.39,1.0
14.2333,128.181506,37.958751,8258.054604,-10.953,72.892,352.282,1.0
14.25,128.181504,37.958771,8262.1188072,-11.065,73.045,352.173,1.0
14.2666,128.181502,37.95879,8266.1857536,-11.178,73.198,352.06,1.0
14.2833,128.1815,37.958809,8270.2554432,-11.294,73.351,351.946,1.0
14.3,128.181498,37.958828,8274.3275712,-11.411,73.504,351.83,1.0
14.3166,128.181496,37.958848,8278.402747200002,-11.531,73.658,351.711,1.0
14.3333,128.181494,37.958867,8282.480361599999,-11.652,73.811,351.59,1.0
14.35,128.181491,37.958885,8286.5607192,-11.776,73.964,351.467,1.0
14.3666,128.181489,37.958904,8290.643820000001,-11.901,74.117,351.342,1.0
14.3833,128.181487,37.958923,8294.7293592,-12.029,74.271,351.214,1.0
14.4,128.181485,37.958942,8298.8173368,-12.159,74.424,351.084,1.0
14.4166,128.181483,37.95896,8302.9080576,-12.291,74.577,350.951,1.0
14.4333,128.181481,37.958978,8307.0012168,-12.426,74.73,350.815,1.0
14.45,128.181478,37.958997,8311.0968144,-12.563,74.883,350.677,1.0
14.4666,128.181476,37.959015,8315.194850400001,-12.702,75.036,350.537,1.0
14.4833,128.181474,37.959033,8319.295324800001,-12.844,75.189,350.393,1.0
14.5,128.181472,37.959051,8323.3982376,-12.989,75.342,350.246,1.0
14.5166,128.18147,37.959069,8327.5035888,-13.137,75.495,350.097,1.0
14.5333,128.181467,37.959087,8331.611073600001,-13.287,75.647,349.944,1.0
14.55,128.181465,37.959105,8335.7209968,-13.441,75.8,349.788,1.0
14.5666,128.181463,37.959122,8339.833358400001,-13.597,75.953,349.629,1.0
14.5833,128.181461,37.95914,8343.9478536,-13.757,76.105,349.467,1.0
14.6,128.181458,37.959157,8348.064482400001,-13.92,76.258,349.3,1.0
14.6166,128.181456,37.959175,8352.1835496,-14.086,76.411,349.131,1.0
14.6333,128.181454,37.959192,8356.3044456,-14.256,76.563,348.957,1.0
14.65,128.181451,37.959209,8360.42778,-14.43,76.716,348.779,1.0
14.6666,128.181449,37.959226,8364.553248,-14.608,76.868,348.598,1.0
14.6833,128.181447,37.959243,8368.6808496,-14.789,77.021,348.412,1.0
14.7,128.181445,37.95926,8372.81028,-14.975,77.173,348.222,1.0
14.7166,128.181442,37.959277,8376.941844,-15.165,77.326,348.027,1.0
14.7333,128.18144,37.959293,8381.075541600001,-15.36,77.478,347.827,1.0
14.75,128.181438,37.95931,8385.211068,-15.559,77.631,347.623,1.0
14.7666,128.181435,37.959326,8389.348728,-15.763,77.783,347.413,1.0
14.7833,128.181433,37.959343,8393.4882168,-15.972,77.935,347.199,1.0
14.8,128.181431,37.959359,8397.6295344,-16.187,78.088,346.978,1.0
14.8166,128.181428,37.959375,8401.7729856,-16.407,78.24,346.752,1.0
14.8333,128.181426,37.959391,8405.917960800001,-16.632,78.392,346.52,1.0
14.85,128.181423,37.959407,8410.065069600001,-16.864,78.545,346.282,1.0
14.8666,128.181421,37.959423,8414.2137024,-17.102,78.697,346.038,1.0
14.8833,128.181419,37.959439,8418.364164,-17.346,78.849,345.787,1.0
14.9,128.181416,37.959455,8422.5164544,-17.598,79.001,345.528,1.0
14.9166,128.181414,37.95947,8426.6705736,-17.856,79.153,345.263,1.0
14.9333,128.181411,37.959486,8430.8262168,-18.122,79.305,344.99,1.0
14.95,128.181409,37.959501,8434.983384000001,-18.395,79.457,344.709,1.0
14.9666,128.181407,37.959516,8439.14238,-18.677,79.609,344.42,1.0
14.9833,128.181404,37.959532,8443.3029,-18.967,79.761,344.122,1.0
15.0,128.181402,37.959547,8447.464944,-19.266,79.912,343.815,1.0
