Time,Longitude,Latitude,Altitude,Roll (deg),Pitch (deg),Yaw (deg),Health
0.0,128.181881,37.923646,7000.146528,0.0,-0.003,0.0,1.0
0.0166,128.181881,37.923691,7000.1605488000005,0.0,-0.012,0.0,1.0
0.0333,128.181881,37.923736,7000.173960000001,0.0,-0.025,0.0,1.0
0.05,128.181881,37.923781,7000.186152000001,0.0,-0.039,0.0,1.0
0.0666,128.181881,37.923826,7000.1977344,0.0,-0.055,0.0,1.0
0.0833,128.181881,37.923871,7000.2084024,0.0,-0.071,0.0,1.0
0.1,128.181881,37.923916,7000.218156000001,0.0,-0.086,0.0,1.0
0.1166,128.181881,37.923961,7000.226995200001,0.0,-0.1,0.0,1.0
0.1333,128.181881,37.924006,7000.235224800001,0.0,-0.113,0.0,1.0
0.15,128.181881,37.924051,7000.24254,0.0,-0.124,0.0,1.0
0.1666,128.181881,37.924096,7000.2489408,0.0,-0.134,0.0,1.0
0.1833,128.181881,37.924141,7000.2544272000005,0.0,-0.142,0.0,1.0
0.2,128.181881,37.924186,7000.2589992,0.0,-0.148,0.0,1.0
0.2166,128.181881,37.924231,7000.2629615999995,0.0,-0.153,0.0,1.0
0.2333,128.181881,37.924276,7000.266009600001,0.0,-0.157,0.0,1.0
0.25,128.181881,37.924321,7000.2681432,0.0,-0.16,0.0,1.0
0.2666,128.181881,37.924366,7000.2696672,0.0,-0.161,0.0,1.0
0.2833,128.181881,37.924411,7000.2702768,0.0,-0.162,0.0,1.0
0.3,128.181881,37.924456,7000.2702768,0.0,-0.163,0.0,1.0
0.3166,128.181881,37.924501,7000.2693624,0.0,-0.163,0.0,1.0
0.3333,128.181881,37.924546,7000.267533600001,0.0,-0.162,0.0,1.0
0.35,128.181881,37.924591,7000.2654,0.0,-0.162,0.0,1.0
0.3666,128.181881,37.924636,7000.262047200001,0.001,-0.161,0.0,1.0
0.3833,128.181881,37.924682,7000.2583896,0.001,-0.161,0.0,1.0
0.4,128.181881,37.924727,7000.2538176,0.001,-0.16,0.0,1.0
0.4166,128.181881,37.924772,7000.248636,0.001,-0.159,0.0,1.0
0.4333,128.181881,37.924817,7000.24254,0.001,-0.159,0.0,1.0
0.45,128.181881,37.924862,7000.2361392,0.001,-0.159,0.0,1.0
0.4666,128.181881,37.924907,7000.228824000001,0.001,-0.159,0.0,1.0
0.4833,128.181881,37.924952,7000.2208992000005,0.001,-0.159,0.0,1.0
0.5,128.181881,37.924998,7000.212364800001,0.002,-0.159,0.0,1.0
0.5166,128.181881,37.925043,7000.2032208,0.002,-0.159,0.0,1.0
0.5333,128.181881,37.925088,7000.1931624,0.002,-0.16,0.0,1.0
0.55,128.181881,37.925133,7000.1827992,0.002,-0.16,0.0,1.0
0.5666,128.181881,37.925179,7000.1718264,0.002,-0.161,0.0,1.0
0.5833,128.181881,37.925224,7000.160244,0.002,-0.161,0.0,1.0
0.6,128.181881,37.925269,7000.1480520000005,0.003,-0.162,0.0,1.0
0.6166,128.181881,37.925314,7000.135250400001,0.003,-0.162,0.0,1.0
0.6333,128.181881,37.92536,7000.1218392,0.003,-0.163,0.0,1.0
0.65,128.181881,37.925405,7000.107818400001,0.003,-0.163,0.0,1.0
0.6666,128.181881,37.92545,7000.093188000001,0.003,-0.164,0.0,1.0
0.6833,128.181881,37.925495,7000.0782528,0.004,-0.164,0.0,1.0
0.7,128.181881,37.925541,7000.062708,0.004,-0.165,0.0,1.0
0.7166,128.181881,37.925586,7000.0465536,0.004,-0.165,0.0,1.0
0.7333,128.181881,37.925631,7000.0297896,0.004,-0.165,0.0,1.0
0.75,128.181881,37.925677,7000.012720799999,0.004,-0.166,0.0,1.0
0.7666,128.181881,37.925722,6999.995042400001,0.005,-0.166,0.0,1.0
0.7833,128.181881,37.925767,6999.9770592,0.005,-0.166,0.0,1.0
0.8,128.181881,37.925813,6999.9581616,0.005,-0.166,0.001,1.0
0.8166,128.181881,37.925858,6999.939264000001,0.005,-0.167,0.001,1.0
0.8333,128.181881,37.925903,6999.919452000001,0.006,-0.167,0.001,1.0
0.85,128.181881,37.925949,6999.8993352,0.006,-0.167,0.001,1.0
0.8666,128.181881,37.925994,6999.8789136000005,0.006,-0.167,0.001,1.0
0.8833,128.181881,37.92604,6999.857882400001,0.007,-0.167,0.001,1.0
0.9,128.181881,37.926085,6999.836546400001,0.007,-0.167,0.001,1.0
0.9166,128.181881,37.92613,6999.8146008,0.007,-0.168,0.001,1.0
0.9333,128.181881,37.926176,6999.7923504,0.007,-0.168,0.001,1.0
0.95,128.181881,37.926221,6999.7694904,0.008,-0.168,0.001,1.0
0.9666,128.181881,37.926267,6999.7466304,0.008,-0.168,0.001,1.0
0.9833,128.181881,37.926312,6999.722856,0.008,-0.168,0.0,1.0
1.0,128.181881,37.926358,6999.699081600001,0.009,-0.168,0.0,1.0
1.0166,128.181881,37.926403,6999.674697600001,0.009,-0.168,0.0,1.0
1.0333,128.181881,37.926449,6999.6500088,0.009,-0.168,0.0,1.0
1.05,128.181881,37.926494,6999.6247104,0.01,-0.168,0.0,1.0
1.0666,128.181881,37.92654,6999.599412,0.01,-0.168,0.0,1.0
1.0833,128.181881,37.926585,6999.573504,0.01,-0.168,0.0,1.0
1.1,128.181881,37.926631,6999.5472912000005,0.01,-0.167,0.0,1.0
1.1166,128.181881,37.926676,6999.5207736,0.011,-0.167,0.001,1.0
1.1333,128.181881,37.926722,6999.4936464,0.011,-0.167,0.001,1.0
1.15,128.181881,37.926767,6999.4665192,0.011,-0.167,0.001,1.0
1.1666,128.181881,37.926813,6999.4387824000005,0.012,-0.167,0.001,1.0
1.1833,128.181881,37.926858,6999.411045600001,0.012,-0.166,0.001,1.0
1.2,128.181881,37.926904,6999.3826992,0.013,-0.166,0.001,1.0
1.2166,128.181881,37.926949,6999.354048,0.013,-0.166,0.001,1.0
1.2333,128.181881,37.926995,6999.325092000001,0.013,-0.166,0.001,1.0
1.25,128.181881,37.927041,6999.296136,0.014,-0.166,0.001,1.0
1.2666,128.181881,37.927086,6999.266570400001,0.014,-0.166,0.001,1.0
1.2833,128.181881,37.927132,6999.2367,0.015,-0.166,0.0,1.0
1.3,128.181881,37.927177,6999.206524800001,0.015,-0.166,0.0,1.0
1.3166,128.181881,37.927223,6999.1763496,0.015,-0.166,0.0,1.0
1.3333,128.181881,37.927269,6999.145564800001,0.016,-0.165,0.0,1.0
1.35,128.181881,37.927314,6999.11478,0.016,-0.165,0.0,1.0
1.3666,128.181881,37.92736,6999.0833856,0.017,-0.165,0.001,1.0
1.3833,128.181881,37.927406,6999.0519912,0.017,-0.164,0.001,1.0
1.4,128.181881,37.927451,6999.020292000001,0.017,-0.164,0.001,1.0
1.4166,128.181881,37.927497,6998.9882880000005,0.018,-0.164,0.001,1.0
1.4333,128.181881,37.927543,6998.955979200001,0.018,-0.163,0.001,1.0
1.45,128.181881,37.927589,6998.9236704,0.019,-0.163,0.001,1.0
1.4666,128.181881,37.927634,6998.891056800001,0.019,-0.163,0.001,1.0
1.4833,128.181881,37.92768,6998.858138400001,0.02,-0.163,0.001,1.0
1.5,128.181881,37.927726,6998.824915200001,0.02,-0.163,0.001,1.0
1.5166,128.181881,37.927771,6998.791387200001,0.021,-0.162,0.001,1.0
1.5333,128.181881,37.927817,6998.7578592,0.021,-0.162,0.001,1.0
1.55,128.181881,37.927863,6998.7240264,0.022,-0.162,0.001,1.0
1.5666,128.181881,37.927909,6998.6898888,0.022,-0.162,0.001,1.0
1.5833,128.181881,37.927955,6998.655751200001,0.023,-0.161,0.001,1.0
1.6,128.181881,37.928,6998.6213088,0.023,-0.161,0.001,1.0
1.6166,128.181881,37.928046,6998.5865616,0.024,-0.161,0.001,1.0
1.6333,128.181881,37.928092,6998.551814400001,0.024,-0.16,0.001,1.0
1.65,128.181881,37.928138,6998.5167624,0.025,-0.16,0.001,1.0
1.6666,128.181881,37.928184,6998.4817104,0.025,-0.16,0.001,1.0
1.6833,128.181881,37.928229,6998.4460488,0.026,-0.159,0.001,1.0
1.7,128.181881,37.928275,6998.410692,0.027,-0.159,0.001,1.0
1.7166,128.181881,37.928321,6998.3750304,0.027,-0.159,0.001,1.0
1.7333,128.181881,37.928367,6998.339064000001,0.028,-0.158,0.001,1.0
1.75,128.181881,37.928413,6998.302792800001,0.028,-0.158,0.001,1.0
1.7666,128.181881,37.928459,6998.2668264,0.029,-0.158,0.001,1.0
1.7833,128.181881,37.928505,6998.230250400001,0.029,-0.157,0.0,1.0
1.8,128.181881,37.928551,6998.1936744,0.03,-0.157,0.0,1.0
1.8166,128.181881,37.928597,6998.1570984,0.031,-0.157,0.0,1.0
1.8333,128.181881,37.928642,6998.120217600001,0.031,-0.156,0.0,1.0
1.85,128.181881,37.928688,6998.0833368,0.032,-0.156,0.001,1.0
1.8666,128.181881,37.928734,6998.046151200001,0.032,-0.155,0.001,1.0
1.8833,128.181881,37.92878,6998.008965600001,0.033,-0.155,0.001,1.0
1.9,128.181881,37.928826,6997.97178,0.033,-0.154,0.001,1.0
1.9166,128.181881,37.928872,6997.9342896,0.034,-0.154,0.001,1.0
1.9333,128.181881,37.928918,6997.8964944,0.035,-0.154,0.001,1.0
1.95,128.181881,37.928964,6997.8586992,0.035,-0.153,0.001,1.0
1.9666,128.181881,37.92901,6997.820904,0.036,-0.153,0.001,1.0
1.9833,128.181881,37.929056,6997.7831088,0.037,-0.153,0.001,1.0
2.0,128.181881,37.929102,6997.7450088000005,0.037,-0.152,0.001,1.0
2.0166,128.181881,37.929148,6997.706604,0.038,-0.152,0.001,1.0
2.0333,128.181881,37.929194,6997.668504,0.039,-0.152,0.001,1.0
2.05,128.181881,37.92924,6997.630099200001,0.04,-0.152,0.001,1.0
2.0666,128.181881,37.929286,6997.5916944,0.04,-0.152,0.001,1.0
2.0833,128.181881,37.929333,6997.5529848,0.041,-0.153,0.001,1.0
2.1,128.181881,37.929379,6997.5142752,0.042,-0.154,0.001,1.0
2.1166,128.181881,37.929425,6997.475565600001,0.042,-0.154,0.001,1.0
2.1333,128.181881,37.929471,6997.4365512,0.043,-0.155,0.001,1.0
2.15,128.181881,37.929517,6997.3975368,0.044,-0.157,0.001,1.0
2.1666,128.181881,37.929563,6997.3585224,0.044,-0.158,0.001,1.0
2.1833,128.181881,37.929609,6997.3192032,0.045,-0.159,0.001,1.0
2.2,128.181882,37.929655,6997.2798840000005,0.046,-0.161,0.001,1.0
2.2166,128.181882,37.929701,6997.2405648,0.047,-0.162,0.001,1.0
2.2333,128.181882,37.929748,6997.2012456,0.047,-0.163,0.001,1.0
2.25,128.181882,37.929794,6997.1616216,0.048,-0.165,0.001,1.0
2.2666,128.181882,37.92984,6997.121997600001,0.049,-0.166,0.001,1.0
2.2833,128.181882,37.929886,6997.0823736,0.05,-0.168,0.001,1.0
2.3,128.181882,37.929932,6997.0424448,0.05,-0.169,0.001,1.0
2.3166,128.181882,37.929979,6997.002516,0.051,-0.17,0.001,1.0
2.3333,128.181882,37.930025,6996.962587200001,0.052,-0.172,0.001,1.0
2.35,128.181882,37.930071,6996.9223536,0.053,-0.173,0.001,1.0
2.3666,128.181882,37.930117,6996.882120000001,0.053,-0.174,0.001,1.0
2.3833,128.181882,37.930163,6996.8418864000005,0.054,-0.176,0.001,1.0
2.4,128.181882,37.93021,6996.8016528,0.055,-0.177,0.001,1.0
2.4166,128.181882,37.930256,6996.7611144,0.056,-0.178,0.001,1.0
2.4333,128.181882,37.930302,6996.720576,0.057,-0.179,0.001,1.0
2.45,128.181882,37.930349,6996.680037600001,0.057,-0.18,0.001,1.0
2.4666,128.181882,37.930395,6996.6394992000005,0.058,-0.181,0.001,1.0
2.4833,128.181882,37.930441,6996.598656000001,0.059,-0.182,0.001,1.0
2.5,128.181882,37.930487,6996.5578128,0.06,-0.183,0.001,1.0
2.5166,128.181882,37.930534,6996.5169696,0.061,-0.184,0.001,1.0
2.5333,128.181882,37.93058,6996.4758216,0.062,-0.186,0.001,1.0
2.55,128.181882,37.930626,6996.434673600001,0.062,-0.187,0.001,1.0
2.5666,128.181882,37.930673,6996.3935255999995,0.063,-0.188,0.001,1.0
2.5833,128.181882,37.930719,6996.3523776,0.064,-0.189,0.001,1.0
2.6,128.181882,37.930766,6996.3112296,0.065,-0.19,0.001,1.0
2.6166,128.181882,37.930812,6996.2697768,0.066,-0.191,0.001,1.0
2.6333,128.181882,37.930858,6996.228324000001,0.067,-0.192,0.001,1.0
2.65,128.181882,37.930905,6996.1868712,0.068,-0.192,0.001,1.0
2.6666,128.181882,37.930951,6996.1451136000005,0.068,-0.193,0.002,1.0
2.6833,128.181882,37.930998,6996.1033560000005,0.069,-0.194,0.002,1.0
2.7,128.181882,37.931044,6996.0615984,0.07,-0.195,0.002,1.0
2.7166,128.181882,37.93109,6996.019840800001,0.071,-0.196,0.002,1.0
2.7333,128.181882,37.931137,6995.978083200001,0.072,-0.197,0.002,1.0
2.75,128.181882,37.931183,6995.9360208,0.073,-0.198,0.002,1.0
2.7666,128.181882,37.93123,6995.8939584,0.074,-0.199,0.002,1.0
2.7833,128.181882,37.931276,6995.851896,0.075,-0.2,0.002,1.0
2.8,128.181882,37.931323,6995.809833600001,0.076,-0.201,0.001,1.0
2.8166,128.181882,37.931369,6995.7677712,0.076,-0.202,0.001,1.0
2.8333,128.181882,37.931416,6995.725404,0.077,-0.203,0.001,1.0
2.85,128.181882,37.931462,6995.6830368,0.078,-0.204,0.001,1.0
2.8666,128.181882,37.931509,6995.6406696,0.079,-0.205,0.001,1.0
2.8833,128.181882,37.931555,6995.5983024,0.08,-0.206,0.001,1.0
2.9,128.181882,37.931602,6995.5556304,0.081,-0.207,0.001,1.0
2.9166,128.181882,37.931649,6995.5132632,0.082,-0.207,0.001,1.0
2.9333,128.181882,37.931695,6995.470591200001,0.083,-0.208,0.001,1.0
2.95,128.181882,37.931742,6995.4279192,0.083,-0.208,0.002,1.0
2.9666,128.181882,37.931788,6995.385247200001,0.084,-0.209,0.002,1.0
2.9833,128.181882,37.931835,6995.342270400001,0.085,-0.21,0.002,1.0
3.0,128.181882,37.931882,6995.2995984,0.086,-0.21,0.002,1.0
3.0166,128.181882,37.931928,6995.2566216000005,0.087,-0.211,0.002,1.0
3.0333,128.181882,37.931975,6995.2136448,0.088,-0.212,0.002,1.0
3.05,128.181882,37.932021,6995.170668000001,0.089,-0.213,0.002,1.0
3.0666,128.181882,37.932068,6995.1276912,0.09,-0.213,0.001,1.0
3.0833,128.181882,37.932115,6995.084714400001,0.091,-0.214,0.001,1.0
3.1,128.181882,37.932161,6995.041432800001,0.092,-0.215,0.001,1.0
3.1166,128.181882,37.932208,6994.998456,0.093,-0.216,0.001,1.0
3.1333,128.181882,37.932255,6994.955174400001,0.094,-0.216,0.001,1.0
3.15,128.181882,37.932302,6994.911892800001,0.095,-0.217,0.001,1.0
3.1666,128.181882,37.932348,6994.8686112000005,0.096,-0.217,0.001,1.0
3.1833,128.181882,37.932395,6994.825024800001,0.097,-0.218,0.002,1.0
3.2,128.181882,37.932442,6994.7817432,0.098,-0.218,0.002,1.0
3.2166,128.181882,37.932488,6994.738156800001,0.099,-0.219,0.002,1.0
3.2333,128.181882,37.932535,6994.6948752,0.1,-0.22,0.002,1.0
3.25,128.181882,37.932582,6994.6512888,0.102,-0.22,0.002,1.0
3.2666,128.181882,37.932629,6994.6077024,0.103,-0.221,0.002,1.0
3.2833,128.181882,37.932676,6994.564116,0.104,-0.222,0.002,1.0
3.3,128.181882,37.932722,6994.5205295999995,0.105,-0.222,0.002,1.0
3.3166,128.181882,37.932769,6994.476943199999,0.106,-0.223,0.002,1.0
3.3333,128.181882,37.932816,6994.433052000001,0.107,-0.224,0.002,1.0
3.35,128.181882,37.932863,6994.389465600001,0.108,-0.224,0.002,1.0
3.3666,128.181882,37.93291,6994.345574400001,0.109,-0.225,0.002,1.0
3.3833,128.181883,37.932957,6994.301988000001,0.11,-0.226,0.002,1.0
3.4,128.181883,37.933003,6994.258096800001,0.111,-0.226,0.002,1.0
3.4166,128.181883,37.93305,6994.2142056,0.112,-0.227,0.002,1.0
3.4333,128.181883,37.933097,6994.1703144,0.113,-0.228,0.001,1.0
3.45,128.181883,37.933144,6994.1264232,0.114,-0.228,0.001,1.0
3.4666,128.181883,37.933191,6994.082532,0.115,-0.229,0.001,1.0
3.4833,128.181883,37.933238,6994.0383360000005,0.117,-0.229,0.001,1.0
3.5,128.181883,37.933285,6993.994444800001,0.118,-0.23,0.002,1.0
3.5166,128.181883,37.933332,6993.9505536,0.119,-0.23,0.002,1.0
3.5333,128.181883,37.933379,6993.9063576,0.12,-0.231,0.002,1.0
3.55,128.181883,37.933426,6993.8621616,0.121,-0.231,0.002,1.0
3.5666,128.181883,37.933473,6993.818270400001,0.122,-0.232,0.002,1.0
3.5833,128.181883,37.93352,6993.774074400001,0.123,-0.232,0.002,1.0
3.6,128.181883,37.933567,6993.7298784,0.125,-0.233,0.002,1.0
3.6166,128.181883,37.933614,6993.685682400001,0.126,-0.233,0.002,1.0
3.6333,128.181883,37.933661,6993.641486400001,0.127,-0.234,0.002,1.0
3.65,128.181883,37.933708,6993.5972904,0.128,-0.235,0.002,1.0
3.6666,128.181883,37.933755,6993.5530944,0.129,-0.236,0.002,1.0
3.6833,128.181883,37.933802,6993.5088984,0.13,-0.236,0.002,1.0
3.7,128.181883,37.933849,6993.464397600001,0.132,-0.237,0.002,1.0
3.7166,128.181883,37.933896,6993.420201600001,0.133,-0.238,0.002,1.0
3.7333,128.181883,37.933943,6993.3757008,0.134,-0.238,0.002,1.0
3.75,128.181883,37.93399,6993.3315048,0.135,-0.239,0.002,1.0
3.7666,128.181883,37.934037,6993.287004,0.136,-0.24,0.002,1.0
3.7833,128.181883,37.934084,6993.242808,0.138,-0.241,0.002,1.0
3.8,128.181883,37.934131,6993.1983072,0.139,-0.241,0.002,1.0
3.8166,128.181883,37.934178,6993.153806400001,0.14,-0.242,0.002,1.0
3.8333,128.181883,37.934226,6993.109610400001,0.141,-0.243,0.002,1.0
3.85,128.181883,37.934273,6993.0651096,0.142,-0.244,0.002,1.0
3.8666,128.181883,37.93432,6993.0206088,0.144,-0.244,0.002,1.0
3.8833,128.181883,37.934367,6992.976108,0.145,-0.245,0.002,1.0
3.9,128.181883,37.934414,6992.9316072,0.146,-0.246,0.002,1.0
3.9166,128.181883,37.934461,6992.8871064,0.147,-0.246,0.002,1.0
3.9333,128.181883,37.934509,6992.842605600001,0.149,-0.247,0.002,1.0
3.95,128.181883,37.934556,6992.7978,0.15,-0.248,0.002,1.0
3.9666,128.181883,37.934603,6992.753299200001,0.151,-0.249,0.002,1.0
3.9833,128.181883,37.93465,6992.7087984,0.152,-0.249,0.002,1.0
4.0,128.181883,37.934698,6992.664297600001,0.154,-0.25,0.002,1.0
4.0166,128.181883,37.934745,6992.619492000001,0.155,-0.251,0.002,1.0
4.0333,128.181883,37.934792,6992.5749912,0.156,-0.252,0.002,1.0
4.05,128.181883,37.934839,6992.5311,0.149,-0.254,0.001,1.0
4.0666,128.181883,37.934887,6992.4872088,0.134,-0.257,359.998,1.0
4.0833,128.181883,37.934934,6992.4433176,0.111,-0.262,359.996,1.0
4.1,128.181883,37.934981,6992.3997312,0.082,-0.266,359.993,1.0
4.1166,128.181883,37.935029,6992.3561448,0.048,-0.271,359.99,1.0
4.1333,128.181883,37.935076,6992.3122536,0.012,-0.275,359.988,1.0
4.15,128.181883,37.935123,6992.2686672,-0.023,-0.279,359.986,1.0
4.1666,128.181883,37.935171,6992.224776,-0.059,-0.281,359.984,1.0
4.1833,128.181883,37.935218,6992.1808848,-0.092,-0.283,359.983,1.0
4.2,128.181883,37.935265,6992.1369936,-0.122,-0.284,359.982,1.0
4.2166,128.181884,37.935313,6992.092797600001,-0.149,-0.284,359.981,1.0
4.2333,128.181884,37.93536,6992.0486016,-0.173,-0.284,359.981,1.0
4.25,128.181884,37.935408,6992.004405600001,-0.194,-0.283,359.98,1.0
4.2666,128.181884,37.935455,6991.9599048,-0.212,-0.282,359.979,1.0
4.2833,128.181884,37.935502,6991.915404,-0.228,-0.281,359.979,1.0
4.3,128.181884,37.93555,6991.8709032,-0.242,-0.28,359.978,1.0
4.3166,128.181884,37.935597,6991.8264024,-0.254,-0.278,359.977,1.0
4.3333,128.181884,37.935645,6991.7819016,-0.265,-0.277,359.977,1.0
4.35,128.181884,37.935692,6991.737096000001,-0.274,-0.277,359.976,1.0
4.3666,128.181884,37.93574,6991.6925952,-0.282,-0.276,359.975,1.0
4.3833,128.181884,37.935787,6991.6477896,-0.288,-0.276,359.974,1.0
4.4,128.181884,37.935835,6991.602984000001,-0.294,-0.276,359.974,1.0
4.4166,128.181884,37.935882,6991.5584832,-0.299,-0.276,359.973,1.0
4.4333,128.181884,37.93593,6991.513677600001,-0.303,-0.276,359.972,1.0
4.45,128.181884,37.935977,6991.468872,-0.307,-0.276,359.972,1.0
4.4666,128.181884,37.936025,6991.4237616,-0.309,-0.276,359.972,1.0
4.4833,128.181884,37.936073,6991.3789560000005,-0.311,-0.277,359.971,1.0
4.5,128.181884,37.93612,6991.3341504,-0.313,-0.277,359.971,1.0
4.5166,128.181884,37.936168,6991.2893448,-0.314,-0.278,359.971,1.0
4.5333,128.181884,37.936215,6991.2442344,-0.314,-0.278,359.971,1.0
4.55,128.181884,37.936263,6991.1994288000005,-0.314,-0.279,359.971,1.0
4.5666,128.181884,37.936311,6991.1543184,-0.314,-0.279,359.97,1.0
4.5833,128.181884,37.936358,6991.1095128,-0.314,-0.28,359.97,1.0
4.6,128.181884,37.936406,6991.064402399999,-0.313,-0.281,359.97,1.0
4.6166,128.181884,37.936453,6991.019596800001,-0.312,-0.282,359.97,1.0
4.6333,128.181884,37.936501,6990.9744864,-0.311,-0.283,359.97,1.0
4.65,128.181884,37.936549,6990.9296808,-0.31,-0.284,359.97,1.0
4.6666,128.181884,37.936597,6990.8845704000005,-0.308,-0.285,359.97,1.0
4.6833,128.181884,37.936644,6990.83946,-0.307,-0.286,359.97,1.0
4.7,128.181884,37.936692,6990.794654400001,-0.306,-0.287,359.97,1.0
4.7166,128.181884,37.93674,6990.749544,-0.304,-0.288,359.97,1.0
4.7333,128.181884,37.936787,6990.704433600001,-0.303,-0.289,359.97,1.0
4.75,128.181884,37.936835,6990.659628,-0.302,-0.29,359.97,1.0
4.7666,128.181884,37.936883,6990.6145176,-0.3,-0.291,359.97,1.0
4.7833,128.181884,37.936931,6990.5694072,-0.299,-0.292,359.97,1.0
4.8,128.181884,37.936978,6990.5242968,-0.298,-0.294,359.969,1.0
4.8166,128.181884,37.937026,6990.479491200001,-0.297,-0.295,359.969,1.0
4.8333,128.181884,37.937074,6990.4343808,-0.296,-0.296,359.969,1.0
4.85,128.181884,37.937122,6990.389270400001,-0.296,-0.297,359.969,1.0
4.8666,128.181884,37.93717,6990.344160000001,-0.295,-0.299,359.969,1.0
4.8833,128.181884,37.937218,6990.2990496,-0.294,-0.3,359.969,1.0
4.9,128.181884,37.937265,6990.2539392,-0.294,-0.301,359.969,1.0
4.9166,128.181884,37.937313,6990.2088288,-0.294,-0.302,359.968,1.0
4.9333,128.181884,37.937361,6990.1637184,-0.293,-0.303,359.968,1.0
4.95,128.181884,37.937409,6990.118608,-0.293,-0.305,359.968,1.0
4.9666,128.181884,37.937457,6990.073497600001,-0.293,-0.306,359.968,1.0
4.9833,128.181884,37.937505,6990.028387200001,-0.293,-0.307,359.968,1.0
5.0,128.181884,37.937553,6989.983276800001,-0.293,-0.308,359.968,1.0
5.0166,128.181884,37.937601,6989.9381664,-0.293,-0.309,359.967,1.0
5.0333,128.181884,37.937649,6989.893056000001,-0.293,-0.31,359.967,1.0
5.05,128.181884,37.937697,6989.8479456000005,-0.293,-0.311,359.967,1.0
5.0666,128.181884,37.937745,6989.8025304,-0.293,-0.312,359.967,1.0
5.0833,128.181884,37.937793,6989.757420000001,-0.293,-0.314,359.966,1.0
5.1,128.181884,37.937841,6989.7123096000005,-0.294,-0.315,359.966,1.0
5.1166,128.181884,37.937889,6989.6668944,-0.294,-0.316,359.966,1.0
5.1333,128.181884,37.937937,6989.621784000001,-0.295,-0.317,359.966,1.0
5.15,128.181884,37.937985,6989.576368800001,-0.295,-0.318,359.965,1.0
5.1666,128.181884,37.938033,6989.5312584,-0.296,-0.319,359.965,1.0
5.1833,128.181884,37.938081,6989.4858432,-0.296,-0.321,359.965,1.0
5.2,128.181884,37.938129,6989.440428000001,-0.297,-0.322,359.965,1.0
5.2166,128.181884,37.938177,6989.3953176,-0.297,-0.323,359.964,1.0
5.2333,128.181885,37.938225,6989.3499024,-0.298,-0.324,359.964,1.0
5.25,128.181885,37.938273,6989.304487200001,-0.298,-0.326,359.964,1.0
5.2666,128.181885,37.938321,6989.259072,-0.299,-0.327,359.964,1.0
5.2833,128.181885,37.938369,6989.2136568000005,-0.3,-0.329,359.963,1.0
5.3,128.181885,37.938417,6989.1682416,-0.3,-0.33,359.963,1.0
5.3166,128.181885,37.938465,6989.1228264,-0.301,-0.331,359.963,1.0
5.3333,128.181885,37.938514,6989.077411200001,-0.302,-0.333,359.963,1.0
5.35,128.181885,37.938562,6989.031691200001,-0.302,-0.334,359.962,1.0
5.3666,128.181885,37.93861,6988.986276,-0.303,-0.335,359.962,1.0
5.3833,128.181885,37.938658,6988.9408608,-0.304,-0.337,359.962,1.0
5.4,128.181885,37.938706,6988.8951408,-0.305,-0.338,359.962,1.0
5.4166,128.181885,37.938754,6988.8497256,-0.306,-0.339,359.961,1.0
5.4333,128.181885,37.938803,6988.804005600001,-0.307,-0.34,359.961,1.0
5.45,128.181885,37.938851,6988.7582856,-0.307,-0.341,359.961,1.0
5.4666,128.181885,37.938899,6988.712870400001,-0.308,-0.342,359.96,1.0
5.4833,128.181885,37.938947,6988.6671504000005,-0.309,-0.343,359.96,1.0
5.5,128.181885,37.938996,6988.6214304,-0.31,-0.343,359.96,1.0
5.5166,128.181885,37.939044,6988.5757104,-0.311,-0.343,359.96,1.0
5.5333,128.181885,37.939092,6988.5299904,-0.312,-0.343,359.959,1.0
5.55,128.181885,37.939141,6988.484270400001,-0.313,-0.343,359.959,1.0
5.5666,128.181885,37.939189,6988.4385504,-0.313,-0.343,359.959,1.0
5.5833,128.181885,37.939237,6988.3928304,-0.314,-0.342,359.958,1.0
5.6,128.181885,37.939285,6988.347110400001,-0.315,-0.341,359.958,1.0
5.6166,128.181885,37.939334,6988.3013904,-0.316,-0.34,359.958,1.0
5.6333,128.181885,37.939382,6988.255670400001,-0.316,-0.339,359.957,1.0
5.65,128.181885,37.939431,6988.209950400001,-0.317,-0.337,359.957,1.0
5.6666,128.181885,37.939479,6988.1639256,-0.318,-0.335,359.957,1.0
5.6833,128.181885,37.939527,6988.118510400001,-0.318,-0.332,359.957,1.0
5.7,128.181885,37.939576,6988.0727904000005,-0.319,-0.33,359.956,1.0
5.7166,128.181885,37.939624,6988.027070400001,-0.319,-0.326,359.956,1.0
5.7333,128.181885,37.939673,6987.9813504,-0.319,-0.323,359.956,1.0
5.75,128.181885,37.939721,6987.9359352,-0.32,-0.319,359.955,1.0
5.7666,128.181885,37.939769,6987.890215200001,-0.32,-0.315,359.955,1.0
5.7833,128.181885,37.939818,6987.844800000001,-0.32,-0.31,359.955,1.0
5.8,128.181885,37.939866,6987.7993848,-0.321,-0.305,359.954,1.0
5.8166,128.181885,37.939915,6987.754274400001,-0.321,-0.299,359.954,1.0
5.8333,128.181885,37.939963,6987.7088592,-0.321,-0.293,359.953,1.0
5.85,128.181885,37.940012,6987.6637488,-0.321,-0.287,359.953,1.0
5.8666,128.181885,37.94006,6987.618638400001,-0.321,-0.28,359.953,1.0
5.8833,128.181885,37.940109,6987.573832800001,-0.321,-0.272,359.952,1.0
5.9,128.181885,37.940157,6987.5290272,-0.321,-0.264,359.952,1.0
5.9166,128.181885,37.940206,6987.4845264000005,-0.321,-0.256,359.951,1.0
5.9333,128.181885,37.940254,6987.4400256,-0.321,-0.247,359.951,1.0
5.95,128.181885,37.940303,6987.3958296,-0.32,-0.237,359.951,1.0
5.9666,128.181885,37.940352,6987.351633600001,-0.32,-0.227,359.95,1.0
5.9833,128.181885,37.9404,6987.3077424,-0.32,-0.217,359.95,1.0
6.0,128.181885,37.940449,6987.264156000001,-0.319,-0.205,359.949,1.0
6.0166,128.181885,37.940497,6987.220569600001,-0.319,-0.194,359.949,1.0
6.0333,128.181885,37.940546,6987.177592800001,-0.318,-0.181,359.949,1.0
6.05,128.181885,37.940595,6987.134615999999,-0.317,-0.168,359.948,1.0
6.0666,128.181885,37.940643,6987.091944,-0.316,-0.154,359.948,1.0
6.0833,128.181885,37.940692,6987.0498816,-0.316,-0.14,359.947,1.0
6.1,128.181885,37.940741,6987.007819200001,-0.315,-0.125,359.947,1.0
6.1166,128.181885,37.940789,6986.9663664,-0.314,-0.109,359.946,1.0
6.1333,128.181885,37.940838,6986.924913600001,-0.313,-0.093,359.946,1.0
6.15,128.181885,37.940887,6986.884070400001,-0.312,-0.076,359.945,1.0
6.1666,128.181885,37.940935,6986.843836800001,-0.311,-0.058,359.945,1.0
6.1833,128.181885,37.940984,6986.803908,-0.31,-0.039,359.944,1.0
6.2,128.181885,37.941033,6986.764284000001,-0.309,-0.02,359.944,1.0
6.2166,128.181885,37.941082,6986.7252696000005,-0.308,0.0,359.943,1.0
6.2333,128.181885,37.94113,6986.686864800001,-0.307,0.021,359.943,1.0
6.25,128.181885,37.941179,6986.649069600001,-0.305,0.043,359.942,1.0
6.2666,128.181885,37.941228,6986.611884000001,-0.304,0.066,359.942,1.0
6.2833,128.181885,37.941277,6986.5750032,-0.303,0.09,359.941,1.0
6.3,128.181885,37.941325,6986.539036800001,-0.301,0.115,359.94,1.0
6.3166,128.181885,37.941374,6986.50368,-0.3,0.14,359.94,1.0
6.3333,128.181885,37.941423,6986.4692376,-0.299,0.167,359.939,1.0
6.35,128.181885,37.941472,6986.4354048000005,-0.297,0.195,359.939,1.0
6.3666,128.181885,37.941521,6986.4021816,-0.296,0.224,359.938,1.0
6.3833,128.181885,37.94157,6986.3698728,-0.294,0.254,359.937,1.0
6.4,128.181885,37.941618,6986.338478400001,-0.292,0.285,359.937,1.0
6.4166,128.181885,37.941667,6986.3079984,-0.291,0.317,359.936,1.0
6.4333,128.181885,37.941716,6986.278432800001,-0.289,0.35,359.935,1.0
6.45,128.181885,37.941765,6986.2497816000005,-0.287,0.385,359.935,1.0
6.4666,128.181885,37.941814,6986.222349600001,-0.285,0.42,359.934,1.0
6.4833,128.181885,37.941863,6986.195832,-0.284,0.457,359.933,1.0
6.5,128.181885,37.941912,6986.1705336,-0.282,0.496,359.933,1.0
6.5166,128.181885,37.941961,6986.1461496,-0.28,0.535,359.932,1.0
6.5333,128.181885,37.94201,6986.1232896,-0.278,0.576,359.931,1.0
6.55,128.181885,37.942059,6986.1016488000005,-0.276,0.618,359.93,1.0
6.5666,128.181885,37.942108,6986.0812272,-0.274,0.662,359.93,1.0
6.5833,128.181885,37.942157,6986.0620248000005,-0.272,0.708,359.929,1.0
6.6,128.181885,37.942206,6986.044651200001,-0.27,0.754,359.928,1.0
6.6166,128.181885,37.942255,6986.0284968000005,-0.268,0.803,359.927,1.0
6.6333,128.181884,37.942304,6986.0138664,-0.266,0.853,359.926,1.0
6.65,128.181884,37.942353,6986.000760000001,-0.264,0.905,359.926,1.0
6.6666,128.181884,37.942402,6985.9894824,-0.262,0.958,359.925,1.0
6.6833,128.181884,37.942451,6985.980033600001,-0.26,1.013,359.924,1.0
6.7,128.181884,37.9425,6985.972108800001,-0.258,1.07,359.923,1.0
6.7166,128.181884,37.942549,6985.9663176,-0.256,1.129,359.922,1.0
6.7333,128.181884,37.942598,6985.9623552,-0.253,1.19,359.921,1.0
6.75,128.181884,37.942647,6985.9602216,-0.251,1.253,359.92,1.0
6.7666,128.181884,37.942696,6985.9602216,-0.249,1.319,359.919,1.0
6.7833,128.181884,37.942745,6985.96266,-0.247,1.386,359.918,1.0
6.8,128.181884,37.942794,6985.967232,-0.245,1.456,359.917,1.0
6.8166,128.181884,37.942843,6985.973937600001,-0.242,1.528,359.916,1.0
6.8333,128.181884,37.942892,6985.9830816,-0.24,1.602,359.915,1.0
6.85,128.181884,37.942941,6985.994968800001,-0.238,1.679,359.914,1.0
6.8666,128.181884,37.942991,6986.0092944,-0.235,1.758,359.912,1.0
6.8833,128.181884,37.94304,6986.026363200001,-0.233,1.841,359.911,1.0
6.9,128.181884,37.943089,6986.0461752,-0.23,1.926,359.91,1.0
6.9166,128.181884,37.943138,6986.0687304,-0.228,2.013,359.909,1.0
6.9333,128.181884,37.943187,6986.094333600001,-0.225,2.104,359.907,1.0
6.95,128.181884,37.943236,6986.1229848,-0.222,2.198,359.906,1.0
6.9666,128.181884,37.943285,6986.1549888,-0.219,2.296,359.905,1.0
6.9833,128.181884,37.943335,6986.1903456,-0.216,2.397,359.903,1.0
7.0,128.181884,37.943384,6986.2290552,-0.213,2.501,359.902,1.0
7.0166,128.181884,37.943433,6986.2714224,-0.21,2.609,359.9,1.0
7.0333,128.181884,37.943482,6986.317142400001,-0.207,2.721,359.899,1.0
7.05,128.181884,37.943532,6986.3671296,-0.204,2.837,359.897,1.0
7.0666,128.181884,37.943581,6986.4207744000005,-0.201,2.957,359.896,1.0
7.0833,128.181884,37.94363,6986.478686400001,-0.197,3.081,359.894,1.0
7.1,128.181884,37.943679,6986.540865600001,-0.194,3.21,359.892,1.0
7.1166,128.181884,37.943728,6986.607312,-0.191,3.344,359.891,1.0
7.1333,128.181884,37.943778,6986.6783304,-0.187,3.482,359.889,1.0
7.15,128.181884,37.943827,6986.7542256,-0.183,3.626,359.887,1.0
7.1666,128.181884,37.943876,6986.834692800001,-0.18,3.775,359.885,1.0
7.1833,128.181884,37.943925,6986.920646400001,-0.176,3.93,359.883,1.0
7.2,128.181884,37.943975,6987.0117816,-0.172,4.09,359.881,1.0
7.2166,128.181884,37.944024,6987.1080984,-0.168,4.257,359.879,1.0
7.2333,128.181884,37.944073,6987.210206400001,-0.164,4.431,359.876,1.0
7.25,128.181884,37.944123,6987.318410400001,-0.16,4.611,359.874,1.0
7.2666,128.181884,37.944172,6987.4324056000005,-0.156,4.798,359.872,1.0
7.2833,128.181884,37.944221,6987.553106400001,-0.152,4.993,359.869,1.0
7.3,128.181884,37.94427,6987.680208,-0.147,5.196,359.867,1.0
7.3166,128.181884,37.94432,6987.8140152000005,-0.143,5.408,359.864,1.0
7.3333,128.181884,37.944369,6987.954832800001,-0.138,5.628,359.861,1.0
7.35,128.181884,37.944418,6988.102965600001,-0.134,5.858,359.858,1.0
7.3666,128.181884,37.944468,6988.2590232,-0.129,6.098,359.855,1.0
7.3833,128.181884,37.944517,6988.422700800001,-0.124,6.349,359.852,1.0
7.4,128.181884,37.944566,6988.5949128,-0.12,6.611,359.849,1.0
7.4166,128.181883,37.944616,6988.7756592000005,-0.115,6.885,359.845,1.0
7.4333,128.181883,37.944665,6988.965244800001,-0.11,7.171,359.842,1.0
7.45,128.181883,37.944714,6989.1636696000005,-0.105,7.463,359.838,1.0
7.4666,128.181883,37.944764,6989.371848,-0.099,7.753,359.834,1.0
7.4833,128.181883,37.944813,6989.5891704000005,-0.094,8.038,359.83,1.0
7.5,128.181883,37.944862,6989.8165512000005,-0.089,8.313,359.826,1.0
7.5166,128.181883,37.944911,6990.053990400001,-0.083,8.577,359.821,1.0
7.5333,128.181883,37.944961,6990.301488000001,-0.078,8.83,359.817,1.0
7.55,128.181883,37.94501,6990.5593488,-0.072,9.072,359.812,1.0
7.5666,128.181883,37.945059,6990.827877600001,-0.066,9.303,359.807,1.0
7.5833,128.181883,37.945109,6991.107074400001,-0.061,9.525,359.803,1.0
7.6,128.181883,37.945158,6991.397244,-0.056,9.737,359.798,1.0
7.6166,128.181883,37.945207,6991.6980816000005,-0.051,9.941,359.793,1.0
7.6333,128.181883,37.945256,6992.010196800001,-0.046,10.137,359.789,1.0
7.65,128.181883,37.945306,6992.3335896,-0.041,10.327,359.784,1.0
7.6666,128.181883,37.945355,6992.6679552000005,-0.036,10.511,359.78,1.0
7.6833,128.181883,37.945404,6993.0135984,-0.031,10.688,359.776,1.0
7.7,128.181883,37.945453,6993.3708240000005,-0.026,10.861,359.771,1.0
7.7166,128.181883,37.945502,6993.7393272,-0.021,11.03,359.767,1.0
7.7333,128.181883,37.945552,6994.1194128,-0.015,11.194,359.762,1.0
7.75,128.181883,37.945601,6994.5110808,-0.01,11.354,359.758,1.0
7.7666,128.181883,37.94565,6994.914331200001,-0.005,11.51,359.754,1.0
7.7833,128.181883,37.945699,6995.329164000001,0.0,11.663,359.749,1.0
7.8,128.181883,37.945748,6995.755579200001,0.006,11.813,359.744,1.0
7.8166,128.181883,37.945797,6996.1938816,0.013,11.96,359.739,1.0
7.8333,128.181883,37.945847,6996.6437664,0.019,12.104,359.734,1.0
7.85,128.181882,37.945896,6997.105233600001,0.025,12.246,359.729,1.0
7.8666,128.181882,37.945945,6997.578892800001,0.031,12.387,359.723,1.0
7.8833,128.181882,37.945994,6998.0638296,0.036,12.525,359.718,1.0
7.9,128.181882,37.946043,6998.5606536000005,0.041,12.662,359.713,1.0
7.9166,128.181882,37.946092,6999.069364800001,0.046,12.797,359.707,1.0
7.9333,128.181882,37.946141,6999.5899632,0.05,12.931,359.702,1.0
7.95,128.181882,37.94619,7000.122144,0.054,13.064,359.697,1.0
7.9666,128.181882,37.946239,7000.666212,0.058,13.196,359.692,1.0
7.9833,128.181882,37.946288,7001.2218624,0.061,13.327,359.687,1.0
8.0,128.181882,37.946337,7001.7897048,0.065,13.457,359.682,1.0
8.0166,128.181882,37.946386,7002.368824800001,0.068,13.586,359.677,1.0
8.0333,128.181882,37.946435,7002.9601368,0.071,13.715,359.672,1.0
8.05,128.181882,37.946484,7003.5630312,0.074,13.844,359.667,1.0
8.0666,128.181882,37.946532,7004.177508,0.078,13.972,359.663,1.0
8.0833,128.181882,37.946581,7004.8041768,0.081,14.1,359.658,1.0
8.1,128.181882,37.94663,7005.4421232,0.085,14.227,359.653,1.0
8.1166,128.181882,37.946679,7006.091956800001,0.089,14.354,359.649,1.0
8.1333,128.181882,37.946728,7006.753677600001,0.094,14.48,359.645,1.0
8.15,128.181882,37.946777,7007.4269808,0.098,14.606,359.64,1.0
8.1666,128.181881,37.946825,7008.1121712,0.103,14.733,359.636,1.0
8.1833,128.181881,37.946874,7008.808944,0.109,14.858,359.632,1.0
8.2,128.181881,37.946923,7009.5172992,0.115,14.984,359.628,1.0
8.2166,128.181881,37.946972,7010.237236800001,0.121,15.11,359.624,1.0
8.2333,128.181881,37.94702,7010.9690616,0.127,15.235,359.62,1.0
8.25,128.181881,37.947069,7011.7127736,0.134,15.36,359.617,1.0
8.2666,128.181881,37.947117,7012.4677632,0.141,15.485,359.613,1.0
8.2833,128.181881,37.947166,7013.234640000001,0.149,15.61,359.609,1.0
8.3,128.181881,37.947215,7014.0130992,0.157,15.735,359.606,1.0
8.3166,128.181881,37.947263,7014.803140800001,0.165,15.86,359.603,1.0
8.3333,128.181881,37.947312,7015.6047648,0.173,15.985,359.599,1.0
8.35,128.181881,37.94736,7016.4179712,0.182,16.109,359.596,1.0
8.3666,128.181881,37.947409,7017.242760000001,0.19,16.234,359.593,1.0
8.3833,128.181881,37.947457,7018.079436,0.2,16.358,359.59,1.0
8.4,128.181881,37.947506,7018.9273896,0.209,16.483,359.587,1.0
8.4166,128.181881,37.947554,7019.7869256,0.218,16.607,359.584,1.0
8.4333,128.18188,37.947603,7020.658044,0.228,16.731,359.581,1.0
8.45,128.18188,37.947651,7021.5407448000005,0.238,16.855,359.579,1.0
8.4666,128.18188,37.947699,7022.435028000001,0.248,16.98,359.576,1.0
8.4833,128.18188,37.947748,7023.3408936,0.258,17.104,359.573,1.0
8.5,128.18188,37.947796,7024.258036800001,0.269,17.228,359.571,1.0
8.5166,128.18188,37.947844,7025.1867624,0.279,17.352,359.568,1.0
8.5333,128.18188,37.947892,7026.127070400001,0.29,17.476,359.566,1.0
8.55,128.18188,37.947941,7027.078656000001,0.301,17.6,359.563,1.0
8.5666,128.18188,37.947989,7028.041824000001,0.312,17.724,359.561,1.0
8.5833,128.18188,37.948037,7029.0165744000005,0.323,17.848,359.559,1.0
8.6,128.18188,37.948085,7030.0026024,0.334,17.972,359.557,1.0
8.6166,128.18188,37.948133,7030.999908,0.345,18.095,359.555,1.0
8.6333,128.18188,37.948181,7032.008796,0.355,18.219,359.552,1.0
8.65,128.18188,37.948229,7033.0292664,0.366,18.343,359.55,1.0
8.6666,128.18188,37.948277,7034.0610144,0.376,18.467,359.548,1.0
8.6833,128.181879,37.948325,7035.10404,0.387,18.59,359.546,1.0
8.7,128.181879,37.948373,7036.1583432,0.397,18.714,359.544,1.0
8.7166,128.181879,37.948421,7037.224228800001,0.407,18.838,359.542,1.0
8.7333,128.181879,37.948469,7038.301392,0.417,18.961,359.54,1.0
8.75,128.181879,37.948517,7039.389528000001,0.427,19.085,359.538,1.0
8.7666,128.181879,37.948565,7040.4892464,0.438,19.208,359.536,1.0
8.7833,128.181879,37.948613,7041.600547200001,0.448,19.332,359.535,1.0
8.8,128.181879,37.948661,7042.7228208,0.458,19.455,359.533,1.0
8.8166,128.181879,37.948708,7043.856372,0.468,19.579,359.531,1.0
8.8333,128.181879,37.948756,7045.0008960000005,0.479,19.702,359.53,1.0
8.85,128.181879,37.948804,7046.1570024,0.489,19.826,359.528,1.0
8.8666,128.181879,37.948851,7047.324386400001,0.5,19.949,359.527,1.0
8.8833,128.181879,37.948899,7048.5027432,0.51,20.072,359.525,1.0
8.9,128.181879,37.948947,7049.6923776,0.521,20.195,359.524,1.0
8.9166,128.181879,37.948994,7050.8932896,0.532,20.319,359.523,1.0
8.9333,128.181878,37.949042,7052.105174400001,0.543,20.442,359.521,1.0
8.95,128.181878,37.949089,7053.3283368,0.554,20.565,359.52,1.0
8.9666,128.181878,37.949137,7054.5624720000005,0.565,20.688,359.519,1.0
8.9833,128.181878,37.949184,7055.8078848,0.576,20.811,359.518,1.0
9.0,128.181878,37.949232,7057.0645752,0.587,20.934,359.517,1.0
9.0166,128.181878,37.949279,7058.3319336,0.598,21.057,359.516,1.0
9.0333,128.181878,37.949326,7059.6105696,0.609,21.18,359.515,1.0
9.05,128.181878,37.949374,7060.9001784,0.621,21.303,359.514,1.0
9.0666,128.181878,37.949421,7062.2010648000005,0.632,21.426,359.513,1.0
9.0833,128.181878,37.949468,7063.512619200001,0.644,21.548,359.513,1.0
9.1,128.181878,37.949515,7064.8354512000005,0.655,21.671,359.512,1.0
9.1166,128.181878,37.949562,7066.169256000001,0.667,21.794,359.511,1.0
9.1333,128.181878,37.94961,7067.5140336,0.679,21.917,359.511,1.0
9.15,128.181878,37.949657,7068.869784,0.69,22.039,359.51,1.0
9.1666,128.181878,37.949704,7070.2362023999995,0.702,22.162,359.51,1.0
9.1833,128.181878,37.949751,7071.6138984,0.714,22.284,359.509,1.0
9.2,128.181877,37.949798,7073.0022624,0.726,22.407,359.509,1.0
9.2166,128.181877,37.949845,7074.4015992,0.739,22.529,359.509,1.0
9.2333,128.181877,37.949892,7075.8119088,0.751,22.652,359.509,1.0
9.25,128.181877,37.949938,7077.233191200001,0.763,22.774,359.509,1.0
9.2666,128.181877,37.949985,7078.6651416,0.776,22.896,359.509,1.0
9.2833,128.181877,37.950032,7080.107760000001,0.789,23.019,359.509,1.0
9.3,128.181877,37.950079,7081.561351200001,0.802,23.141,359.509,1.0
9.3166,128.181877,37.950126,7083.025915200001,0.816,23.263,359.509,1.0
9.3333,128.181877,37.950172,7084.500842400001,0.829,23.385,359.509,1.0
9.35,128.181877,37.950219,7085.987047200001,0.843,23.507,359.51,1.0
9.3666,128.181877,37.950265,7087.483615200001,0.857,23.63,359.51,1.0
9.3833,128.181877,37.950312,7088.991156000001,0.871,23.752,359.51,1.0
9.4,128.181877,37.950359,7090.50906,0.885,23.874,359.511,1.0
9.4166,128.181877,37.950405,7092.0379368,0.9,23.995,359.511,1.0
9.4333,128.181877,37.950452,7093.5774816,0.914,24.117,359.512,1.0
9.45,128.181877,37.950498,7095.1276944,0.929,24.239,359.513,1.0
9.4666,128.181877,37.950544,7096.6885752,0.943,24.361,359.514,1.0
9.4833,128.181877,37.950591,7098.2598192000005,0.958,24.483,359.514,1.0
9.5,128.181877,37.950637,7099.842036,0.973,24.604,359.515,1.0
9.5166,128.181877,37.950683,7101.434616,0.987,24.726,359.516,1.0
9.5333,128.181876,37.950729,7103.037864000001,1.002,24.848,359.517,1.0
9.55,128.181876,37.950776,7104.6514752,1.016,24.969,359.518,1.0
9.5666,128.181876,37.950822,7106.2760592,1.031,25.091,359.519,1.0
9.5833,128.181876,37.950868,7107.910701600001,1.045,25.212,359.52,1.0
9.6,128.181876,37.950914,7109.5563168,1.059,25.334,359.521,1.0
9.6166,128.181876,37.95096,7111.2119904,1.073,25.455,359.522,1.0
9.6333,128.181876,37.951006,7112.878332,1.087,25.576,359.524,1.0
9.65,128.181876,37.951052,7114.5550368,1.101,25.698,359.525,1.0
9.6666,128.181876,37.951098,7116.2424096,1.116,25.819,359.526,1.0
9.6833,128.181876,37.951143,7117.9401456000005,1.13,25.94,359.528,1.0
9.7,128.181876,37.951189,7119.64794,1.144,26.061,359.529,1.0
9.7166,128.181876,37.951235,7121.3664024,1.158,26.182,359.531,1.0
9.7333,128.181876,37.951281,7123.095228,1.172,26.304,359.532,1.0
9.75,128.181876,37.951326,7124.8344168,1.186,26.425,359.534,1.0
9.7666,128.181876,37.951372,7126.583664000001,1.2,26.546,359.535,1.0
9.7833,128.181876,37.951418,7128.343579200001,1.215,26.666,359.537,1.0
9.8,128.181876,37.951463,7130.1135527999995,1.229,26.787,359.539,1.0
9.8166,128.181876,37.951509,7131.8938896,1.243,26.908,359.541,1.0
9.8333,128.181876,37.951554,7133.6842848,1.258,27.029,359.543,1.0
9.85,128.181876,37.951599,7135.485348,1.272,27.15,359.545,1.0
9.8666,128.181876,37.951645,7137.296164800001,1.286,27.27,359.547,1.0
9.8833,128.181876,37.95169,7139.1173448,1.301,27.391,359.549,1.0
9.9,128.181876,37.951735,7140.948583200001,1.315,27.512,359.551,1.0
9.9166,128.181876,37.951781,7142.7901848,1.33,27.632,359.553,1.0
9.9333,128.181876,37.951826,7144.6418448,1.345,27.753,359.555,1.0
9.95,128.181876,37.951871,7146.5035632,1.359,27.873,359.557,1.0
9.9666,128.181876,37.951916,7148.3753400000005,1.374,27.993,359.56,1.0
9.9833,128.181876,37.951961,7150.25748,1.389,28.114,359.562,1.0
10.0,128.181876,37.952006,7152.1493736,1.403,28.234,359.565,1.0
10.0166,128.181876,37.952051,7154.0513256,1.418,28.354,359.567,1.0
10.0333,128.181876,37.952096,7155.963336000001,1.433,28.474,359.57,1.0
10.05,128.181876,37.952141,7157.8854048,1.448,28.594,359.572,1.0
10.0666,128.181876,37.952185,7159.817532,1.463,28.714,359.575,1.0
10.0833,128.181876,37.95223,7161.7594128,1.477,28.834,359.578,1.0
10.1,128.181876,37.952275,7163.711352000001,1.492,28.954,359.58,1.0
10.1166,128.181876,37.952319,7165.673349600001,1.507,29.074,359.583,1.0
10.1333,128.181876,37.952364,7167.6447960000005,1.521,29.194,359.586,1.0
10.15,128.181876,37.952409,7169.6266056,1.535,29.314,359.589,1.0
10.1666,128.181876,37.952453,7171.618168800001,1.55,29.434,359.592,1.0
10.1833,128.181876,37.952498,7173.6194856,1.564,29.553,359.595,1.0
10.2,128.181877,37.952542,7175.630556000001,1.578,29.673,359.598,1.0
10.2166,128.181877,37.952586,7177.65138,1.593,29.793,359.601,1.0
10.2333,128.181877,37.952631,7179.6822624,1.607,29.912,359.604,1.0
10.25,128.181877,37.952675,7181.7225935999995,1.621,30.032,359.607,1.0
10.2666,128.181877,37.952719,7183.7729832,1.636,30.151,359.61,1.0
10.2833,128.181877,37.952763,7185.8328216,1.65,30.27,359.614,1.0
10.3,128.181877,37.952807,7187.902413600001,1.665,30.39,359.617,1.0
10.3166,128.181877,37.952851,7189.9817592,1.679,30.509,359.621,1.0
10.3333,128.181877,37.952895,7192.0705536000005,1.694,30.628,359.624,1.0
10.35,128.181877,37.952939,7194.1691016,1.708,30.747,359.628,1.0
10.3666,128.181877,37.952983,7196.2774032,1.723,30.866,359.631,1.0
10.3833,128.181877,37.953027,7198.3951536,1.737,30.985,359.635,1.0
10.4,128.181877,37.953071,7200.5226576,1.752,31.104,359.638,1.0
10.4166,128.181877,37.953115,7202.659610400001,1.767,31.223,359.642,1.0
10.4333,128.181877,37.953158,7204.806012,1.781,31.342,359.646,1.0
10.45,128.181878,37.953202,7206.9618624,1.796,31.461,359.65,1.0
10.4666,128.181878,37.953246,7209.1274664,1.811,31.58,359.654,1.0
10.4833,128.181878,37.953289,7211.302214400001,1.825,31.698,359.658,1.0
10.5,128.181878,37.953333,7213.486715999999,1.84,31.817,359.661,1.0
10.5166,128.181878,37.953376,7215.6803616,1.854,31.936,359.665,1.0
10.5333,128.181878,37.95342,7217.8837608,1.868,32.054,359.669,1.0
10.55,128.181878,37.953463,7220.096304000001,1.882,32.173,359.673,1.0
10.5666,128.181878,37.953506,7222.318296,1.896,32.291,359.678,1.0
10.5833,128.181878,37.953549,7224.549432000001,1.91,32.409,359.682,1.0
10.6,128.181879,37.953593,7226.7903216,1.923,32.528,359.686,1.0
10.6166,128.181879,37.953636,7229.040050400001,1.937,32.646,359.69,1.0
10.6333,128.181879,37.953679,7231.299228000001,1.95,32.764,359.694,1.0
10.65,128.181879,37.953722,7233.5678544,1.964,32.882,359.699,1.0
10.6666,128.181879,37.953765,7235.845624800001,1.977,33.0,359.703,1.0
10.6833,128.181879,37.953808,7238.1325392,1.991,33.118,359.708,1.0
10.7,128.181879,37.953851,7240.428597600001,2.004,33.236,359.712,1.0
10.7166,128.18188,37.953893,7242.7338,2.018,33.354,359.717,1.0
10.7333,128.18188,37.953936,7245.0481464,2.032,33.472,359.721,1.0
10.75,128.18188,37.953979,7247.3716368000005,2.045,33.59,359.726,1.0
10.7666,128.18188,37.954021,7249.7042712,2.059,33.707,359.731,1.0
10.7833,128.18188,37.954064,7252.0460496000005,2.073,33.825,359.735,1.0
10.8,128.18188,37.954107,7254.3969720000005,2.087,33.943,359.74,1.0
10.8166,128.18188,37.954149,7256.756733600001,2.101,34.06,359.745,1.0
10.8333,128.181881,37.954191,7259.1253344,2.114,34.178,359.75,1.0
10.85,128.181881,37.954234,7261.503384000001,2.128,34.295,359.755,1.0
10.8666,128.181881,37.954276,7263.889968,2.142,34.412,359.76,1.0
10.8833,128.181881,37.954318,7266.286000800001,2.155,34.53,359.765,1.0
10.9,128.181881,37.95436,7268.690568,2.169,34.647,359.77,1.0
10.9166,128.181882,37.954403,7271.103974400001,2.183,34.764,359.775,1.0
10.9333,128.181882,37.954445,7273.5265248000005,2.196,34.881,359.78,1.0
10.95,128.181882,37.954487,7275.957914400001,2.21,34.998,359.786,1.0
10.9666,128.181882,37.954529,7278.3981432,2.224,35.115,359.791,1.0
10.9833,128.181882,37.954571,7280.847211200001,2.237,35.232,359.796,1.0
11.0,128.181883,37.954612,7283.304813600001,2.251,35.349,359.802,1.0
11.0166,128.181883,37.954654,7285.7712552,2.265,35.466,359.807,1.0
11.0333,128.181883,37.954696,7288.246536000001,2.279,35.582,359.813,1.0
11.05,128.181883,37.954738,7290.730656000001,2.292,35.699,359.818,1.0
11.0666,128.181883,37.954779,7293.223310400001,2.306,35.816,359.824,1.0
11.0833,128.181884,37.954821,7295.724804,2.32,35.932,359.829,1.0
11.1,128.181884,37.954862,7298.234832,2.334,36.049,359.835,1.0
11.1166,128.181884,37.954904,7300.7536992000005,2.348,36.165,359.841,1.0
11.1333,128.181884,37.954945,7303.280796000001,2.362,36.281,359.847,1.0
11.15,128.181885,37.954986,7305.816732,2.376,36.398,359.853,1.0
11.1666,128.181885,37.955028,7308.3612023999995,2.39,36.514,359.858,1.0
11.1833,128.181885,37.955069,7310.9142071999995,2.404,36.63,359.864,1.0
11.2,128.181885,37.95511,7313.4757464,2.418,36.746,359.87,1.0
11.2166,128.181886,37.955151,7316.045820000001,2.432,36.862,359.876,1.0
11.2333,128.181886,37.955192,7318.624428000001,2.446,36.978,359.882,1.0
11.25,128.181886,37.955233,7321.211265600001,2.46,37.094,359.889,1.0
11.2666,128.181887,37.955274,7323.806637600001,2.474,37.21,359.895,1.0
11.2833,128.181887,37.955315,7326.410544,2.488,37.326,359.901,1.0
11.3,128.181887,37.955356,7329.02268,2.502,37.441,359.907,1.0
11.3166,128.181887,37.955396,7331.643350400001,2.516,37.557,359.914,1.0
11.3333,128.181888,37.955437,7334.2722504,2.53,37.673,359.92,1.0
11.35,128.181888,37.955478,7336.90938,2.545,37.788,359.927,1.0
11.3666,128.181888,37.955518,7339.555044,2.559,37.904,359.933,1.0
11.3833,128.181889,37.955559,7342.2086328000005,2.573,38.019,359.94,1.0
11.4,128.181889,37.955599,7344.870756000001,2.587,38.134,359.947,1.0
11.4166,128.181889,37.95564,7347.5411088,2.601,38.25,359.953,1.0
11.4333,128.18189,37.95568,7350.2193864,2.615,38.365,359.96,1.0
11.45,128.18189,37.95572,7352.9061984,2.63,38.48,359.967,1.0
11.4666,128.18189,37.95576,7355.6009352,2.644,38.595,359.973,1.0
11.4833,128.181891,37.9558,7358.303901600001,2.658,38.71,359.98,1.0
11.5,128.181891,37.95584,7361.0150976,2.672,38.825,359.987,1.0
11.5166,128.181891,37.95588,7363.734218400001,2.687,38.94,359.994,1.0
11.5333,128.181892,37.95592,7366.4612640000005,2.701,39.055,0.001,1.0
11.55,128.181892,37.95596,7369.1965392,2.715,39.169,0.009,1.0
11.5666,128.181892,37.956,7371.9397392,2.73,39.284,0.016,1.0
11.5833,128.181893,37.95604,7374.690864,2.744,39.398,0.023,1.0
11.6,128.181893,37.95608,7377.4502184,2.759,39.513,0.03,1.0
11.6166,128.181893,37.956119,7380.217192800001,2.773,39.627,0.038,1.0
11.6333,128.181894,37.956159,7382.9923968,2.788,39.742,0.045,1.0
11.65,128.181894,37.956198,7385.7755256,2.802,39.856,0.052,1.0
11.6666,128.181895,37.956238,7388.566274400001,2.816,39.971,0.06,1.0
11.6833,128.181895,37.956277,7391.3649479999995,2.83,40.085,0.067,1.0
11.7,128.181895,37.956316,7394.171546400001,2.844,40.199,0.075,1.0
11.7166,128.181896,37.956356,7396.9860696000005,2.858,40.313,0.082,1.0
11.7333,128.181896,37.956395,7399.808212800001,2.872,40.427,0.09,1.0
11.75,128.181897,37.956434,7402.637976,2.886,40.541,0.098,1.0
11.7666,128.181897,37.956473,7405.4756640000005,2.901,40.655,0.105,1.0
11.7833,128.181898,37.956512,7408.320972,2.915,40.769,0.113,1.0
11.8,128.181898,37.956551,7411.173900000001,2.929,40.882,0.121,1.0
11.8166,128.181898,37.95659,7414.0347528,2.943,40.996,0.129,1.0
11.8333,128.181899,37.956629,7416.9029208,2.957,41.11,0.137,1.0
11.85,128.181899,37.956667,7419.7790136,2.971,41.223,0.145,1.0
11.8666,128.1819,37.956706,7422.6627264,2.985,41.337,0.153,1.0
11.8833,128.1819,37.956745,7425.5537544,2.999,41.45,0.161,1.0
11.9,128.181901,37.956783,7428.4524024,3.013,41.564,0.17,1.0
11.9166,128.181901,37.956822,7431.358670400001,3.028,41.678,0.178,1.0
11.9333,128.181902,37.95686,7434.2722536,3.042,41.792,0.186,1.0
11.95,128.181902,37.956899,7437.193456800001,3.056,41.907,0.195,1.0
11.9666,128.181903,37.956937,7440.12228,3.07,42.022,0.203,1.0
11.9833,128.181903,37.956975,7443.058418400001,3.085,42.138,0.212,1.0
12.0,128.181904,37.957013,7446.001872,3.099,42.254,0.221,1.0
12.0166,128.181904,37.957051,7448.9529456,3.114,42.371,0.23,1.0
12.0333,128.181905,37.957089,7451.9110296,3.128,42.488,0.238,1.0
12.05,128.181905,37.957127,7454.876733600001,3.143,42.606,0.248,1.0
12.0666,128.181906,37.957165,7457.8497528,3.157,42.724,0.257,1.0
12.0833,128.181906,37.957203,7460.830392000001,3.172,42.842,0.266,1.0
12.1,128.181907,37.957241,7463.8180416000005,3.186,42.961,0.275,1.0
12.1166,128.181907,37.957279,7466.813006400001,3.201,43.081,0.285,1.0
12.1333,128.181908,37.957316,7469.8152864,3.215,43.2,0.294,1.0
12.15,128.181908,37.957354,7472.824576800001,3.23,43.32,0.304,1.0
12.1666,128.181909,37.957391,7475.8414872,3.245,43.44,0.313,1.0
12.1833,128.181909,37.957429,7478.865408,3.259,43.561,0.323,1.0
12.2,128.18191,37.957466,7481.896644,3.274,43.681,0.333,1.0
12.2166,128.181911,37.957503,7484.9348904,3.288,43.802,0.343,1.0
12.2333,128.181911,37.957541,7487.980452000001,3.303,43.923,0.353,1.0
12.25,128.181912,37.957578,7491.033024,3.317,44.045,0.363,1.0
12.2666,128.181912,37.957615,7494.092911200001,3.331,44.166,0.373,1.0
12.2833,128.181913,37.957652,7497.1598088,3.345,44.288,0.383,1.0
12.3,128.181913,37.957689,7500.2340216,3.359,44.409,0.393,1.0
12.3166,128.181914,37.957726,7503.3152448,3.373,44.531,0.404,1.0
12.3333,128.181915,37.957763,7506.4034784000005,3.388,44.653,0.414,1.0
12.35,128.181915,37.957799,7509.498722400001,3.402,44.775,0.425,1.0
12.3666,128.181916,37.957836,7512.6009768,3.416,44.898,0.435,1.0
12.3833,128.181916,37.957873,7515.710241600001,3.43,45.02,0.446,1.0
12.4,128.181917,37.957909,7518.8265168,3.444,45.142,0.457,1.0
12.4166,128.181918,37.957946,7521.9498023999995,3.458,45.265,0.467,1.0
12.4333,128.181918,37.957982,7525.0800984,3.472,45.387,0.478,1.0
12.45,128.181919,37.958019,7528.217404800001,3.487,45.51,0.489,1.0
12.4666,128.18192,37.958055,7531.3617216,3.501,45.633,0.5,1.0
12.4833,128.18192,37.958091,7534.512744,3.515,45.756,0.511,1.0
12.5,128.181921,37.958127,7537.670776800001,3.529,45.878,0.523,1.0
12.5166,128.181922,37.958163,7540.8355152,3.543,46.001,0.534,1.0
12.5333,128.181922,37.958199,7544.007264000001,3.557,46.125,0.545,1.0
12.55,128.181923,37.958235,7547.1857184,3.572,46.248,0.557,1.0
12.5666,128.181924,37.958271,7550.371183200001,3.586,46.371,0.568,1.0
12.5833,128.181924,37.958307,7553.5633536000005,3.6,46.494,0.58,1.0
12.6,128.181925,37.958343,7556.7625344,3.614,46.617,0.592,1.0
12.6166,128.181926,37.958378,7559.9684208,3.629,46.741,0.603,1.0
12.6333,128.181927,37.958414,7563.180708,3.643,46.864,0.615,1.0
12.65,128.181927,37.95845,7566.4000056,3.657,46.988,0.627,1.0
12.6666,128.181928,37.958485,7569.626313600001,3.671,47.112,0.639,1.0
12.6833,128.181929,37.95852,7572.8590224,3.685,47.235,0.651,1.0
12.7,128.181929,37.958556,7576.098436800001,3.699,47.359,0.663,1.0
12.7166,128.18193,37.958591,7579.344556800001,3.713,47.483,0.676,1.0
12.7333,128.181931,37.958626,7582.5970776,3.727,47.607,0.688,1.0
12.75,128.181932,37.958661,7585.856608800001,3.741,47.731,0.7,1.0
12.7666,128.181932,37.958696,7589.1225408,3.755,47.855,0.713,1.0
12.7833,128.181933,37.958731,7592.395178400001,3.769,47.979,0.726,1.0
12.8,128.181934,37.958766,7595.6745216,3.783,48.104,0.738,1.0
12.8166,128.181935,37.958801,7598.960265600001,3.797,48.228,0.751,1.0
12.8333,128.181936,37.958836,7602.2524104,3.812,48.352,0.764,1.0
12.85,128.181936,37.95887,7605.551260800001,3.826,48.477,0.777,1.0
12.8666,128.181937,37.958905,7608.8568168,3.84,48.601,0.79,1.0
12.8833,128.181938,37.958939,7612.1684688000005,3.854,48.726,0.803,1.0
12.9,128.181939,37.958974,7615.486826400001,3.869,48.851,0.816,1.0
12.9166,128.18194,37.959008,7618.8115848,3.883,48.976,0.83,1.0
12.9333,128.18194,37.959043,7622.142744,3.897,49.1,0.843,1.0
12.95,128.181941,37.959077,7625.4806088000005,3.912,49.225,0.857,1.0
12.9666,128.181942,37.959111,7628.8245696,3.926,49.35,0.87,1.0
12.9833,128.181943,37.959145,7632.1749312,3.941,49.476,0.884,1.0
13.0,128.181944,37.959179,7635.5316936,3.955,49.601,0.898,1.0
13.0166,128.181945,37.959213,7638.8948568000005,3.969,49.726,0.911,1.0
13.0333,128.181945,37.959247,7642.2644208,3.984,49.851,0.925,1.0
13.0499,128.181946,37.959281,7645.640385600001,3.998,49.977,0.939,1.0
13.0666,128.181947,37.959314,7649.0224464,4.013,50.102,0.953,1.0
13.0833,128.181948,37.959348,7652.410908,4.027,50.228,0.968,1.0
13.1,128.181949,37.959382,7655.805465600001,4.042,50.354,0.982,1.0
13.1166,128.18195,37.959415,7659.206424000001,4.056,50.479,0.996,1.0
13.1333,128.181951,37.959448,7662.6134784000005,4.071,50.605,1.011,1.0
13.15,128.181952,37.959482,7666.026628800001,4.086,50.731,1.026,1.0
13.1666,128.181952,37.959515,7669.44618,4.1,50.857,1.04,1.0
13.1833,128.181953,37.959548,7672.871827200001,4.115,50.983,1.055,1.0
13.2,128.181954,37.959581,7676.303570400001,4.13,51.109,1.07,1.0
13.2166,128.181955,37.959614,7679.7414096,4.145,51.236,1.085,1.0
13.2333,128.181956,37.959647,7683.1856496,4.16,51.362,1.1,1.0
13.25,128.181957,37.95968,7686.6356808,4.175,51.488,1.116,1.0
13.2666,128.181958,37.959713,7690.091808,4.19,51.615,1.131,1.0
13.2833,128.181959,37.959746,7693.5540312,4.205,51.741,1.147,1.0
13.3,128.18196,37.959779,7697.0223504000005,4.22,51.868,1.162,1.0
13.3166,128.181961,37.959811,7700.496765600001,4.235,51.995,1.178,1.0
13.3333,128.181962,37.959844,7703.976972,4.25,52.122,1.194,1.0
13.35,128.181963,37.959876,7707.463274400001,4.265,52.249,1.209,1.0
13.3666,128.181964,37.959908,7710.955672800001,4.28,52.376,1.226,1.0
13.3833,128.181965,37.959941,7714.4538624,4.296,52.503,1.242,1.0
13.4,128.181966,37.959973,7717.9578432,4.311,52.63,1.258,1.0
13.4166,128.181967,37.960005,7721.467920000001,4.326,52.757,1.274,1.0
13.4333,128.181968,37.960037,7724.9837880000005,4.342,52.885,1.291,1.0
13.45,128.181969,37.960069,7728.505752000001,4.357,53.012,1.307,1.0
13.4666,128.18197,37.960101,7732.0332024,4.373,53.14,1.324,1.0
13.4833,128.181971,37.960133,7735.5667488,4.389,53.267,1.341,1.0
13.5,128.181972,37.960165,7739.1060864,4.405,53.395,1.358,1.0
13.5166,128.181973,37.960196,7742.650910400001,4.42,53.523,1.375,1.0
13.5333,128.181974,37.960228,7746.2018304,4.436,53.651,1.392,1.0
13.55,128.181975,37.960259,7749.7582368,4.452,53.779,1.41,1.0
13.5666,128.181976,37.960291,7753.3207392,4.468,53.907,1.427,1.0
13.5833,128.181977,37.960322,7756.888728000001,4.484,54.035,1.445,1.0
13.6,128.181978,37.960353,7760.4622032,4.5,54.163,1.462,1.0
13.6166,128.181979,37.960385,7764.041774400001,4.516,54.292,1.48,1.0
13.6333,128.18198,37.960416,7767.626832000001,4.533,54.42,1.498,1.0
13.65,128.181981,37.960447,7771.2173760000005,4.549,54.549,1.516,1.0
13.6666,128.181983,37.960478,7774.813711200001,4.565,54.677,1.534,1.0
13.6833,128.181984,37.960509,7778.415532800001,4.582,54.806,1.553,1.0
13.7,128.181985,37.960539,7782.0231456,4.598,54.935,1.571,1.0
13.7166,128.181986,37.96057,7785.63594,4.615,55.064,1.59,1.0
13.7333,128.181987,37.960601,7789.2545256,4.632,55.193,1.609,1.0
13.75,128.181988,37.960631,7792.878597600001,4.649,55.322,1.628,1.0
13.7666,128.181989,37.960662,7796.508156000001,4.666,55.451,1.647,1.0
13.7833,128.18199,37.960692,7800.1432008,4.683,55.58,1.666,1.0
13.8,128.181992,37.960723,7803.783732000001,4.7,55.71,1.685,1.0
13.8166,128.181993,37.960753,7807.4297496,4.717,55.839,1.705,1.0
13.8333,128.181994,37.960783,7811.0809488,4.734,55.969,1.724,1.0
13.85,128.181995,37.960813,7814.7379392,4.752,56.098,1.744,1.0
13.8666,128.181996,37.960843,7818.4001112000005,4.769,56.228,1.764,1.0
13.8833,128.181997,37.960873,7822.0674648,4.787,56.358,1.784,1.0
13.9,128.181999,37.960903,7825.740304800001,4.805,56.488,1.804,1.0
13.9166,128.182,37.960933,7829.4186312,4.823,56.618,1.825,1.0
13.9333,128.182001,37.960962,7833.1018343999995,4.841,56.748,1.846,1.0
13.95,128.182002,37.960992,7836.790828800001,4.859,56.879,1.866,1.0
13.9666,128.182003,37.961022,7840.4847,4.877,57.009,1.887,1.0
13.9833,128.182005,37.961051,7844.1840576,4.895,57.14,1.908,1.0
14.0,128.182006,37.96108,7847.8885968,4.914,57.27,1.929,1.0
14.0166,128.182007,37.96111,7851.5980128,4.932,57.401,1.951,1.0
14.0333,128.182008,37.961139,7855.312915200001,4.951,57.532,1.972,1.0
14.05,128.18201,37.961168,7859.032999200001,4.97,57.662,1.994,1.0
14.0666,128.182011,37.961197,7862.758264800001,4.989,57.793,2.016,1.0
14.0833,128.182012,37.961226,7866.4884071999995,5.008,57.925,2.038,1.0
14.1,128.182013,37.961255,7870.2240360000005,5.027,58.056,2.06,1.0
14.1166,128.182015,37.961284,7873.9642368,5.046,58.187,2.083,1.0
14.1333,128.182016,37.961312,7877.709924000001,5.066,58.318,2.106,1.0
14.15,128.182017,37.961341,7881.460488000001,5.085,58.45,2.128,1.0
14.1666,128.182018,37.96137,7885.215928800001,5.105,58.582,2.152,1.0
14.1833,128.18202,37.961398,7888.9765512,5.125,58.713,2.175,1.0
14.2,128.182021,37.961426,7892.7420504,5.145,58.845,2.198,1.0
14.2166,128.182022,37.961455,7896.5127312,5.165,58.977,2.222,1.0
14.2333,128.182024,37.961483,7900.2882887999995,5.185,59.108,2.245,1.0
14.25,128.182025,37.961511,7904.0684184,5.206,59.24,2.269,1.0
14.2666,128.182026,37.961539,7907.8537295999995,5.226,59.372,2.294,1.0
14.2833,128.182028,37.961567,7911.6439176,5.247,59.504,2.318,1.0
14.3,128.182029,37.961595,7915.438982400001,5.268,59.636,2.342,1.0
14.3166,128.18203,37.961623,7919.2386192,5.289,59.769,2.367,1.0
14.3333,128.182032,37.96165,7923.0434376,5.31,59.901,2.392,1.0
14.35,128.182033,37.961678,7926.852828000001,5.332,60.033,2.417,1.0
14.3666,128.182034,37.961706,7930.6667904000005,5.353,60.165,2.443,1.0
14.3833,128.182036,37.961733,7934.4856296,5.375,60.298,2.468,1.0
14.4,128.182037,37.96176,7938.309345600001,5.397,60.43,2.494,1.0
14.4166,128.182039,37.961788,7942.137633600001,5.419,60.563,2.52,1.0
14.4333,128.18204,37.961815,7945.9707984,5.441,60.695,2.547,1.0
14.45,128.182041,37.961842,7949.8082304,5.464,60.828,2.573,1.0
14.4666,128.182043,37.961869,7953.6505392,5.487,60.961,2.6,1.0
14.4833,128.182044,37.961896,7957.497420000001,5.509,61.094,2.627,1.0
14.5,128.182046,37.961923,7961.3488728,5.532,61.227,2.654,1.0
14.5166,128.182047,37.96195,7965.2052023999995,5.556,61.36,2.681,1.0
14.5333,128.182048,37.961976,7969.065799200001,5.579,61.493,2.709,1.0
14.55,128.18205,37.962003,7972.930663200001,5.603,61.627,2.737,1.0
14.5666,128.182051,37.96203,7976.8004040000005,5.627,61.76,2.765,1.0
14.5833,128.182053,37.962056,7980.674412,5.651,61.893,2.794,1.0
14.6,128.182054,37.962082,7984.552992000001,5.675,62.027,2.822,1.0
14.6166,128.182056,37.962109,7988.436144,5.7,62.161,2.851,1.0
14.6333,128.182057,37.962135,7992.3235632000005,5.724,62.295,2.881,1.0
14.65,128.182059,37.962161,7996.2152496,5.749,62.428,2.91,1.0
14.6666,128.18206,37.962187,8000.111508,5.775,62.562,2.94,1.0
14.6833,128.182062,37.962213,8004.012033600001,5.8,62.697,2.97,1.0
14.7,128.182063,37.962239,8007.9168264,5.826,62.831,3.001,1.0
14.7166,128.182065,37.962264,8011.826191200001,5.852,62.965,3.031,1.0
14.7333,128.182066,37.96229,8015.739518400001,5.878,63.1,3.062,1.0
14.75,128.182068,37.962316,8019.6571128000005,5.905,63.234,3.094,1.0
14.7666,128.182069,37.962341,8023.578974400001,5.931,63.369,3.125,1.0
14.7833,128.182071,37.962367,8027.505408,5.958,63.503,3.157,1.0
14.8,128.182072,37.962392,8031.4354992,5.986,63.638,3.189,1.0
14.8166,128.182074,37.962417,8035.3701624000005,6.013,63.773,3.222,1.0
14.8333,128.182075,37.962442,8039.308788000001,6.041,63.908,3.255,1.0
14.85,128.182077,37.962467,8043.2516808,6.069,64.044,3.288,1.0
14.8666,128.182078,37.962492,8047.198536,6.098,64.179,3.322,1.0
14.8833,128.18208,37.962517,8051.1493536,6.127,64.314,3.356,1.0
14.9,128.182081,37.962542,8055.104438400001,6.156,64.45,3.39,1.0
14.9166,128.182083,37.962567,8059.063485600001,6.185,64.586,3.425,1.0
14.9333,128.182085,37.962591,8063.026495200001,6.215,64.721,3.46,1.0
14.95,128.182086,37.962616,8066.993772,6.245,64.857,3.495,1.0
14.9666,128.182088,37.96264,8070.964706400001,6.275,64.993,3.531,1.0
14.9833,128.182089,37.962665,8074.9396032,6.306,65.13,3.567,1.0
15.0,128.182091,37.962689,8078.9184624,6.337,65.266,3.603,1.0
15.0166,128.182093,37.962713,8082.9012840000005,6.369,65.402,3.64,1.0
15.0333,128.182094,37.962737,8086.888068,6.401,65.539,3.678,1.0
15.05,128.182096,37.962761,8090.8785096,6.433,65.675,3.715,1.0
15.0666,128.182097,37.962785,8094.8729136,6.465,65.812,3.754,1.0
15.0833,128.182099,37.962809,8098.87128,6.498,65.949,3.792,1.0
