Time,Longitude,Latitude,Altitude,Roll (deg),Pitch (deg),Yaw (deg),Health
399.9666,128.181881,37.968463,7002.830292000001,0.0,-0.003,179.999,1.0
399.9833,128.181881,37.968418,7002.8116992000005,0.0,-0.012,180.0,1.0
400.0,128.181881,37.968374,7002.793411200001,-0.1,-0.025,179.996,1.0
400.0166,128.181881,37.968329,7002.775428000001,-0.296,-0.041,179.99,1.0
400.0333,128.181881,37.968284,7002.7577496,-0.588,-0.059,179.982,1.0
400.05,128.181881,37.968239,7002.7409856,-0.974,-0.077,179.973,1.0
400.0666,128.181881,37.968194,7002.725745600001,-1.45,-0.095,179.964,1.0
400.0833,128.181881,37.968149,7002.7117248,-2.014,-0.113,179.956,1.0
400.1,128.181881,37.968104,7002.699837600001,-2.663,-0.131,179.949,1.0
400.1166,128.181881,37.968059,7002.6903888,-3.393,-0.148,179.942,1.0
400.1333,128.181881,37.968014,7002.683378400001,-4.202,-0.164,179.935,1.0
400.15,128.181881,37.967969,7002.677892000001,-5.086,-0.179,179.929,1.0
400.1666,128.181881,37.967924,7002.674844,-6.043,-0.193,179.924,1.0
400.1833,128.181881,37.967879,7002.673624800001,-7.07,-0.207,179.919,1.0
400.2,128.181881,37.967834,7002.6745392,-8.163,-0.219,179.915,1.0
400.2166,128.181881,37.967789,7002.677282400001,-9.321,-0.231,179.91,1.0
400.2333,128.181881,37.967744,7002.681854400001,-10.54,-0.241,179.905,1.0
400.25,128.181881,37.967699,7002.688255200001,-11.819,-0.251,179.901,1.0
400.2666,128.181881,37.967654,7002.6964848,-13.155,-0.26,179.897,1.0
400.2833,128.181881,37.967609,7002.7065432,-14.547,-0.268,179.894,1.0
400.3,128.181881,37.967564,7002.7181256,-15.984,-0.277,179.885,1.0
400.3166,128.181881,37.967519,7002.731232,-17.465,-0.287,179.873,1.0
400.3333,128.181881,37.967474,7002.7461672,-18.989,-0.297,179.857,1.0
400.35,128.181882,37.967429,7002.7626264,-20.558,-0.307,179.84,1.0
400.3666,128.181882,37.967384,7002.7803048000005,-22.172,-0.316,179.822,1.0
400.3833,128.181882,37.967339,7002.7992024,-23.828,-0.326,179.804,1.0
400.4,128.181882,37.967294,7002.819014400001,-25.447,-0.321,179.786,1.0
400.4166,128.181882,37.967249,7002.839436,-27.02,-0.289,179.763,1.0
400.4333,128.181882,37.967204,7002.8604672,-28.549,-0.22,179.724,1.0
400.45,128.181883,37.967159,7002.882412800001,-30.036,-0.106,179.661,1.0
400.4666,128.181883,37.967114,7002.905272800001,-31.485,0.06,179.566,1.0
400.4833,128.181883,37.967069,7002.9287424,-32.901,0.285,179.431,1.0
400.5,128.181884,37.967024,7002.9531264,-34.191,0.579,179.26,1.0
400.5166,128.181884,37.966979,7002.9787295999995,-35.36,0.937,179.053,1.0
400.5333,128.181884,37.966934,7003.005247200001,-36.42,1.345,178.81,1.0
400.55,128.181885,37.966889,7003.0332888,-37.38,1.789,178.536,1.0
400.5666,128.181885,37.966844,7003.0628544,-38.252,2.253,178.234,1.0
400.5833,128.181886,37.966799,7003.0936392,-39.05,2.722,177.915,1.0
400.6,128.181886,37.966754,7003.1262528,-39.743,3.183,177.59,1.0
400.6166,128.181887,37.966709,7003.1603904,-40.344,3.624,177.271,1.0
400.6333,128.181887,37.966664,7003.1975760000005,-40.867,4.036,176.964,1.0
400.65,128.181888,37.966619,7003.2378096,-41.325,4.419,176.67,1.0
400.6666,128.181889,37.966573,7003.282005600001,-41.728,4.773,176.39,1.0
400.6833,128.181889,37.966528,7003.330164000001,-42.087,5.102,176.122,1.0
400.7,128.18189,37.966483,7003.3822848,-42.403,5.407,175.866,1.0
400.7166,128.181891,37.966438,7003.438977600001,-42.682,5.691,175.624,1.0
400.7333,128.181892,37.966393,7003.500547200001,-42.932,5.955,175.393,1.0
400.75,128.181893,37.966348,7003.5669935999995,-43.158,6.202,175.173,1.0
400.7666,128.181894,37.966303,7003.6389264,-43.365,6.433,174.963,1.0
400.7833,128.181896,37.966258,7003.7160408,-43.555,6.649,174.762,1.0
400.8,128.181897,37.966213,7003.7989464,-43.732,6.852,174.571,1.0
400.8166,128.181898,37.966168,7003.887338400001,-43.896,7.043,174.387,1.0
400.8333,128.1819,37.966122,7003.9818264000005,-44.05,7.223,174.212,1.0
400.85,128.181901,37.966077,7004.081800800001,-44.197,7.394,174.042,1.0
400.8666,128.181903,37.966032,7004.188176,-44.337,7.556,173.879,1.0
400.8833,128.181905,37.965987,7004.300647200001,-44.472,7.711,173.722,1.0
400.9,128.181907,37.965942,7004.418909600001,-44.602,7.858,173.57,1.0
400.9166,128.181909,37.965897,7004.5438776,-44.728,7.999,173.422,1.0
400.9333,128.181911,37.965852,7004.6746368,-44.851,8.134,173.278,1.0
400.95,128.181913,37.965807,7004.8121016000005,-44.971,8.264,173.138,1.0
400.9666,128.181915,37.965762,7004.9556624,-45.09,8.389,173.001,1.0
400.9833,128.181917,37.965717,7005.105928800001,-45.207,8.51,172.867,1.0
401.0,128.18192,37.965672,7005.2625960000005,-45.315,8.624,172.732,1.0
401.0166,128.181922,37.965627,7005.4259688,-45.415,8.731,172.596,1.0
401.0333,128.181925,37.965582,7005.595742400001,-45.51,8.831,172.459,1.0
401.05,128.181927,37.965537,7005.7722216,-45.603,8.927,172.323,1.0
401.0666,128.18193,37.965492,7005.9551016000005,-45.695,9.02,172.187,1.0
401.0833,128.181933,37.965447,7006.144687200001,-45.789,9.11,172.052,1.0
401.1,128.181936,37.965402,7006.340673600001,-45.884,9.197,171.919,1.0
401.1166,128.181939,37.965357,7006.5433656000005,-45.981,9.283,171.786,1.0
401.1333,128.181943,37.965312,7006.7524584,-46.078,9.367,171.655,1.0
401.15,128.181946,37.965267,7006.967952000001,-46.178,9.449,171.525,1.0
401.1666,128.181949,37.965222,7007.1901512,-46.278,9.53,171.396,1.0
401.1833,128.181953,37.965177,7007.418751200001,-46.379,9.61,171.268,1.0
401.2,128.181956,37.965132,7007.6549712,-46.563,9.673,171.145,1.0
401.2166,128.18196,37.965087,7007.897896800001,-46.826,9.711,171.037,1.0
401.2333,128.181964,37.965043,7008.147528,-47.167,9.717,170.956,1.0
401.25,128.181968,37.964998,7008.4041696,-47.584,9.684,170.913,1.0
401.2666,128.181972,37.964953,7008.667212,-48.076,9.604,170.918,1.0
401.2833,128.181976,37.964908,7008.9363504,-48.64,9.472,170.982,1.0
401.3,128.18198,37.964863,7009.2121944,-49.278,9.299,171.091,1.0
401.3166,128.181985,37.964818,7009.4938296,-49.99,9.097,171.235,1.0
401.3333,128.181989,37.964774,7009.781865600001,-50.778,8.879,171.401,1.0
401.35,128.181994,37.964729,7010.075388000001,-51.645,8.656,171.576,1.0
401.3666,128.181998,37.964684,7010.3737872,-52.59,8.436,171.749,1.0
401.3833,128.182003,37.964639,7010.6767584,-53.616,8.225,171.916,1.0
401.4,128.182008,37.964595,7010.9843016,-54.722,8.022,172.075,1.0
401.4166,128.182013,37.96455,7011.2955024,-55.907,7.83,172.226,1.0
401.4333,128.182018,37.964505,7011.610056,-57.172,7.648,172.368,1.0
401.45,128.182023,37.964461,7011.9273528,-58.513,7.476,172.502,1.0
401.4666,128.182029,37.964416,7012.247697600001,-59.931,7.314,172.628,1.0
401.4833,128.182034,37.964371,7012.5698712,-61.424,7.161,172.745,1.0
401.5,128.182039,37.964327,7012.894178400001,-62.99,7.018,172.856,1.0
401.5166,128.182045,37.964282,7013.219704800001,-64.628,6.883,172.959,1.0
401.5333,128.182051,37.964237,7013.5464504,-66.335,6.757,173.055,1.0
401.55,128.182056,37.964193,7013.874415200001,-68.111,6.639,173.144,1.0
401.5666,128.182062,37.964148,7014.2026848,-69.953,6.528,173.227,1.0
401.5833,128.182068,37.964103,7014.5309544,-71.859,6.423,173.304,1.0
401.6,128.182074,37.964059,7014.859528800001,-73.827,6.325,173.375,1.0
401.6166,128.18208,37.964014,7015.1874935999995,-75.856,6.233,173.44,1.0
401.6333,128.182086,37.96397,7015.5148488,-77.943,6.147,173.5,1.0
401.65,128.182092,37.963925,7015.8415944,-80.086,6.065,173.555,1.0
401.6666,128.182098,37.96388,7016.1671208,-82.284,5.989,173.605,1.0
401.6833,128.182104,37.963836,7016.4911232,-84.534,5.916,173.65,1.0
401.7,128.182111,37.963791,7016.813601600001,-86.834,5.847,173.69,1.0
401.7166,128.182117,37.963747,7017.134251200001,-89.181,5.782,173.726,1.0
401.7333,128.182123,37.963702,7017.453072,-91.575,5.72,173.758,1.0
401.75,128.18213,37.963658,7017.7694544000005,-94.012,5.66,173.786,1.0
401.7666,128.182136,37.963613,7018.0837032,-96.492,5.603,173.81,1.0
401.7833,128.182143,37.963568,7018.394904,-99.013,5.548,173.831,1.0
401.8,128.18215,37.963524,7018.7036664,-101.575,5.491,173.834,1.0
401.8166,128.182156,37.963479,7019.009076,-104.176,5.431,173.816,1.0
401.8333,128.182163,37.963435,7019.3114376,-106.816,5.367,173.779,1.0
401.85,128.18217,37.96339,7019.610446400001,-109.491,5.3,173.73,1.0
401.8666,128.182177,37.963346,7019.905797600001,-112.199,5.229,173.674,1.0
401.8833,128.182183,37.963301,7020.1974912000005,-114.937,5.155,173.613,1.0
401.9,128.18219,37.963256,7020.4849176,-117.703,5.072,173.536,1.0
401.9166,128.182197,37.963212,7020.7680768,-120.496,4.971,173.433,1.0
401.9333,128.182204,37.963167,7021.0469688,-123.313,4.85,173.303,1.0
401.95,128.182211,37.963123,7021.320679200001,-126.152,4.71,173.155,1.0
401.9666,128.182218,37.963078,7021.5895128,-129.007,4.555,172.997,1.0
401.9833,128.182226,37.963034,7021.853164800001,-131.875,4.388,172.836,1.0
402.0,128.182233,37.962989,7022.1107208,-134.754,4.2,172.664,1.0
402.0166,128.18224,37.962945,7022.3621808,-137.64,3.981,172.476,1.0
402.0333,128.182247,37.9629,7022.6069352,-140.531,3.727,172.272,1.0
402.05,128.182255,37.962855,7022.8446792,-143.422,3.445,172.062,1.0
402.0666,128.182262,37.962811,7023.0748032,-146.311,3.142,171.855,1.0
402.0833,128.18227,37.962766,7023.2973071999995,-149.194,2.823,171.656,1.0
402.1,128.182277,37.962722,7023.5112768,-152.063,2.478,171.46,1.0
402.1166,128.182285,37.962677,7023.7161024,-154.917,2.095,171.265,1.0
402.1333,128.182292,37.962633,7023.911174400001,-157.757,1.672,171.075,1.0
402.15,128.1823,37.962588,7024.096188,-160.583,1.222,170.896,1.0
402.1666,128.182308,37.962544,7024.270228800001,-163.397,0.755,170.735,1.0
402.1833,128.182315,37.962499,7024.433296800001,-166.2,0.281,170.597,1.0
402.2,128.182323,37.962455,7024.585087200001,-168.806,-0.2,170.469,1.0
402.2166,128.182331,37.96241,7024.7259048000005,-171.222,-0.686,170.353,1.0
402.2333,128.182339,37.962365,7024.855140000001,-173.452,-1.171,170.252,1.0
402.25,128.182346,37.962321,7024.9734024,-175.497,-1.65,170.172,1.0
402.2666,128.182354,37.962276,7025.080082400001,-177.363,-2.119,170.112,1.0
402.2833,128.182362,37.962232,7025.1757896,-179.073,-2.578,170.074,1.0
402.3,128.18237,37.962187,7025.2599144000005,179.379,-3.023,170.055,1.0
402.3166,128.182378,37.962143,7025.3330664,177.986,-3.456,170.054,1.0
402.3333,128.182386,37.962098,7025.394940800001,176.738,-3.874,170.068,1.0
402.35,128.182394,37.962053,7025.4458424,175.628,-4.277,170.095,1.0
402.3666,128.182402,37.962009,7025.486076,174.649,-4.667,170.134,1.0
402.3833,128.18241,37.961964,7025.515032,173.792,-5.042,170.183,1.0
402.4,128.182418,37.96192,7025.533624800001,173.052,-5.403,170.24,1.0
402.4166,128.182425,37.961875,7025.5415496000005,172.416,-5.749,170.304,1.0
402.4333,128.182433,37.96183,7025.538806400001,171.867,-6.083,170.373,1.0
402.45,128.182441,37.961786,7025.5253952,171.392,-6.402,170.449,1.0
402.4666,128.182449,37.961741,7025.4997920000005,170.979,-6.709,170.528,1.0
402.4833,128.182457,37.961696,7025.4623016000005,170.618,-7.004,170.612,1.0
402.5,128.182465,37.961652,7025.4144479999995,170.319,-7.287,170.697,1.0
402.5166,128.182473,37.961607,7025.354097600001,170.075,-7.558,170.782,1.0
402.5333,128.182481,37.961562,7025.2815552,169.877,-7.82,170.868,1.0
402.55,128.182489,37.961518,7025.196516,169.721,-8.072,170.954,1.0
402.5666,128.182496,37.961473,7025.0986752,169.6,-8.315,171.04,1.0
402.5833,128.182504,37.961428,7024.988032800001,169.508,-8.549,171.127,1.0
402.6,128.182512,37.961383,7024.8655032,169.458,-8.776,171.211,1.0
402.6166,128.18252,37.961339,7024.7298672,169.443,-8.996,171.294,1.0
402.6333,128.182528,37.961294,7024.581124800001,169.461,-9.209,171.376,1.0
402.65,128.182536,37.961249,7024.419276,169.508,-9.417,171.456,1.0
402.6666,128.182543,37.961205,7024.244016,169.579,-9.618,171.535,1.0
402.6833,128.182551,37.96116,7024.0553448,169.672,-9.815,171.612,1.0
402.7,128.182559,37.961115,7023.8541768000005,169.785,-10.009,171.683,1.0
402.7166,128.182566,37.96107,7023.638988000001,169.915,-10.199,171.746,1.0
402.7333,128.182574,37.961026,7023.4100832,170.062,-10.386,171.804,1.0
402.75,128.182582,37.960981,7023.1677672000005,170.228,-10.57,171.858,1.0
402.7666,128.182589,37.960936,7022.9117352,170.41,-10.752,171.908,1.0
402.7833,128.182597,37.960892,7022.641682400001,170.609,-10.93,171.956,1.0
402.8,128.182605,37.960847,7022.357913600001,170.823,-11.107,172.002,1.0
402.8166,128.182612,37.960802,7022.059819200001,171.051,-11.281,172.047,1.0
402.8333,128.18262,37.960757,7021.747704,171.291,-11.453,172.089,1.0
402.85,128.182627,37.960713,7021.421568000001,171.542,-11.623,172.13,1.0
402.8666,128.182635,37.960668,7021.081106400001,171.804,-11.792,172.169,1.0
402.8833,128.182643,37.960623,7020.726319200001,172.074,-11.96,172.207,1.0
402.9,128.18265,37.960579,7020.3565968,172.347,-12.126,172.243,1.0
402.9166,128.182658,37.960534,7019.9725488,172.622,-12.292,172.278,1.0
402.9333,128.182665,37.960489,7019.5738704000005,172.9,-12.456,172.312,1.0
402.95,128.182673,37.960445,7019.1605616,173.178,-12.62,172.344,1.0
402.9666,128.18268,37.9604,7018.732927200001,173.459,-12.783,172.374,1.0
402.9833,128.182687,37.960355,7018.2903576,173.741,-12.946,172.403,1.0
403.0,128.182695,37.960311,7017.8322431999995,174.019,-13.109,172.431,1.0
403.0166,128.182702,37.960266,7017.3598032,174.293,-13.271,172.459,1.0
403.0333,128.18271,37.960221,7016.872123200001,174.562,-13.433,172.486,1.0
403.05,128.182717,37.960177,7016.369812800001,174.827,-13.595,172.512,1.0
403.0666,128.182724,37.960132,7015.8525672000005,175.089,-13.758,172.536,1.0
403.0833,128.182732,37.960087,7015.320386400001,175.349,-13.92,172.559,1.0
403.1,128.182739,37.960043,7014.772356,175.601,-14.082,172.582,1.0
403.1166,128.182746,37.959998,7014.21,175.847,-14.245,172.606,1.0
403.1333,128.182754,37.959954,7013.6320992,176.087,-14.408,172.63,1.0
403.15,128.182761,37.959909,7013.0392632,176.321,-14.571,172.653,1.0
403.1666,128.182768,37.959865,7012.431492000001,176.55,-14.734,172.675,1.0
403.1833,128.182776,37.95982,7011.8087856,176.774,-14.898,172.695,1.0
403.2,128.182783,37.959776,7011.1705344,176.99,-15.062,172.716,1.0
403.2166,128.18279,37.959731,7010.5170431999995,177.2,-15.226,172.738,1.0
403.2333,128.182798,37.959687,7009.8486168,177.403,-15.391,172.759,1.0
403.25,128.182805,37.959642,7009.164950400001,177.6,-15.556,172.78,1.0
403.2666,128.182812,37.959598,7008.4663488,177.792,-15.722,172.8,1.0
403.2833,128.182819,37.959553,7007.752812,177.98,-15.888,172.818,1.0
403.3,128.182827,37.959509,7007.0234256,178.16,-16.054,172.837,1.0
403.3166,128.182834,37.959464,7006.2794088,178.334,-16.221,172.854,1.0
403.3333,128.182841,37.95942,7005.520152000001,178.502,-16.388,172.871,1.0
403.35,128.182848,37.959376,7004.7456552,178.665,-16.555,172.887,1.0
403.3666,128.182855,37.959331,7003.956223200001,178.825,-16.723,172.902,1.0
403.3833,128.182863,37.959287,7003.151856,178.981,-16.891,172.916,1.0
403.4,128.18287,37.959243,7002.331944,179.132,-17.059,172.928,1.0
403.4166,128.182877,37.959198,7001.497096800001,179.278,-17.228,172.94,1.0
403.4333,128.182884,37.959154,7000.6470096,179.42,-17.396,172.951,1.0
403.45,128.182891,37.95911,6999.782292000001,179.56,-17.566,172.962,1.0
403.4666,128.182899,37.959066,6998.9020296,179.696,-17.735,172.971,1.0
403.4833,128.182906,37.959021,6998.007136800001,179.831,-17.904,172.979,1.0
403.5,128.182913,37.958977,6997.0966992,179.956,-18.074,172.981,1.0
403.5166,128.18292,37.958933,6996.1713264,-179.926,-18.244,172.976,1.0
403.5333,128.182927,37.958889,6995.231323200001,-179.816,-18.414,172.967,1.0
403.55,128.182934,37.958845,6994.2757752,-179.707,-18.584,172.955,1.0
403.5666,128.182942,37.958801,6993.305596800001,-179.6,-18.754,172.941,1.0
403.5833,128.182949,37.958757,6992.320483200001,-179.492,-18.925,172.925,1.0
403.6,128.182956,37.958712,6991.3201296,-179.384,-19.095,172.908,1.0
403.6166,128.182963,37.958668,6990.3048408,-179.276,-19.265,172.891,1.0
403.6333,128.18297,37.958624,6989.2746168,-179.168,-19.436,172.873,1.0
403.65,128.182977,37.95858,6988.2294576,-179.06,-19.606,172.855,1.0
403.6666,128.182984,37.958536,6987.169363200001,-178.952,-19.776,172.837,1.0
403.6833,128.182992,37.958492,6986.094028800001,-178.843,-19.947,172.818,1.0
403.7,128.182999,37.958448,6985.003759200001,-178.736,-20.117,172.8,1.0
403.7166,128.183006,37.958405,6983.898554400001,-178.631,-20.287,172.781,1.0
403.7333,128.183013,37.958361,6982.778109600001,-178.528,-20.458,172.762,1.0
403.75,128.18302,37.958317,6981.6427296,-178.426,-20.628,172.743,1.0
403.7666,128.183027,37.958273,6980.492414400001,-178.325,-20.798,172.723,1.0
403.7833,128.183034,37.958229,6979.327164,-178.225,-20.968,172.703,1.0
403.8,128.183041,37.958185,6978.146978400001,-178.128,-21.138,172.683,1.0
403.8166,128.183049,37.958142,6976.9515528,-178.034,-21.309,172.663,1.0
403.8333,128.183056,37.958098,6975.741192,-177.941,-21.479,172.643,1.0
403.85,128.183063,37.958054,6974.515896000001,-177.851,-21.649,172.622,1.0
403.8666,128.18307,37.958011,6973.2756648,-177.762,-21.819,172.601,1.0
403.8833,128.183077,37.957967,6972.0204984,-177.675,-21.989,172.58,1.0
403.9,128.183084,37.957923,6970.750092,-177.591,-22.159,172.559,1.0
403.9166,128.183091,37.95788,6969.4650552,-177.509,-22.329,172.537,1.0
403.9333,128.183098,37.957836,6968.164778400001,-177.43,-22.499,172.516,1.0
403.95,128.183106,37.957793,6966.8495664,-177.352,-22.669,172.494,1.0
403.9666,128.183113,37.957749,6965.519724000001,-177.276,-22.839,172.472,1.0
403.9833,128.18312,37.957706,6964.1749464,-177.202,-23.009,172.45,1.0
404.0,128.183127,37.957662,6962.8149288,-177.131,-23.179,172.428,1.0
404.0166,128.183134,37.957619,6961.4402808,-177.061,-23.348,172.405,1.0
404.0333,128.183141,37.957575,6960.050697600001,-176.993,-23.518,172.383,1.0
404.05,128.183148,37.957532,6958.646179200001,-176.928,-23.688,172.36,1.0
404.0666,128.183155,37.957489,6957.2267256,-176.864,-23.857,172.338,1.0
404.0833,128.183163,37.957446,6955.7923368,-176.801,-24.027,172.315,1.0
404.1,128.18317,37.957402,6954.3433176,-176.74,-24.196,172.292,1.0
404.1166,128.183177,37.957359,6952.879363200001,-176.681,-24.366,172.269,1.0
404.1333,128.183184,37.957316,6951.400473600001,-176.624,-24.535,172.246,1.0
404.15,128.183191,37.957273,6949.9069536,-176.569,-24.704,172.223,1.0
404.1666,128.183198,37.95723,6948.3984984,-176.514,-24.874,172.199,1.0
404.1833,128.183205,37.957187,6946.875108,-176.461,-25.043,172.176,1.0
404.2,128.183213,37.957144,6945.3370872000005,-176.41,-25.212,172.152,1.0
404.2166,128.18322,37.957101,6943.784436,-176.36,-25.381,172.129,1.0
404.2333,128.183227,37.957058,6942.2165448000005,-176.312,-25.55,172.106,1.0
404.25,128.183234,37.957015,6940.634328,-176.265,-25.718,172.082,1.0
404.2666,128.183241,37.956972,6939.037176,-176.22,-25.887,172.058,1.0
404.2833,128.183248,37.956929,6937.4253936,-176.175,-26.056,172.035,1.0
404.3,128.183256,37.956886,6935.798676,-176.132,-26.224,172.011,1.0
404.3166,128.183263,37.956843,6934.157328,-176.09,-26.393,171.987,1.0
404.3333,128.18327,37.956801,6932.5013496,-176.049,-26.561,171.964,1.0
404.35,128.183277,37.956758,6930.8307408,-176.01,-26.729,171.94,1.0
404.3666,128.183284,37.956715,6929.145196800001,-175.971,-26.898,171.916,1.0
404.3833,128.183291,37.956673,6927.4453272,-175.933,-27.066,171.893,1.0
404.4,128.183299,37.95663,6925.7305224,-175.897,-27.234,171.869,1.0
404.4166,128.183306,37.956587,6924.0010872,-175.862,-27.402,171.845,1.0
404.4333,128.183313,37.956545,6922.2570216,-175.828,-27.569,171.821,1.0
404.45,128.18332,37.956502,6920.4983256,-175.794,-27.737,171.798,1.0
404.4666,128.183327,37.95646,6918.7253040000005,-175.762,-27.905,171.774,1.0
404.4833,128.183335,37.956418,6916.937347200001,-175.731,-28.072,171.75,1.0
404.5,128.183342,37.956375,6915.134760000001,-175.7,-28.239,171.727,1.0
404.5166,128.183349,37.956333,6913.317847200001,-175.671,-28.407,171.703,1.0
404.5333,128.183356,37.956291,6911.486304,-175.642,-28.574,171.679,1.0
404.55,128.183363,37.956248,6909.6401304,-175.614,-28.741,171.656,1.0
404.5666,128.183371,37.956206,6907.7793264,-175.587,-28.907,171.632,1.0
404.5833,128.183378,37.956164,6905.904196800001,-175.561,-29.074,171.609,1.0
404.6,128.183385,37.956122,6904.0144368,-175.536,-29.241,171.585,1.0
404.6166,128.183392,37.95608,6902.110046400001,-175.511,-29.407,171.562,1.0
404.6333,128.1834,37.956038,6900.1913304,-175.488,-29.574,171.538,1.0
404.65,128.183407,37.955996,6898.2582888,-175.465,-29.74,171.515,1.0
404.6666,128.183414,37.955954,6896.3106168,-175.442,-29.906,171.491,1.0
404.6833,128.183421,37.955912,6894.3483144,-175.421,-30.073,171.468,1.0
404.7,128.183429,37.95587,6892.371686400001,-175.4,-30.239,171.445,1.0
404.7166,128.183436,37.955828,6890.3807328,-175.38,-30.405,171.421,1.0
404.7333,128.183443,37.955787,6888.3754536,-175.36,-30.57,171.398,1.0
404.75,128.18345,37.955745,6886.355544,-175.342,-30.736,171.375,1.0
404.7666,128.183458,37.955703,6884.3213088,-175.324,-30.902,171.352,1.0
404.7833,128.183465,37.955662,6882.272747999999,-175.306,-31.067,171.329,1.0
404.8,128.183472,37.95562,6880.2098616,-175.289,-31.233,171.306,1.0
404.8166,128.183479,37.955579,6878.1326496,-175.273,-31.398,171.283,1.0
404.8333,128.183487,37.955537,6876.041112,-175.257,-31.563,171.26,1.0
404.85,128.183494,37.955496,6873.9352488,-175.242,-31.729,171.237,1.0
404.8666,128.183501,37.955454,6871.815060000001,-175.228,-31.894,171.214,1.0
404.8833,128.183508,37.955413,6869.6805456,-175.214,-32.059,171.191,1.0
404.9,128.183516,37.955372,6867.5317056,-175.2,-32.223,171.169,1.0
404.9166,128.183523,37.955331,6865.3688448,-175.187,-32.388,171.146,1.0
404.9333,128.18353,37.955289,6863.1913536,-175.175,-32.553,171.124,1.0
404.95,128.183538,37.955248,6860.999841600001,-175.163,-32.718,171.102,1.0
404.9666,128.183545,37.955207,6858.7943088,-175.151,-32.882,171.08,1.0
404.9833,128.183552,37.955166,6856.5744504,-175.14,-33.047,171.058,1.0
405.0,128.18356,37.955125,6854.3402664,-175.13,-33.211,171.036,1.0
405.0166,128.183567,37.955084,6852.092061599999,-175.12,-33.375,171.014,1.0
405.0333,128.183574,37.955043,6849.8295312,-175.11,-33.54,170.992,1.0
405.05,128.183581,37.955002,6847.5529799999995,-175.101,-33.704,170.97,1.0
405.0666,128.183589,37.954962,6845.2624080000005,-175.092,-33.868,170.949,1.0
405.0833,128.183596,37.954921,6842.9575104000005,-175.084,-34.032,170.927,1.0
405.1,128.183603,37.95488,6840.638896800001,-175.076,-34.196,170.906,1.0
405.1166,128.183611,37.95484,6838.3056528,-175.069,-34.36,170.884,1.0
405.1333,128.183618,37.954799,6835.958692800001,-175.062,-34.523,170.863,1.0
405.15,128.183625,37.954758,6833.597712,-175.056,-34.687,170.841,1.0
405.1666,128.183633,37.954718,6831.2227104,-175.05,-34.851,170.82,1.0
405.1833,128.18364,37.954678,6828.833688000001,-175.044,-35.014,170.799,1.0
405.2,128.183647,37.954637,6826.4306448,-175.038,-35.178,170.777,1.0
405.2166,128.183655,37.954597,6824.0135808,-175.033,-35.341,170.756,1.0
405.2333,128.183662,37.954557,6821.582496000001,-175.028,-35.504,170.735,1.0
405.25,128.183669,37.954516,6819.1376952,-175.023,-35.668,170.714,1.0
405.2666,128.183677,37.954476,6816.678568800001,-175.018,-35.831,170.693,1.0
405.2833,128.183684,37.954436,6814.2060312,-175.014,-35.994,170.672,1.0
405.3,128.183692,37.954396,6811.7194728,-175.011,-36.143,170.653,1.0
405.3166,128.183699,37.954356,6809.2191984,-175.008,-36.279,170.636,1.0
405.3333,128.183706,37.954316,6806.7055128,-175.006,-36.406,170.62,1.0
405.35,128.183714,37.954276,6804.177806400001,-175.005,-36.527,170.604,1.0
405.3666,128.183721,37.954237,6801.6366888,-175.004,-36.645,170.589,1.0
405.3833,128.183728,37.954197,6799.082160000001,-175.004,-36.762,170.575,1.0
405.4,128.183736,37.954157,6796.514220000001,-175.004,-36.865,170.562,1.0
405.4166,128.183743,37.954117,6793.9331736,-175.006,-36.95,170.551,1.0
405.4333,128.18375,37.954078,6791.3390208,-175.009,-37.023,170.542,1.0
405.45,128.183758,37.954038,6788.7317616,-175.012,-37.09,170.533,1.0
405.4666,128.183765,37.953999,6786.1117008,-175.015,-37.154,170.525,1.0
405.4833,128.183773,37.953959,6783.4785336,-175.019,-37.219,170.517,1.0
405.5,128.18378,37.95392,6780.832869600001,-175.023,-37.274,170.51,1.0
405.5166,128.183787,37.953881,6778.1747088,-175.028,-37.319,170.505,1.0
405.5333,128.183795,37.953841,6775.5040512000005,-175.034,-37.36,170.499,1.0
405.55,128.183802,37.953802,6772.820896800001,-175.039,-37.4,170.495,1.0
405.5666,128.183809,37.953763,6770.1255504,-175.044,-37.441,170.489,1.0
405.5833,128.183817,37.953724,6767.4183168,-175.05,-37.486,170.484,1.0
405.6,128.183824,37.953685,6764.698891200001,-175.055,-37.528,170.479,1.0
405.6166,128.183832,37.953646,6761.967578400001,-175.061,-37.568,170.474,1.0
405.6333,128.183839,37.953606,6759.224683200001,-175.066,-37.607,170.47,1.0
405.65,128.183846,37.953568,6756.469900800001,-175.071,-37.649,170.465,1.0
405.6666,128.183854,37.953529,6753.703536,-175.076,-37.694,170.459,1.0
405.6833,128.183861,37.95349,6750.9255888,-175.081,-37.742,170.454,1.0
405.7,128.183869,37.953451,6748.136364000001,-175.086,-37.79,170.448,1.0
405.7166,128.183876,37.953412,6745.3358616,-175.09,-37.835,170.443,1.0
405.7333,128.183883,37.953373,6742.5240816000005,-175.095,-37.882,170.438,1.0
405.75,128.183891,37.953335,6739.701328800001,-175.099,-37.93,170.432,1.0
405.7666,128.183898,37.953296,6736.8672983999995,-175.103,-37.98,170.426,1.0
405.7833,128.183906,37.953257,6734.0222952,-175.106,-38.035,170.42,1.0
405.8,128.183913,37.953219,6731.1663192000005,-175.109,-38.086,170.414,1.0
405.8166,128.18392,37.95318,6728.2996752,-175.112,-38.134,170.409,1.0
405.8333,128.183928,37.953142,6725.422668,-175.114,-38.181,170.403,1.0
405.85,128.183935,37.953103,6722.534688000001,-175.116,-38.229,170.398,1.0
405.8666,128.183943,37.953065,6719.6363448,-175.118,-38.278,170.392,1.0
405.8833,128.18395,37.953026,6716.727638400001,-175.119,-38.331,170.386,1.0
405.9,128.183957,37.952988,6713.808264,-175.118,-38.396,170.379,1.0
405.9166,128.183965,37.95295,6710.8785264,-175.116,-38.473,170.37,1.0
405.9333,128.183972,37.952911,6707.9384256,-175.112,-38.56,170.36,1.0
405.95,128.18398,37.952873,6704.9879616,-175.106,-38.653,170.35,1.0
405.9666,128.183987,37.952835,6702.0274392,-175.1,-38.752,170.339,1.0
405.9833,128.183995,37.952797,6699.0562488,-175.093,-38.853,170.327,1.0
406.0,128.184002,37.952759,6696.075304800001,-175.084,-38.945,170.317,1.0
406.0166,128.184009,37.952721,6693.0843024,-175.072,-39.028,170.307,1.0
406.0333,128.184017,37.952683,6690.0829368,-175.059,-39.105,170.298,1.0
406.05,128.184024,37.952645,6687.0718176,-175.044,-39.177,170.289,1.0
406.0666,128.184032,37.952607,6684.0503352,-175.028,-39.249,170.281,1.0
406.0833,128.184039,37.952569,6681.0190992,-175.01,-39.321,170.272,1.0
406.1,128.184046,37.952531,6677.9787192,-174.985,-39.379,170.265,1.0
406.1166,128.184054,37.952493,6674.928585600001,-174.954,-39.425,170.259,1.0
406.1333,128.184061,37.952455,6671.8686984,-174.915,-39.463,170.253,1.0
406.15,128.184069,37.952417,6668.7993624,-174.872,-39.498,170.248,1.0
406.1666,128.184076,37.95238,6665.7205776,-174.823,-39.533,170.242,1.0
406.1833,128.184084,37.952342,6662.6326488,-174.771,-39.569,170.237,1.0
406.2,128.184091,37.952304,6659.535576,-174.709,-39.599,170.232,1.0
406.2166,128.184099,37.952266,6656.429664,-174.64,-39.623,170.228,1.0
406.2333,128.184106,37.952229,6653.314608,-174.563,-39.644,170.224,1.0
406.25,128.184113,37.952191,6650.190408,-174.48,-39.665,170.22,1.0
406.2666,128.184121,37.952154,6647.0573688,-174.392,-39.687,170.215,1.0
406.2833,128.184128,37.952116,6643.9157952000005,-174.299,-39.713,170.211,1.0
406.3,128.184136,37.952079,6640.765382400001,-174.202,-39.737,170.207,1.0
406.3166,128.184143,37.952041,6637.6064352,-174.101,-39.761,170.203,1.0
406.3333,128.184151,37.952004,6634.4386488,-173.998,-39.784,170.199,1.0
406.35,128.184158,37.951966,6631.262632800001,-173.891,-39.81,170.195,1.0
406.3666,128.184166,37.951929,6628.0777776,-173.783,-39.838,170.191,1.0
406.3833,128.184173,37.951891,6624.884997600001,-173.673,-39.869,170.186,1.0
406.4,128.184181,37.951854,6621.683683200001,-173.56,-39.898,170.181,1.0
406.4166,128.184188,37.951817,6618.4741392,-173.445,-39.927,170.176,1.0
406.4333,128.184196,37.951779,6615.256670400001,-173.328,-39.956,170.172,1.0
406.45,128.184203,37.951742,6612.0306672,-173.209,-39.986,170.167,1.0
406.4666,128.18421,37.951705,6608.797044,-173.089,-40.018,170.162,1.0
406.4833,128.184218,37.951668,6605.5551912,-172.968,-40.053,170.156,1.0
406.5,128.184225,37.951631,6602.3057184,-172.838,-40.083,170.151,1.0
406.5166,128.184233,37.951593,6599.0486256,-172.701,-40.109,170.145,1.0
406.5333,128.18424,37.951556,6595.783608,-172.557,-40.133,170.14,1.0
406.55,128.184248,37.951519,6592.5112752,-172.406,-40.157,170.134,1.0
406.5666,128.184255,37.951482,6589.2310176,-172.25,-40.182,170.129,1.0
406.5833,128.184263,37.951445,6585.94314,-172.09,-40.209,170.123,1.0
406.6,128.184271,37.951408,6582.647642400001,-171.94,-40.227,170.119,1.0
406.6166,128.184278,37.951371,6579.344220000001,-171.801,-40.238,170.119,1.0
406.6333,128.184286,37.951334,6576.033787200001,-171.671,-40.243,170.119,1.0
406.65,128.184293,37.951297,6572.7157344,-171.549,-40.247,170.12,1.0
406.6666,128.184301,37.95126,6569.3903664,-171.433,-40.251,170.121,1.0
406.6833,128.184308,37.951223,6566.057683200001,-171.322,-40.258,170.121,1.0
406.7,128.184316,37.951186,6562.718904,-171.204,-40.251,170.122,1.0
406.7166,128.184323,37.951149,6559.3731144,-171.078,-40.232,170.125,1.0
406.7333,128.184331,37.951112,6556.0206192000005,-170.945,-40.204,170.128,1.0
406.75,128.184338,37.951075,6552.6614184,-170.805,-40.174,170.132,1.0
406.7666,128.184346,37.951038,6549.2958168,-170.658,-40.144,170.136,1.0
406.7833,128.184354,37.951001,6545.9238144,-170.506,-40.118,170.14,1.0
406.8,128.184361,37.950965,6542.544801600001,-170.36,-40.11,170.141,1.0
406.8166,128.184369,37.950928,6539.159083200001,-170.221,-40.121,170.139,1.0
406.8333,128.184376,37.950891,6535.766964,-170.087,-40.146,170.135,1.0
406.85,128.184384,37.950854,6532.368444,-169.96,-40.18,170.129,1.0
406.8666,128.184391,37.950817,6528.9632184,-169.838,-40.22,170.121,1.0
406.8833,128.184399,37.950781,6525.551592000001,-169.72,-40.263,170.112,1.0
406.9,128.184407,37.950744,6522.1335648,-169.607,-40.309,170.102,1.0
406.9166,128.184414,37.950707,6518.7091368,-169.497,-40.356,170.091,1.0
406.9333,128.184422,37.95067,6515.2786128,-169.391,-40.404,170.081,1.0
406.95,128.18443,37.950634,6511.841383200001,-169.286,-40.452,170.069,1.0
406.9666,128.184437,37.950597,6508.3980576,-169.184,-40.502,170.058,1.0
406.9833,128.184445,37.95056,6504.9483312,-169.083,-40.552,170.045,1.0
407.0,128.184452,37.950524,6501.4918992,-169.006,-40.586,170.038,1.0
407.0166,128.18446,37.950487,6498.0293712,-168.954,-40.591,170.041,1.0
407.0333,128.184468,37.95045,6494.561052000001,-168.924,-40.569,170.05,1.0
407.05,128.184475,37.950414,6491.086332000001,-168.912,-40.532,170.063,1.0
407.0666,128.184483,37.950377,6487.6058207999995,-168.913,-40.487,170.077,1.0
407.0833,128.184491,37.95034,6484.119518400001,-168.924,-40.441,170.092,1.0
407.1,128.184498,37.950304,6480.627424800001,-168.944,-40.397,170.105,1.0
407.1166,128.184506,37.950267,6477.12954,-168.971,-40.355,170.116,1.0
407.1333,128.184514,37.950231,6473.6264736,-169.004,-40.318,170.126,1.0
407.15,128.184522,37.950194,6470.117920799999,-169.04,-40.284,170.135,1.0
407.1666,128.184529,37.950158,6466.6041864,-169.08,-40.255,170.143,1.0
407.1833,128.184537,37.950121,6463.084965600001,-169.121,-40.229,170.149,1.0
407.2,128.184545,37.950084,6459.5614776,-169.115,-40.212,170.15,1.0
407.2166,128.184552,37.950048,6456.0331128,-169.061,-40.203,170.144,1.0
407.2333,128.18456,37.950011,6452.5007856,-168.967,-40.201,170.134,1.0
407.25,128.184568,37.949975,6448.963886400001,-168.837,-40.203,170.124,1.0
407.2666,128.184576,37.949938,6445.422415200001,-168.68,-40.208,170.115,1.0
407.2833,128.184583,37.949901,6441.8760672,-168.501,-40.216,170.106,1.0
407.3,128.184591,37.949865,6438.3248424,-168.327,-40.243,170.097,1.0
407.3166,128.184599,37.949828,6434.7681312,-168.159,-40.297,170.084,1.0
407.3333,128.184606,37.949792,6431.206238400001,-168.0,-40.37,170.067,1.0
407.35,128.184614,37.949755,6427.6394688,-167.85,-40.455,170.048,1.0
407.3666,128.184622,37.949719,6424.067212800001,-167.708,-40.544,170.026,1.0
407.3833,128.18463,37.949682,6420.4897752,-167.574,-40.635,170.004,1.0
407.4,128.184638,37.949646,6416.9065464000005,-167.472,-40.71,169.987,1.0
407.4166,128.184645,37.949609,6413.3187456000005,-167.402,-40.755,169.98,1.0
407.4333,128.184653,37.949572,6409.7254584,-167.361,-40.773,169.982,1.0
407.45,128.184661,37.949536,6406.1269896,-167.341,-40.775,169.987,1.0
407.4666,128.184669,37.949499,6402.5233392,-167.338,-40.768,169.995,1.0
407.4833,128.184677,37.949463,6398.914812,-167.347,-40.757,170.003,1.0
407.5,128.184684,37.949426,6395.3011032,-167.371,-40.746,170.009,1.0
407.5166,128.184692,37.94939,6391.6825176,-167.407,-40.737,170.015,1.0
407.5333,128.1847,37.949353,6388.0590552,-167.452,-40.729,170.019,1.0
407.55,128.184708,37.949317,6384.430716,-167.504,-40.723,170.022,1.0
407.5666,128.184716,37.94928,6380.7978048,-167.561,-40.719,170.025,1.0
407.5833,128.184723,37.949244,6377.1603216,-167.622,-40.717,170.026,1.0
407.6,128.184731,37.949207,6373.5179616,-167.687,-40.717,170.027,1.0
407.6166,128.184739,37.949171,6369.8713344,-167.755,-40.719,170.027,1.0
407.6333,128.184747,37.949134,6366.2201352,-167.824,-40.721,170.026,1.0
407.65,128.184755,37.949098,6362.564668800001,-167.894,-40.726,170.024,1.0
407.6666,128.184763,37.949061,6358.9046304,-167.966,-40.731,170.022,1.0
407.6833,128.184771,37.949025,6355.240324800001,-168.038,-40.738,170.019,1.0
407.7,128.184778,37.948988,6351.571447200001,-168.111,-40.746,170.017,1.0
407.7166,128.184786,37.948952,6347.8986072,-168.184,-40.756,170.014,1.0
407.7333,128.184794,37.948915,6344.221195200001,-168.258,-40.766,170.011,1.0
407.75,128.184802,37.948879,6340.5398208,-168.331,-40.777,170.007,1.0
407.7666,128.18481,37.948842,6336.8541792000005,-168.405,-40.789,170.003,1.0
407.7833,128.184818,37.948806,6333.1642704000005,-168.48,-40.802,170.0,1.0
407.8,128.184826,37.948769,6329.4700944,-168.554,-40.816,169.996,1.0
407.8166,128.184834,37.948733,6325.7719560000005,-168.63,-40.831,169.992,1.0
407.8333,128.184842,37.948696,6322.0695504000005,-168.705,-40.846,169.988,1.0
407.85,128.184849,37.94866,6318.3631824,-168.782,-40.862,169.984,1.0
407.8666,128.184857,37.948623,6314.6525472,-168.858,-40.879,169.98,1.0
407.8833,128.184865,37.948587,6310.9379496,-168.935,-40.896,169.975,1.0
407.9,128.184873,37.94855,6307.2193896,-169.013,-40.913,169.971,1.0
407.9166,128.184881,37.948513,6303.4965624,-169.092,-40.932,169.967,1.0
407.9333,128.184889,37.948477,6299.7697728,-169.172,-40.95,169.962,1.0
407.95,128.184897,37.94844,6296.0390208,-169.253,-40.969,169.958,1.0
407.9666,128.184905,37.948404,6292.3040016,-169.334,-40.989,169.954,1.0
407.9833,128.184913,37.948367,6288.565324800001,-169.416,-41.009,169.949,1.0
408.0,128.184921,37.948331,6284.8223808,-169.5,-41.029,169.945,1.0
408.0166,128.184929,37.948294,6281.0754744000005,-169.584,-41.05,169.941,1.0
408.0333,128.184937,37.948258,6277.324910400001,-169.67,-41.071,169.936,1.0
408.05,128.184945,37.948221,6273.570079200001,-169.757,-41.092,169.932,1.0
408.0666,128.184953,37.948184,6269.8112856,-169.845,-41.113,169.928,1.0
408.0833,128.184961,37.948148,6266.0485296,-169.934,-41.135,169.923,1.0
408.1,128.184969,37.948111,6262.282115999999,-170.024,-41.157,169.919,1.0
408.1166,128.184977,37.948075,6258.5114352,-170.116,-41.18,169.915,1.0
408.1333,128.184984,37.948038,6254.736792000001,-170.209,-41.202,169.911,1.0
408.15,128.184992,37.948002,6250.9584912,-170.303,-41.225,169.907,1.0
408.1666,128.185,37.947965,6247.176228,-170.398,-41.248,169.902,1.0
408.1833,128.185008,37.947928,6243.3900023999995,-170.493,-41.271,169.898,1.0
408.2,128.185016,37.947892,6239.5998144000005,-170.591,-41.294,169.894,1.0
408.2166,128.185024,37.947855,6235.805664,-170.69,-41.317,169.89,1.0
408.2333,128.185032,37.947819,6232.0075512,-170.79,-41.341,169.886,1.0
408.25,128.18504,37.947782,6228.2057808,-170.891,-41.365,169.882,1.0
408.2666,128.185048,37.947745,6224.3997432,-170.993,-41.389,169.878,1.0
408.2833,128.185056,37.947709,6220.5903528,-171.095,-41.413,169.874,1.0
408.3,128.185064,37.947672,6216.7766952,-171.198,-41.437,169.87,1.0
408.3166,128.185073,37.947636,6212.95938,-171.3,-41.461,169.867,1.0
408.3333,128.185081,37.947599,6209.1381024,-171.402,-41.485,169.863,1.0
408.35,128.185089,37.947562,6205.3128624,-171.504,-41.51,169.859,1.0
408.3666,128.185097,37.947526,6201.483964800001,-171.606,-41.534,169.855,1.0
408.3833,128.185105,37.947489,6197.6511048,-171.708,-41.559,169.852,1.0
408.4,128.185113,37.947452,6193.8145872000005,-171.809,-41.583,169.848,1.0
408.4166,128.185121,37.947416,6189.9741072,-171.908,-41.608,169.845,1.0
408.4333,128.185129,37.947379,6186.129664800001,-172.006,-41.633,169.841,1.0
408.45,128.185137,37.947342,6182.2818696,-172.103,-41.658,169.838,1.0
408.4666,128.185145,37.947306,6178.4298072,-172.199,-41.682,169.835,1.0
408.4833,128.185153,37.947269,6174.574087200001,-172.295,-41.707,169.831,1.0
408.5,128.185161,37.947232,6170.714709600001,-172.388,-41.732,169.828,1.0
408.5166,128.185169,37.947196,6166.851674400001,-172.48,-41.757,169.825,1.0
408.5333,128.185177,37.947159,6162.9846768,-172.57,-41.782,169.822,1.0
408.55,128.185185,37.947122,6159.1140216,-172.659,-41.807,169.82,1.0
408.5666,128.185193,37.947086,6155.239404,-172.748,-41.833,169.817,1.0
408.5833,128.185201,37.947049,6151.361128800001,-172.835,-41.858,169.814,1.0
408.6,128.185209,37.947012,6147.479805600001,-172.782,-41.881,169.791,1.0
408.6166,128.185217,37.946976,6143.5954344,-172.594,-41.901,169.747,1.0
408.6333,128.185226,37.946939,6139.708015200001,-172.27,-41.921,169.694,1.0
408.65,128.185234,37.946902,6135.8181576,-171.814,-41.939,169.639,1.0
408.6666,128.185242,37.946865,6131.9258616,-171.228,-41.957,169.588,1.0
408.6833,128.18525,37.946829,6128.031432000001,-170.52,-41.975,169.541,1.0
408.7,128.185258,37.946792,6124.135173600001,-169.696,-41.991,169.496,1.0
408.7166,128.185266,37.946755,6120.2370864,-168.762,-42.006,169.455,1.0
408.7333,128.185274,37.946718,6116.3374752,-167.725,-42.02,169.414,1.0
408.75,128.185282,37.946681,6112.4354256,-166.591,-42.032,169.374,1.0
408.7666,128.18529,37.946644,6108.531852000001,-165.364,-42.042,169.336,1.0
408.7833,128.185298,37.946607,6104.6261448000005,-164.05,-42.05,169.298,1.0
408.8,128.185307,37.94657,6100.718304,-162.654,-42.057,169.262,1.0
408.8166,128.185315,37.946533,6096.8083295999995,-161.179,-42.061,169.228,1.0
408.8333,128.185323,37.946496,6092.8962216,-159.631,-42.063,169.195,1.0
408.85,128.185331,37.946459,6088.98198,-158.014,-42.063,169.164,1.0
408.8666,128.185339,37.946422,6085.0653,-156.332,-42.062,169.134,1.0
408.8833,128.185347,37.946385,6081.1464864,-154.588,-42.058,169.107,1.0
408.9,128.185355,37.946348,6077.2252344,-152.787,-42.052,169.082,1.0
408.9166,128.185363,37.946311,6073.3012392,-150.931,-42.045,169.059,1.0
408.9333,128.185371,37.946273,6069.3751104,-149.024,-42.035,169.038,1.0
408.95,128.18538,37.946236,6065.446238400001,-147.07,-42.024,169.019,1.0
408.9666,128.185388,37.946199,6061.514623200001,-145.071,-42.011,169.003,1.0
408.9833,128.185396,37.946162,6057.580264800001,-143.03,-41.997,168.99,1.0
409.0,128.185404,37.946124,6053.643468,-140.949,-41.981,168.979,1.0
409.0166,128.185412,37.946087,6049.7036232,-138.832,-41.964,168.971,1.0
409.0333,128.18542,37.94605,6045.7610352,-136.681,-41.946,168.965,1.0
409.05,128.185428,37.946012,6041.815704000001,-134.498,-41.926,168.963,1.0
409.0666,128.185436,37.945975,6037.867020000001,-132.285,-41.906,168.964,1.0
409.0833,128.185444,37.945938,6033.915592800001,-130.044,-41.885,168.967,1.0
409.1,128.185452,37.9459,6029.9611176,-127.777,-41.862,168.974,1.0
409.1166,128.18546,37.945863,6026.0032896,-125.485,-41.84,168.985,1.0
409.1333,128.185468,37.945825,6022.0427184,-123.171,-41.816,168.998,1.0
409.15,128.185476,37.945788,6018.0787944,-120.835,-41.793,169.015,1.0
409.1666,128.185485,37.94575,6014.1115176,-118.479,-41.769,169.035,1.0
409.1833,128.185493,37.945713,6010.140888000001,-116.103,-41.745,169.059,1.0
409.2,128.185501,37.945675,6006.167210400001,-113.708,-41.721,169.086,1.0
409.2166,128.185509,37.945638,6002.1904847999995,-111.296,-41.697,169.117,1.0
409.2333,128.185517,37.9456,5998.210101600001,-108.868,-41.674,169.151,1.0
409.25,128.185525,37.945562,5994.2263656000005,-106.423,-41.651,169.189,1.0
409.2666,128.185533,37.945525,5990.2395816,-103.964,-41.629,169.23,1.0
409.2833,128.185541,37.945487,5986.24914,-101.489,-41.608,169.274,1.0
409.3,128.185549,37.94545,5982.2556504,-99.001,-41.588,169.321,1.0
409.3166,128.185557,37.945412,5978.2585032,-96.499,-41.569,169.372,1.0
409.3333,128.185565,37.945374,5974.2580032,-93.984,-41.552,169.426,1.0
409.35,128.185573,37.945337,5970.2541504,-91.457,-41.536,169.483,1.0
409.3666,128.185581,37.945299,5966.2469448,-88.917,-41.522,169.542,1.0
409.3833,128.185589,37.945261,5962.2360816,-86.366,-41.51,169.604,1.0
409.4,128.185597,37.945224,5958.222170400001,-83.802,-41.5,169.669,1.0
409.4166,128.185605,37.945186,5954.2046016,-81.228,-41.492,169.736,1.0
409.4333,128.185613,37.945148,5950.1839848,-78.641,-41.487,169.806,1.0
409.45,128.185621,37.94511,5946.1597104,-76.044,-41.483,169.877,1.0
409.4666,128.185629,37.945073,5942.132083200001,-73.435,-41.483,169.95,1.0
409.4833,128.185637,37.945035,5938.101408,-70.816,-41.485,170.025,1.0
409.5,128.185645,37.944997,5934.066465600001,-68.185,-41.489,170.102,1.0
409.5166,128.185654,37.944959,5930.028170400001,-65.544,-41.497,170.18,1.0
409.5333,128.185662,37.944921,5925.986217600001,-62.892,-41.507,170.259,1.0
409.55,128.18567,37.944884,5921.9406072,-60.229,-41.52,170.339,1.0
409.5666,128.185678,37.944846,5917.891644,-57.554,-41.536,170.419,1.0
409.5833,128.185686,37.944808,5913.839328,-54.869,-41.556,170.499,1.0
409.6,128.185694,37.94477,5909.783049600001,-52.171,-41.578,170.58,1.0
409.6166,128.185702,37.944732,5905.723723200001,-49.463,-41.603,170.66,1.0
409.6333,128.18571,37.944694,5901.6607392,-46.742,-41.632,170.74,1.0
409.65,128.185718,37.944656,5897.594097600001,-44.01,-41.663,170.819,1.0
409.6666,128.185726,37.944618,5893.5241032,-41.266,-41.697,170.897,1.0
409.6833,128.185734,37.94458,5889.450756000001,-38.509,-41.734,170.973,1.0
409.7,128.185742,37.944542,5885.374056000001,-35.74,-41.775,171.048,1.0
409.7166,128.185751,37.944504,5881.2936984,-32.959,-41.818,171.122,1.0
409.7333,128.185759,37.944466,5877.2099880000005,-30.165,-41.863,171.193,1.0
409.75,128.185767,37.944428,5873.122924800001,-27.358,-41.912,171.262,1.0
409.7666,128.185775,37.94439,5869.032204,-24.538,-41.963,171.329,1.0
409.7833,128.185783,37.944352,5864.9381304,-21.704,-42.016,171.393,1.0
409.8,128.185791,37.944314,5860.8428376,-19.099,-42.086,171.403,1.0
409.8166,128.185799,37.944276,5856.744801600001,-16.71,-42.169,171.361,1.0
409.8333,128.185807,37.944238,5852.6449368,-14.574,-42.257,171.292,1.0
409.8499,128.185815,37.944199,5848.543548,-12.721,-42.344,171.219,1.0
409.8666,128.185824,37.944161,5844.44094,-11.157,-42.428,171.154,1.0
409.8833,128.185832,37.944123,5840.3374176,-9.868,-42.506,171.096,1.0
409.9,128.18584,37.944085,5836.2332856,-8.832,-42.578,171.043,1.0
409.9166,128.185848,37.944046,5832.1291536,-8.03,-42.645,170.989,1.0
409.9333,128.185856,37.944008,5828.0253264,-7.444,-42.708,170.934,1.0
409.95,128.185865,37.94397,5823.9218040000005,-7.064,-42.766,170.877,1.0
409.9666,128.185873,37.943931,5819.819196,-6.88,-42.821,170.818,1.0
409.9833,128.185881,37.943893,5815.7178072,-6.885,-42.872,170.76,1.0
410.0,128.185889,37.943854,5811.617942400001,-7.069,-42.919,170.703,1.0
410.0166,128.185898,37.943816,5807.519601600001,-7.425,-42.963,170.648,1.0
410.0333,128.185906,37.943777,5803.4236992,-7.942,-43.004,170.593,1.0
410.05,128.185914,37.943739,5799.3299304,-8.612,-43.041,170.54,1.0
410.0666,128.185923,37.9437,5795.2389048000005,-9.428,-43.076,170.488,1.0
410.0833,128.185931,37.943661,5791.1509272,-10.381,-43.107,170.437,1.0
410.0999,128.185939,37.943623,5787.065388000001,-11.464,-43.136,170.387,1.0
410.1166,128.185948,37.943584,5782.981982400001,-12.671,-43.163,170.339,1.0
410.1333,128.185956,37.943545,5778.9007104,-13.996,-43.188,170.291,1.0
410.15,128.185965,37.943506,5774.821876800001,-15.431,-43.211,170.245,1.0
410.1666,128.185973,37.943467,5770.7451768,-16.972,-43.232,170.2,1.0
410.1833,128.185982,37.943428,5766.670000800001,-18.612,-43.252,170.155,1.0
410.2,128.18599,37.94339,5762.5969584,-20.346,-43.271,170.112,1.0
410.2166,128.185999,37.943351,5758.5257448,-22.17,-43.288,170.07,1.0
410.2333,128.186008,37.943312,5754.4557504,-24.078,-43.304,170.028,1.0
410.25,128.186016,37.943273,5750.3875848,-26.066,-43.32,169.988,1.0
410.2666,128.186025,37.943233,5746.320943199999,-28.129,-43.335,169.948,1.0
410.2833,128.186034,37.943194,5742.255216,-30.262,-43.35,169.909,1.0
410.3,128.186043,37.943155,5738.1910128,-32.463,-43.364,169.871,1.0
410.3166,128.186051,37.943116,5734.127724000001,-34.726,-43.379,169.834,1.0
410.3333,128.18606,37.943077,5730.0653496,-37.049,-43.393,169.798,1.0
410.3499,128.186069,37.943038,5726.0038896,-39.428,-43.407,169.763,1.0
410.3666,128.186078,37.942998,5721.9430391999995,-41.859,-43.422,169.73,1.0
410.3833,128.186087,37.942959,5717.8827984,-44.339,-43.437,169.697,1.0
410.4,128.186096,37.94292,5713.8231672,-46.865,-43.452,169.666,1.0
410.4166,128.186106,37.942881,5709.763536,-49.434,-43.467,169.636,1.0
410.4333,128.186115,37.942841,5705.703904800001,-52.044,-43.483,169.607,1.0
410.45,128.186124,37.942802,5701.644578400001,-54.691,-43.499,169.58,1.0
410.4666,128.186133,37.942763,5697.584947200001,-57.373,-43.516,169.554,1.0
410.4833,128.186143,37.942724,5693.5247064000005,-60.089,-43.533,169.53,1.0
410.5,128.186152,37.942684,5689.4611128,-62.558,-43.51,169.538,1.0
410.5166,128.186162,37.942645,5685.3963,-64.791,-43.449,169.575,1.0
410.5333,128.186171,37.942606,5681.330268000001,-66.746,-43.371,169.623,1.0
410.55,128.186181,37.942566,5677.2624072,-68.395,-43.296,169.669,1.0
410.5666,128.186191,37.942527,5673.1927176,-69.734,-43.233,169.706,1.0
410.5833,128.1862,37.942488,5669.1205896,-70.782,-43.181,169.733,1.0
410.5999,128.18621,37.942448,5665.045718400001,-71.565,-43.132,169.754,1.0
410.6166,128.18622,37.942409,5660.9677992,-72.107,-43.084,169.77,1.0
410.6333,128.186229,37.94237,5656.8865272,-72.425,-43.035,169.784,1.0
410.65,128.186239,37.94233,5652.8019024,-72.532,-42.984,169.798,1.0
410.6666,128.186249,37.942291,5648.71362,-72.437,-42.934,169.81,1.0
410.6833,128.186258,37.942251,5644.621375199999,-72.151,-42.885,169.822,1.0
410.7,128.186268,37.942212,5640.5254728,-71.683,-42.839,169.834,1.0
410.7166,128.186278,37.942173,5636.4253032,-71.044,-42.794,169.845,1.0
410.7333,128.186288,37.942133,5632.320866399999,-70.246,-42.752,169.857,1.0
410.75,128.186297,37.942094,5628.2115527999995,-69.298,-42.71,169.871,1.0
410.7666,128.186307,37.942054,5624.0976672,-68.209,-42.671,169.886,1.0
410.7833,128.186316,37.942015,5619.9786,-66.988,-42.633,169.902,1.0
410.8,128.186326,37.941975,5615.8549608,-65.643,-42.597,169.921,1.0
410.8166,128.186335,37.941936,5611.7264448000005,-64.183,-42.562,169.942,1.0
410.8333,128.186345,37.941896,5607.593052000001,-62.613,-42.53,169.964,1.0
410.8499,128.186354,37.941857,5603.4544776,-60.942,-42.5,169.989,1.0
410.8666,128.186364,37.941817,5599.3113312000005,-59.176,-42.472,170.017,1.0
410.8833,128.186373,37.941778,5595.163308,-57.32,-42.446,170.046,1.0
410.9,128.186383,37.941738,5591.0101032,-55.382,-42.423,170.079,1.0
410.9166,128.186392,37.941699,5586.8523264000005,-53.366,-42.402,170.113,1.0
410.9333,128.186402,37.941659,5582.689368,-51.277,-42.384,170.15,1.0
410.95,128.186411,37.941619,5578.5218376,-49.121,-42.368,170.189,1.0
410.9666,128.18642,37.94158,5574.3491256,-46.901,-42.355,170.23,1.0
410.9833,128.18643,37.94154,5570.1715368000005,-44.622,-42.345,170.272,1.0
411.0,128.186439,37.941501,5565.9918144,-42.565,-42.371,170.27,1.0
411.0166,128.186448,37.941461,5561.8081296,-40.719,-42.429,170.222,1.0
411.0333,128.186458,37.941421,5557.620177600001,-39.133,-42.501,170.155,1.0
411.05,128.186467,37.941382,5553.4291776,-37.847,-42.57,170.093,1.0
411.0666,128.186476,37.941342,5549.2351296,-36.864,-42.63,170.047,1.0
411.0833,128.186486,37.941302,5545.038947999999,-36.163,-42.681,170.012,1.0
411.0999,128.186495,37.941263,5540.8406328,-35.712,-42.727,169.98,1.0
411.1166,128.186505,37.941223,5536.6407936,-35.484,-42.771,169.946,1.0
411.1333,128.186514,37.941183,5532.44004,-35.462,-42.815,169.907,1.0
411.15,128.186524,37.941143,5528.238372,-35.637,-42.859,169.866,1.0
411.1666,128.186533,37.941104,5524.0360944,-36.002,-42.901,169.824,1.0
411.1833,128.186543,37.941064,5519.8338168,-36.55,-42.942,169.783,1.0
411.2,128.186552,37.941024,5515.631844,-37.272,-42.98,169.743,1.0
411.2166,128.186562,37.940984,5511.4304808,-38.158,-43.017,169.703,1.0
411.2333,128.186572,37.940944,5507.2297272000005,-39.196,-43.052,169.665,1.0
411.25,128.186581,37.940904,5503.030192800001,-40.38,-43.085,169.626,1.0
411.2666,128.186591,37.940864,5498.8321824,-41.7,-43.117,169.587,1.0
411.2833,128.186601,37.940824,5494.635696,-43.148,-43.148,169.548,1.0
411.3,128.186611,37.940784,5490.439819200001,-44.719,-43.177,169.509,1.0
411.3166,128.186621,37.940745,5486.2451616,-46.406,-43.206,169.47,1.0
411.3333,128.186631,37.940704,5482.0511136000005,-48.201,-43.233,169.432,1.0
411.3499,128.186641,37.940664,5477.85798,-50.1,-43.259,169.394,1.0
411.3666,128.186651,37.940624,5473.665151200001,-52.096,-43.285,169.357,1.0
411.3833,128.186662,37.940584,5469.472932000001,-54.183,-43.31,169.319,1.0
411.4,128.186672,37.940544,5465.280408,-56.355,-43.334,169.282,1.0
411.4166,128.186682,37.940504,5461.088188799999,-58.609,-43.359,169.246,1.0
411.4333,128.186693,37.940464,5456.8956648,-60.939,-43.382,169.21,1.0
411.45,128.186703,37.940424,5452.702836,-63.34,-43.406,169.175,1.0
411.4666,128.186714,37.940384,5448.509397600001,-65.808,-43.43,169.141,1.0
411.4833,128.186724,37.940344,5444.3153496,-68.34,-43.454,169.108,1.0
411.5,128.186735,37.940304,5440.120082400001,-70.93,-43.478,169.076,1.0
411.5166,128.186746,37.940264,5435.9239008,-73.574,-43.502,169.045,1.0
411.5333,128.186757,37.940224,5431.7261952,-76.271,-43.526,169.016,1.0
411.55,128.186768,37.940184,5427.526965600001,-79.015,-43.55,168.989,1.0
411.5666,128.186779,37.940143,5423.3259072,-81.804,-43.575,168.963,1.0
411.5833,128.18679,37.940103,5419.122715200001,-84.634,-43.6,168.94,1.0
411.5999,128.186801,37.940063,5414.9173896,-87.502,-43.625,168.918,1.0
411.6166,128.186812,37.940023,5410.7096255999995,-90.407,-43.65,168.898,1.0
411.6333,128.186823,37.939983,5406.4991184,-93.344,-43.676,168.88,1.0
411.65,128.186835,37.939943,5402.2852584,-96.311,-43.701,168.865,1.0
411.6666,128.186846,37.939903,5398.068350400001,-99.306,-43.726,168.851,1.0
411.6833,128.186857,37.939863,5393.8480896,-102.327,-43.751,168.841,1.0
411.7,128.186869,37.939823,5389.6238664,-105.371,-43.775,168.832,1.0
411.7166,128.18688,37.939783,5385.3956808,-108.431,-43.799,168.826,1.0
411.7333,128.186892,37.939744,5381.163228,-111.502,-43.822,168.822,1.0
411.75,128.186904,37.939704,5376.9262032,-114.579,-43.843,168.82,1.0
411.7666,128.186916,37.939664,5372.684606400001,-117.659,-43.863,168.82,1.0
411.7833,128.186927,37.939624,5368.437828,-120.738,-43.882,168.822,1.0
411.8,128.186939,37.939584,5364.1840391999995,-123.476,-43.857,168.788,1.0
411.8166,128.186951,37.939544,5359.9253736,-125.884,-43.789,168.717,1.0
411.8333,128.186963,37.939505,5355.662745600001,-127.947,-43.707,168.632,1.0
411.8499,128.186975,37.939465,5351.3958504,-129.653,-43.632,168.556,1.0
411.8666,128.186987,37.939425,5347.124383200001,-131.016,-43.572,168.491,1.0
411.8833,128.186999,37.939386,5342.8486488,-132.057,-43.525,168.436,1.0
411.9,128.187011,37.939346,5338.568647200001,-132.802,-43.487,168.382,1.0
411.9166,128.187023,37.939306,5334.284378400001,-133.274,-43.451,168.326,1.0
411.9333,128.187035,37.939267,5329.9961472,-133.494,-43.415,168.264,1.0
411.95,128.187047,37.939227,5325.7042584,-133.475,-43.378,168.2,1.0
411.9666,128.187059,37.939187,5321.4090168,-133.23,-43.342,168.136,1.0
411.9833,128.187071,37.939147,5317.1104224,-132.77,-43.308,168.074,1.0
412.0,128.187083,37.939108,5312.8084751999995,-132.108,-43.275,168.015,1.0
412.0166,128.187095,37.939068,5308.5037848,-131.258,-43.244,167.959,1.0
412.0333,128.187107,37.939028,5304.1963512,-130.23,-43.214,167.904,1.0
412.05,128.187118,37.938988,5299.8861744000005,-129.037,-43.184,167.852,1.0
412.0666,128.18713,37.938948,5295.5735592,-127.69,-43.153,167.801,1.0
412.0833,128.187142,37.938908,5291.258200800001,-126.198,-43.122,167.753,1.0
412.0999,128.187154,37.938869,5286.9413184000005,-124.939,-43.136,167.751,1.0
412.1166,128.187166,37.938829,5282.6213880000005,-123.902,-43.194,167.792,1.0
412.1333,128.187178,37.938789,5278.2968856,-123.117,-43.267,167.849,1.0
412.15,128.18719,37.938749,5273.967811200001,-122.601,-43.33,167.898,1.0
412.1666,128.187202,37.938709,5269.634469600001,-122.349,-43.374,167.93,1.0
412.1833,128.187213,37.938669,5265.296860800001,-122.338,-43.406,167.949,1.0
412.2,128.187225,37.938629,5260.9555944,-122.54,-43.436,167.965,1.0
412.2166,128.187237,37.938589,5256.609756000001,-122.936,-43.47,167.982,1.0
412.2333,128.187249,37.938549,5252.2599552,-123.513,-43.508,168.003,1.0
412.25,128.187261,37.938509,5247.905277600001,-124.265,-43.549,168.027,1.0
412.2666,128.187273,37.938469,5243.545723200001,-125.186,-43.59,168.049,1.0
412.2833,128.187285,37.938429,5239.181596800001,-126.267,-43.628,168.07,1.0
412.3,128.187297,37.938389,5234.8122888,-127.5,-43.664,168.088,1.0
412.3166,128.187309,37.938349,5230.4377992,-128.874,-43.699,168.106,1.0
412.3333,128.187321,37.93831,5226.058128000001,-130.38,-43.734,168.123,1.0
412.3499,128.187333,37.93827,5221.672970400001,-132.01,-43.769,168.141,1.0
412.3666,128.187345,37.93823,5217.2817168,-133.757,-43.804,168.158,1.0
412.3833,128.187357,37.93819,5212.884672,-135.614,-43.839,168.175,1.0
412.4,128.18737,37.938151,5208.481836,-137.575,-43.874,168.193,1.0
412.4166,128.187382,37.938111,5204.072904000001,-139.634,-43.908,168.21,1.0
412.4333,128.187394,37.938071,5199.657876,-141.785,-43.941,168.227,1.0
412.45,128.187407,37.938032,5195.236752000001,-144.022,-43.974,168.245,1.0
412.4666,128.187419,37.937992,5190.8092272,-146.339,-44.006,168.263,1.0
412.4833,128.187431,37.937953,5186.375606400001,-148.731,-44.038,168.281,1.0
412.5,128.187444,37.937914,5181.9355848,-151.193,-44.069,168.3,1.0
412.5166,128.187456,37.937874,5177.4891624,-153.721,-44.099,168.32,1.0
412.5333,128.187469,37.937835,5173.0360344,-156.31,-44.128,168.341,1.0
412.55,128.187481,37.937796,5168.5762008,-158.956,-44.156,168.363,1.0
412.5666,128.187494,37.937756,5164.1096615999995,-161.654,-44.183,168.386,1.0
412.5833,128.187506,37.937717,5159.6364168,-164.4,-44.208,168.41,1.0
412.5999,128.187519,37.937678,5155.1561616,-167.191,-44.232,168.434,1.0
412.6166,128.187531,37.937639,5150.668896,-170.023,-44.254,168.46,1.0
412.6333,128.187543,37.9376,5146.174315200001,-172.893,-44.274,168.486,1.0
412.65,128.187556,37.937561,5141.673028800001,-175.797,-44.293,168.513,1.0
412.6666,128.187568,37.937522,5137.1644272,-178.732,-44.309,168.54,1.0
412.6833,128.187581,37.937483,5132.6485104,178.305,-44.323,168.568,1.0
412.7,128.187593,37.937444,5128.125583200001,175.316,-44.335,168.595,1.0
412.7166,128.187605,37.937405,5123.5953408000005,172.306,-44.345,168.623,1.0
412.7333,128.187618,37.937366,5119.057478400001,169.275,-44.352,168.65,1.0
412.75,128.18763,37.937328,5114.512605600001,166.227,-44.358,168.677,1.0
412.7666,128.187642,37.937289,5109.9607224,163.166,-44.36,168.702,1.0
412.7833,128.187654,37.93725,5105.401524000001,160.097,-44.361,168.726,1.0
412.8,128.187667,37.937212,5100.837144,157.424,-44.381,168.67,1.0
412.8166,128.187679,37.937173,5096.2663632,155.127,-44.422,168.54,1.0
412.8333,128.187691,37.937134,5091.6891816,153.214,-44.468,168.386,1.0
412.8499,128.187703,37.937096,5087.1062088,151.682,-44.51,168.246,1.0
412.8666,128.187715,37.937057,5082.5180544,150.508,-44.548,168.123,1.0
412.8833,128.187727,37.937018,5077.9247184000005,149.67,-44.583,168.02,1.0
412.9,128.187739,37.93698,5073.326810400001,149.145,-44.616,167.938,1.0
412.9166,128.187751,37.936941,5068.7243304,148.911,-44.648,167.867,1.0
412.9333,128.187763,37.936903,5064.1181928000005,148.944,-44.682,167.797,1.0
412.95,128.187774,37.936864,5059.508092800001,149.227,-44.719,167.725,1.0
412.9666,128.187786,37.936826,5054.8949448,149.747,-44.757,167.65,1.0
412.9833,128.187798,37.936787,5050.278444,150.49,-44.795,167.575,1.0
413.0,128.18781,37.936748,5045.6588952,151.445,-44.832,167.504,1.0
413.0166,128.187822,37.93671,5041.0372128,152.599,-44.867,167.437,1.0
413.0333,128.187834,37.936671,5036.413092000001,153.94,-44.902,167.372,1.0
413.05,128.187846,37.936632,5031.7871424,155.455,-44.935,167.308,1.0
413.0666,128.187858,37.936593,5027.159364,157.132,-44.967,167.244,1.0
413.0833,128.18787,37.936555,5022.530366399999,158.962,-44.998,167.179,1.0
413.0999,128.187882,37.936516,5017.89954,160.935,-45.028,167.115,1.0
413.1166,128.187894,37.936477,5013.2668848,163.042,-45.056,167.052,1.0
413.1333,128.187906,37.936438,5008.632705600001,165.274,-45.082,166.989,1.0
413.15,128.187918,37.936399,5003.9970023999995,167.623,-45.106,166.926,1.0
413.1666,128.187931,37.93636,4999.3597752,170.081,-45.127,166.864,1.0
413.1833,128.187943,37.936321,4994.721024,172.64,-45.146,166.802,1.0
413.2,128.187955,37.936282,4990.080748800001,175.293,-45.163,166.741,1.0
413.2166,128.187967,37.936243,4985.4386448000005,178.034,-45.178,166.679,1.0
413.2333,128.187979,37.936204,4980.795016800001,-179.144,-45.189,166.619,1.0
413.25,128.187991,37.936165,4976.1498648,-176.247,-45.199,166.559,1.0
413.2666,128.188003,37.936126,4971.502884,-173.281,-45.205,166.5,1.0
413.2833,128.188016,37.936086,4966.8540744,-170.252,-45.209,166.442,1.0
413.3,128.188028,37.936047,4962.2031312,-167.6,-45.223,166.473,1.0
413.3166,128.18804,37.936008,4957.5494448,-165.307,-45.249,166.589,1.0
413.3333,128.188052,37.935969,4952.892100800001,-163.383,-45.278,166.728,1.0
413.3499,128.188065,37.935929,4948.2310992,-161.831,-45.301,166.837,1.0
413.3666,128.188077,37.93589,4943.565830400001,-160.63,-45.317,166.91,1.0
413.3833,128.188089,37.935851,4938.896904,-159.749,-45.332,166.956,1.0
413.4,128.188101,37.935811,4934.223405600001,-159.16,-45.351,166.996,1.0
413.4166,128.188113,37.935772,4929.5453352,-158.838,-45.375,167.045,1.0
413.4333,128.188125,37.935733,4924.8623880000005,-158.768,-45.403,167.104,1.0
413.45,128.188138,37.935693,4920.1742592,-158.939,-45.432,167.166,1.0
413.4666,128.18815,37.935654,4915.480644,-159.34,-45.46,167.225,1.0
413.4833,128.188162,37.935615,4910.7812376,-159.958,-45.487,167.276,1.0
413.5,128.188174,37.935576,4906.07604,-160.778,-45.514,167.322,1.0
413.5166,128.188186,37.935537,4901.3647464000005,-161.787,-45.541,167.366,1.0
413.5333,128.188199,37.935497,4896.6473568,-162.971,-45.568,167.411,1.0
413.55,128.188211,37.935458,4891.9229568,-164.32,-45.597,167.458,1.0
413.5666,128.188223,37.935419,4887.1915464,-165.824,-45.626,167.504,1.0
413.5833,128.188235,37.93538,4882.4531256,-167.474,-45.655,167.548,1.0
413.5999,128.188247,37.935341,4877.708304,-169.26,-45.683,167.592,1.0
413.6166,128.188259,37.935303,4872.956472,-171.175,-45.711,167.634,1.0
413.6333,128.188272,37.935264,4868.1979344,-173.208,-45.738,167.676,1.0
413.65,128.188284,37.935225,4863.432691200001,-175.352,-45.765,167.718,1.0
413.6666,128.188296,37.935186,4858.6607424,-177.6,-45.792,167.76,1.0
413.6833,128.188308,37.935147,4853.8823928,-179.944,-45.818,167.803,1.0
413.7,128.18832,37.935109,4849.0970328,177.622,-45.843,167.845,1.0
413.7166,128.188332,37.93507,4844.3052720000005,175.106,-45.867,167.888,1.0
413.7333,128.188344,37.935032,4839.5071104,172.513,-45.889,167.93,1.0
413.75,128.188356,37.934993,4834.7019384000005,169.85,-45.91,167.972,1.0
413.7666,128.188368,37.934955,4829.8903656,167.123,-45.929,168.014,1.0
413.7833,128.18838,37.934916,4825.072392000001,164.337,-45.946,168.056,1.0
413.8,128.188392,37.934878,4820.2480176,161.496,-45.961,168.098,1.0
413.8166,128.188404,37.934839,4815.4169376,158.607,-45.973,168.138,1.0
413.8333,128.188416,37.934801,4810.5797616,155.674,-45.984,168.178,1.0
413.8499,128.188428,37.934763,4805.7361848,152.701,-45.992,168.217,1.0
413.8666,128.18844,37.934725,4800.8862072,149.693,-45.998,168.254,1.0
