Time,Longitude,Latitude,Altitude,Roll (deg),Pitch (deg),Yaw (deg),Health
0.0,128.181881,37.968463,7002.830292000001,0.0,-0.003,179.999,1.0
0.0166,128.181881,37.968418,7002.8116992000005,0.0,-0.012,180.0,1.0
0.0333,128.181881,37.968374,7002.7912776,0.087,-0.026,180.011,1.0
0.05,128.181881,37.968329,7002.771160800001,0.084,-0.042,180.011,1.0
0.0666,128.181881,37.968284,7002.7504344,0.0,-0.06,179.995,1.0
0.0833,128.181881,37.968239,7002.7281840000005,0.004,-0.08,179.992,1.0
0.1,128.181881,37.968194,7002.7041048,0.088,-0.1,180.005,1.0
0.1166,128.181881,37.968149,7002.6803304000005,0.082,-0.12,180.007,1.0
0.1333,128.181881,37.968104,7002.656251200001,-0.004,-0.141,179.993,1.0
0.15,128.181881,37.968059,7002.630038400001,-0.001,-0.161,179.991,1.0
0.1666,128.181881,37.968014,7002.602301600001,0.082,-0.181,180.005,1.0
0.1833,128.181881,37.967969,7002.574869600001,0.075,-0.202,180.007,1.0
0.2,128.181881,37.967924,7002.5468280000005,-0.011,-0.221,179.993,1.0
0.2166,128.181881,37.967879,7002.5166528,-0.007,-0.241,179.991,1.0
0.2333,128.181881,37.967834,7002.4852584,0.076,-0.26,180.005,1.0
0.25,128.181881,37.967788,7002.4535592,0.07,-0.279,180.007,1.0
0.2666,128.181881,37.967743,7002.42186,-0.016,-0.298,179.993,1.0
0.2833,128.181881,37.967698,7002.387722400001,-0.012,-0.316,179.991,1.0
0.3,128.181881,37.967653,7002.352060800001,0.072,-0.334,180.005,1.0
0.3166,128.181881,37.967608,7002.3163992,0.066,-0.353,180.007,1.0
0.3333,128.181881,37.967563,7002.2804328,-0.02,-0.37,179.993,1.0
0.35,128.181881,37.967518,7002.2423328,-0.016,-0.388,179.991,1.0
0.3666,128.181881,37.967473,7002.202404000001,0.068,-0.405,180.005,1.0
0.3833,128.181881,37.967428,7002.1624752,0.062,-0.422,180.007,1.0
0.4,128.181881,37.967382,7002.122241600001,-0.023,-0.439,179.994,1.0
0.4166,128.181881,37.967337,7002.0798744,-0.018,-0.456,179.991,1.0
0.4333,128.181881,37.967292,7002.0356784000005,0.066,-0.473,180.005,1.0
0.45,128.181881,37.967247,7001.991482400001,0.06,-0.489,180.008,1.0
0.4666,128.181881,37.967202,7001.9469816,-0.025,-0.505,179.994,1.0
0.4833,128.181881,37.967157,7001.9003472,-0.02,-0.521,179.992,1.0
0.5,128.181881,37.967111,7001.851884000001,0.064,-0.537,180.006,1.0
0.5166,128.181881,37.967066,7001.8034208,0.059,-0.553,180.008,1.0
0.5333,128.181881,37.967021,7001.7543479999995,-0.026,-0.569,179.994,1.0
0.55,128.181881,37.966976,7001.703141600001,-0.021,-0.584,179.992,1.0
0.5666,128.181881,37.966931,7001.6501064,0.064,-0.6,180.006,1.0
0.5833,128.181881,37.966885,7001.597376,0.058,-0.615,180.008,1.0
0.6,128.181881,37.96684,7001.5437312,-0.027,-0.63,179.994,1.0
0.6166,128.181881,37.966795,7001.4882576,-0.022,-0.645,179.992,1.0
0.6333,128.181881,37.96675,7001.4330887999995,-0.112,-0.66,179.983,1.0
0.65,128.181881,37.966704,7001.3754816,-0.111,-0.675,179.986,1.0
0.6666,128.181881,37.966659,7001.318484000001,-0.204,-0.69,179.98,1.0
0.6833,128.181881,37.966614,7001.2608768,-0.379,-0.704,179.962,1.0
0.7,128.181881,37.966568,7001.203879200001,-0.641,-0.718,179.935,1.0
0.7166,128.181881,37.966523,7001.1453576,-0.814,-0.731,179.927,1.0
0.7333,128.181881,37.966478,7001.0859216,-0.904,-0.744,179.938,1.0
0.75,128.181881,37.966432,7001.0249616,-0.905,-0.757,179.964,1.0
0.7666,128.181881,37.966387,7000.961868,-0.81,-0.771,179.996,1.0
0.7833,128.181881,37.966342,7000.896640800001,-0.617,-0.784,180.033,1.0
0.8,128.181881,37.966296,7000.828670400001,-0.325,-0.798,180.07,1.0
0.8166,128.181881,37.966251,7000.757652000001,0.062,-0.812,180.106,1.0
0.8333,128.181881,37.966206,7000.6835856,0.543,-0.827,180.142,1.0
0.85,128.181881,37.96616,7000.6058616,1.113,-0.842,180.177,1.0
0.8666,128.181881,37.966115,7000.5241752,1.768,-0.858,180.21,1.0
0.8833,128.181881,37.966069,7000.4379168,2.504,-0.876,180.243,1.0
0.9,128.181881,37.966024,7000.347391200001,3.319,-0.895,180.273,1.0
0.9166,128.181881,37.965978,7000.2529032,4.207,-0.915,180.303,1.0
0.9333,128.181881,37.965933,7000.154148,5.167,-0.936,180.332,1.0
0.95,128.181881,37.965887,7000.0514304,6.194,-0.959,180.359,1.0
0.9666,128.181881,37.965842,6999.9444456,7.286,-0.983,180.385,1.0
0.9833,128.181881,37.965796,6999.8334984,8.441,-1.009,180.409,1.0
1.0,128.181881,37.965751,6999.718588799999,9.654,-1.036,180.433,1.0
1.0166,128.181881,37.965705,6999.6000216,10.924,-1.065,180.455,1.0
1.0333,128.181881,37.96566,6999.4771872,12.249,-1.095,180.475,1.0
1.05,128.181881,37.965614,6999.350695200001,13.626,-1.127,180.494,1.0
1.0666,128.181881,37.965568,6999.2205456,15.052,-1.161,180.512,1.0
1.0833,128.181881,37.965523,6999.0864336,16.527,-1.195,180.528,1.0
1.1,128.181881,37.965477,6998.948359200001,18.047,-1.232,180.542,1.0
1.1166,128.181881,37.965432,6998.806932,19.612,-1.269,180.555,1.0
1.1333,128.181881,37.965386,6998.661847200001,21.219,-1.308,180.567,1.0
1.15,128.181881,37.96534,6998.5128,22.866,-1.348,180.576,1.0
1.1666,128.181881,37.965295,6998.3604000000005,24.553,-1.388,180.584,1.0
1.1833,128.181881,37.965249,6998.204647200001,26.277,-1.43,180.59,1.0
1.2,128.181881,37.965203,6998.045236800001,28.038,-1.473,180.594,1.0
1.2166,128.181881,37.965157,6997.882168800001,29.833,-1.517,180.597,1.0
1.2333,128.181881,37.965112,6997.715748,31.662,-1.561,180.597,1.0
1.25,128.181881,37.965066,6997.545974400001,33.524,-1.606,180.596,1.0
1.2666,128.181881,37.96502,6997.3725432,35.417,-1.651,180.593,1.0
1.2833,128.181881,37.964974,6997.196064000001,37.341,-1.697,180.588,1.0
1.3,128.181881,37.964928,6997.016232,39.294,-1.743,180.582,1.0
1.3166,128.181882,37.964882,6996.833047200001,41.275,-1.789,180.573,1.0
1.3333,128.181882,37.964837,6996.6465096,43.284,-1.835,180.563,1.0
1.35,128.181882,37.964791,6996.4566192,45.32,-1.882,180.55,1.0
1.3666,128.181882,37.964745,6996.2636808,47.382,-1.928,180.536,1.0
1.3833,128.181882,37.964699,6996.0673896,49.469,-1.973,180.521,1.0
1.4,128.181882,37.964653,6995.8680504,51.58,-2.019,180.503,1.0
1.4166,128.181882,37.964607,6995.6656632,53.715,-2.064,180.484,1.0
1.4333,128.181882,37.964561,6995.4599232,55.873,-2.108,180.463,1.0
1.45,128.181882,37.964515,6995.2511352,58.054,-2.151,180.441,1.0
1.4666,128.181882,37.964469,6995.0392992,60.257,-2.194,180.417,1.0
1.4833,128.181883,37.964423,6994.824415200001,62.481,-2.236,180.392,1.0
1.5,128.181883,37.964377,6994.606483200001,64.726,-2.277,180.365,1.0
1.5166,128.181883,37.964331,6994.385808,66.991,-2.317,180.338,1.0
1.5333,128.181883,37.964285,6994.1620848,69.276,-2.356,180.309,1.0
1.55,128.181883,37.964239,6993.9353136,71.58,-2.394,180.278,1.0
1.5666,128.181883,37.964193,6993.7054944,73.904,-2.43,180.247,1.0
1.5833,128.181884,37.964147,6993.472932000001,76.245,-2.465,180.215,1.0
1.6,128.181884,37.964101,6993.2376264,78.605,-2.499,180.182,1.0
1.6166,128.181884,37.964055,6992.9995776000005,80.982,-2.531,180.149,1.0
1.6333,128.181884,37.964009,6992.7584808,83.376,-2.562,180.115,1.0
1.65,128.181884,37.963962,6992.514945600001,85.787,-2.592,180.08,1.0
1.6666,128.181885,37.963916,6992.2686672,88.214,-2.62,180.045,1.0
1.6833,128.181885,37.96387,6992.0196456,90.656,-2.647,180.009,1.0
1.7,128.181885,37.963824,6991.7681856,93.115,-2.672,179.974,1.0
1.7166,128.181885,37.963778,6991.513982400001,95.588,-2.696,179.938,1.0
1.7333,128.181886,37.963731,6991.257340800001,98.075,-2.718,179.902,1.0
1.75,128.181886,37.963685,6990.997956000001,100.577,-2.739,179.866,1.0
1.7666,128.181886,37.963639,6990.7364376000005,103.092,-2.758,179.83,1.0
1.7833,128.181887,37.963593,6990.4724808,105.621,-2.776,179.795,1.0
1.8,128.181887,37.963546,6990.206390400001,108.162,-2.793,179.76,1.0
1.8166,128.181887,37.9635,6989.937861599999,110.716,-2.808,179.725,1.0
1.8333,128.181887,37.963454,6989.6668944,113.282,-2.822,179.69,1.0
1.85,128.181888,37.963407,6989.3940984,115.859,-2.835,179.656,1.0
1.8666,128.181888,37.963361,6989.119168800001,118.447,-2.847,179.623,1.0
1.8833,128.181889,37.963315,6988.842105600001,121.046,-2.857,179.59,1.0
1.9,128.181889,37.963268,6988.5629088000005,123.656,-2.867,179.558,1.0
1.9166,128.181889,37.963222,6988.282188000001,126.275,-2.875,179.526,1.0
1.9333,128.18189,37.963176,6987.999333600001,128.904,-2.882,179.495,1.0
1.95,128.18189,37.963129,6987.7143456,131.542,-2.889,179.464,1.0
1.9666,128.181891,37.963083,6987.4281384000005,134.19,-2.894,179.435,1.0
1.9833,128.181891,37.963036,6987.139797600001,136.846,-2.899,179.405,1.0
2.0,128.181891,37.96299,6986.849932800001,139.51,-2.902,179.377,1.0
2.0166,128.181892,37.962943,6986.558544,142.182,-2.905,179.349,1.0
2.0333,128.181892,37.962897,6986.2653264,144.862,-2.907,179.322,1.0
2.05,128.181893,37.96285,6985.9708896,147.549,-2.909,179.296,1.0
2.0666,128.181893,37.962804,6985.674624,150.242,-2.909,179.27,1.0
2.0833,128.181894,37.962757,6985.3771392,152.942,-2.909,179.245,1.0
2.1,128.181894,37.96271,6985.0781304,155.648,-2.908,179.221,1.0
2.1166,128.181895,37.962664,6984.777597600001,158.359,-2.907,179.198,1.0
2.1333,128.181895,37.962617,6984.4758456,161.074,-2.905,179.175,1.0
2.15,128.181896,37.962571,6984.172874400001,163.795,-2.902,179.153,1.0
2.1666,128.181896,37.962524,6983.868379200001,166.519,-2.898,179.132,1.0
2.1833,128.181897,37.962477,6983.562664800001,169.246,-2.894,179.112,1.0
2.2,128.181897,37.962431,6983.2554264,171.977,-2.889,179.092,1.0
2.2166,128.181898,37.962384,6982.947273600001,174.709,-2.883,179.073,1.0
2.2333,128.181898,37.962337,6982.637596800001,177.444,-2.877,179.056,1.0
2.25,128.181899,37.962291,6982.326396,-179.819,-2.87,179.039,1.0
2.2666,128.181899,37.962244,6982.0142808,-177.082,-2.863,179.023,1.0
2.2833,128.1819,37.962197,6981.7006416,-174.345,-2.854,179.007,1.0
2.3,128.1819,37.96215,6981.3854784000005,-171.608,-2.845,178.993,1.0
2.3166,128.1819,37.962103,6981.069096,-168.872,-2.835,178.98,1.0
2.3333,128.181901,37.962057,6980.7514944,-166.137,-2.825,178.968,1.0
2.35,128.181901,37.96201,6980.4323688,-163.404,-2.813,178.957,1.0
2.3666,128.181902,37.961963,6980.1117192,-160.672,-2.801,178.947,1.0
2.3833,128.181902,37.961916,6979.789545600001,-157.944,-2.789,178.938,1.0
2.4,128.181903,37.961869,6979.465848,-155.218,-2.775,178.93,1.0
2.4166,128.181903,37.961822,6979.1406264,-152.495,-2.761,178.924,1.0
2.4333,128.181904,37.961775,6978.8135760000005,-149.97,-2.757,178.939,1.0
2.45,128.181904,37.961728,6978.484392,-147.635,-2.765,178.973,1.0
2.4666,128.181905,37.961682,6978.1524648,-145.497,-2.78,179.019,1.0
2.4833,128.181905,37.961635,6977.8171848,-143.559,-2.798,179.071,1.0
2.5,128.181906,37.961588,6977.478856800001,-141.819,-2.82,179.123,1.0
2.5166,128.181906,37.961541,6977.1368712,-140.273,-2.842,179.175,1.0
2.5333,128.181907,37.961494,6976.791228000001,-138.915,-2.866,179.225,1.0
2.55,128.181907,37.961447,6976.4419272000005,-137.737,-2.891,179.272,1.0
2.5666,128.181908,37.9614,6976.0880544,-136.731,-2.917,179.316,1.0
2.5833,128.181908,37.961353,6975.730219200001,-135.891,-2.945,179.357,1.0
2.6,128.181909,37.961306,6975.3678119999995,-135.21,-2.974,179.395,1.0
2.6166,128.181909,37.961259,6975.0008328,-134.681,-3.005,179.431,1.0
2.6333,128.18191,37.961212,6974.628976800001,-134.299,-3.037,179.464,1.0
2.65,128.181911,37.961165,6974.2525488,-134.056,-3.071,179.495,1.0
2.6666,128.181911,37.961118,6973.8706344,-133.948,-3.106,179.522,1.0
2.6833,128.181912,37.961071,6973.4838432,-133.969,-3.142,179.548,1.0
2.7,128.181913,37.961024,6973.091565600001,-134.114,-3.179,179.571,1.0
2.7166,128.181913,37.960977,6972.6934968000005,-134.378,-3.217,179.591,1.0
2.7333,128.181914,37.96093,6972.290551200001,-134.756,-3.257,179.609,1.0
2.75,128.181915,37.960882,6971.8821192000005,-135.243,-3.297,179.625,1.0
2.7666,128.181916,37.960835,6971.468200800001,-135.836,-3.338,179.64,1.0
2.7833,128.181917,37.960788,6971.049405600001,-136.53,-3.38,179.652,1.0
2.8,128.181918,37.960741,6970.625124000001,-137.321,-3.423,179.663,1.0
2.8166,128.181918,37.960694,6970.195965600001,-138.204,-3.466,179.673,1.0
2.8333,128.181919,37.960647,6969.7613208,-139.176,-3.51,179.681,1.0
2.85,128.18192,37.9606,6969.3214944,-140.233,-3.554,179.688,1.0
2.8666,128.181921,37.960553,6968.876181600001,-141.371,-3.6,179.694,1.0
2.8833,128.181922,37.960506,6968.425992,-142.587,-3.645,179.7,1.0
2.9,128.181924,37.960459,6967.970316,-143.877,-3.691,179.704,1.0
2.9166,128.181925,37.960412,6967.5094584,-145.239,-3.738,179.708,1.0
2.9333,128.181926,37.960365,6967.0431144,-146.668,-3.784,179.712,1.0
2.95,128.181927,37.960318,6966.5715887999995,-148.161,-3.831,179.716,1.0
2.9666,128.181928,37.960271,6966.0948816,-149.716,-3.878,179.719,1.0
2.9833,128.181929,37.960224,6965.612688000001,-151.329,-3.925,179.722,1.0
3.0,128.18193,37.960177,6965.1247032,-152.998,-3.973,179.726,1.0
3.0166,128.181932,37.96013,6964.6315368000005,-154.719,-4.02,179.729,1.0
3.0333,128.181933,37.960083,6964.132884000001,-156.49,-4.067,179.733,1.0
3.05,128.181934,37.960036,6963.6287448,-158.309,-4.115,179.737,1.0
3.0666,128.181935,37.959989,6963.119119200001,-160.171,-4.162,179.742,1.0
3.0833,128.181936,37.959942,6962.6037024,-162.076,-4.208,179.747,1.0
3.1,128.181938,37.959895,6962.0827992,-164.02,-4.255,179.752,1.0
3.1166,128.181939,37.959848,6961.556104800001,-166.001,-4.301,179.758,1.0
3.1333,128.18194,37.9598,6961.023924000001,-168.017,-4.346,179.765,1.0
3.15,128.181942,37.959753,6960.485952000001,-170.065,-4.391,179.772,1.0
3.1666,128.181943,37.959706,6959.941884000001,-172.144,-4.435,179.78,1.0
3.1833,128.181944,37.959659,6959.392329599999,-174.25,-4.479,179.789,1.0
3.2,128.181946,37.959612,6958.8369840000005,-176.383,-4.521,179.798,1.0
3.2166,128.181947,37.959565,6958.275542400001,-178.539,-4.563,179.808,1.0
3.2333,128.181948,37.959518,6957.7086144,179.281,-4.604,179.819,1.0
3.25,128.181949,37.959471,6957.1352856,177.082,-4.643,179.83,1.0
3.2666,128.181951,37.959424,6956.556470400001,174.865,-4.682,179.842,1.0
3.2833,128.181952,37.959377,6955.9715592,172.63,-4.719,179.854,1.0
3.3,128.181953,37.95933,6955.3805520000005,170.381,-4.756,179.866,1.0
3.3166,128.181955,37.959283,6954.7837536,168.119,-4.79,179.879,1.0
3.3333,128.181956,37.959236,6954.1811640000005,165.844,-4.824,179.892,1.0
3.35,128.181957,37.959189,6953.5721736000005,163.56,-4.856,179.906,1.0
3.3666,128.181958,37.959142,6952.957696800001,161.266,-4.887,179.919,1.0
3.3833,128.18196,37.959095,6952.337124000001,158.964,-4.916,179.933,1.0
3.4,128.181961,37.959048,6951.7104552,156.656,-4.944,179.947,1.0
3.4166,128.181962,37.959001,6951.0783,154.343,-4.97,179.96,1.0
3.4333,128.181963,37.958954,6950.4400488,152.026,-4.995,179.973,1.0
3.45,128.181964,37.958907,6949.796006400001,149.706,-5.019,179.986,1.0
3.4666,128.181965,37.95886,6949.1461728,147.384,-5.041,179.999,1.0
3.4833,128.181967,37.958812,6948.490548,145.061,-5.061,180.011,1.0
3.5,128.181968,37.958765,6947.829436800001,142.738,-5.08,180.022,1.0
3.5166,128.181969,37.958718,6947.164668,140.615,-5.113,180.014,1.0
3.5333,128.18197,37.958671,6946.4950224,138.685,-5.16,179.986,1.0
3.55,128.181971,37.958624,6945.8211096,136.955,-5.216,179.947,1.0
3.5666,128.181972,37.958577,6945.142624800001,135.429,-5.275,179.903,1.0
3.5833,128.181973,37.95853,6944.460482400001,134.108,-5.334,179.858,1.0
3.6,128.181973,37.958483,6943.774377600001,132.985,-5.393,179.814,1.0
3.6166,128.181974,37.958436,6943.084920000001,132.055,-5.451,179.772,1.0
3.6333,128.181975,37.958389,6942.3924144,131.308,-5.508,179.732,1.0
3.65,128.181976,37.958342,6941.696556000001,130.738,-5.564,179.694,1.0
3.6666,128.181977,37.958295,6940.997954400001,130.337,-5.62,179.659,1.0
3.6833,128.181978,37.958247,6940.296914400001,130.096,-5.675,179.625,1.0
3.7,128.181979,37.9582,6939.5931312,130.01,-5.729,179.592,1.0
3.7166,128.18198,37.958153,6938.8875192000005,130.071,-5.783,179.561,1.0
3.7333,128.181981,37.958106,6938.180078400001,130.274,-5.836,179.531,1.0
3.75,128.181982,37.958059,6937.470808800001,130.612,-5.888,179.502,1.0
3.7666,128.181982,37.958011,6936.759710400001,131.079,-5.939,179.473,1.0
3.7833,128.181983,37.957964,6936.047697600001,131.669,-5.989,179.446,1.0
3.8,128.181984,37.957917,6935.334465600001,132.378,-6.038,179.418,1.0
3.8166,128.181985,37.95787,6934.6200144,133.2,-6.086,179.391,1.0
3.8333,128.181986,37.957822,6933.9040392,134.13,-6.132,179.365,1.0
3.85,128.181987,37.957775,6933.1871496,135.163,-6.178,179.338,1.0
3.8666,128.181988,37.957728,6932.469040800001,136.294,-6.222,179.312,1.0
3.8833,128.181989,37.95768,6931.7497128,137.519,-6.266,179.286,1.0
3.9,128.18199,37.957633,6931.029165600001,138.834,-6.308,179.26,1.0
3.9166,128.181991,37.957586,6930.307704,140.234,-6.349,179.234,1.0
3.9333,128.181992,37.957538,6929.585328,141.716,-6.388,179.208,1.0
3.95,128.181994,37.957491,6928.861732800001,143.275,-6.427,179.183,1.0
3.9666,128.181995,37.957443,6928.1369184000005,144.909,-6.464,179.157,1.0
3.9833,128.181996,37.957396,6927.4114944,146.613,-6.501,179.131,1.0
4.0,128.181997,37.957348,6926.6851560000005,148.384,-6.536,179.105,1.0
4.0166,128.181998,37.957301,6925.9579032,150.218,-6.57,179.079,1.0
4.0333,128.181999,37.957253,6925.229736,152.114,-6.602,179.053,1.0
4.05,128.182,37.957206,6924.500959200001,154.066,-6.634,179.027,1.0
4.0666,128.182001,37.957158,6923.771268,156.073,-6.664,179.001,1.0
4.0833,128.182003,37.957111,6923.0406624,158.132,-6.693,178.975,1.0
4.1,128.182004,37.957063,6922.309447200001,160.239,-6.72,178.949,1.0
4.1166,128.182005,37.957015,6921.5776224,162.393,-6.746,178.922,1.0
4.1333,128.182006,37.956968,6920.845188000001,164.59,-6.771,178.896,1.0
4.15,128.182007,37.95692,6920.1118392,166.828,-6.795,178.87,1.0
4.1666,128.182009,37.956872,6919.3778808,169.104,-6.817,178.844,1.0
4.1833,128.18201,37.956825,6918.6433128,171.417,-6.837,178.818,1.0
4.2,128.182011,37.956777,6917.9078304,173.764,-6.856,178.792,1.0
4.2166,128.182012,37.956729,6917.171738400001,176.142,-6.874,178.767,1.0
4.2333,128.182013,37.956682,6916.4350368000005,178.55,-6.89,178.741,1.0
4.25,128.182014,37.956634,6915.6977256,-179.014,-6.904,178.716,1.0
4.2666,128.182016,37.956586,6914.9595,-176.553,-6.916,178.691,1.0
4.2833,128.182017,37.956538,6914.22036,-174.068,-6.927,178.667,1.0
4.3,128.182018,37.95649,6913.480610400001,-171.562,-6.936,178.643,1.0
4.3166,128.182019,37.956442,6912.7396416,-169.036,-6.944,178.62,1.0
4.3333,128.18202,37.956395,6911.9974536,-166.701,-6.955,178.623,1.0
4.35,128.182022,37.956347,6911.253132000001,-164.552,-6.971,178.651,1.0
4.3666,128.182023,37.956299,6910.5069816000005,-162.598,-6.991,178.693,1.0
4.3833,128.182024,37.956251,6909.757783200001,-160.843,-7.013,178.741,1.0
4.4,128.182025,37.956203,6909.0055368,-159.288,-7.035,178.79,1.0
4.4166,128.182026,37.956155,6908.2502424,-157.928,-7.057,178.837,1.0
4.4333,128.182028,37.956107,6907.4912904,-156.755,-7.08,178.881,1.0
4.45,128.182029,37.956059,6906.728376,-155.762,-7.105,178.922,1.0
4.4666,128.18203,37.956011,6905.9614992,-154.94,-7.131,178.961,1.0
4.4833,128.182031,37.955963,6905.1900504000005,-154.283,-7.159,178.998,1.0
4.5,128.182032,37.955915,6904.4140296,-153.782,-7.188,179.032,1.0
4.5166,128.182034,37.955867,6903.633132000001,-153.432,-7.219,179.065,1.0
4.5333,128.182035,37.955819,6902.8473576,-153.226,-7.251,179.096,1.0
4.55,128.182036,37.955771,6902.055792000001,-153.159,-7.285,179.125,1.0
4.5666,128.182037,37.955723,6901.25874,-153.224,-7.32,179.152,1.0
4.5833,128.182039,37.955675,6900.455896800001,-153.415,-7.356,179.178,1.0
4.6,128.18204,37.955627,6899.6469576,-153.729,-7.393,179.202,1.0
4.6166,128.182041,37.955579,6898.8313128,-154.159,-7.432,179.225,1.0
4.6333,128.182043,37.955531,6898.010181600001,-154.701,-7.472,179.246,1.0
4.65,128.182044,37.955483,6897.1829544,-155.349,-7.513,179.266,1.0
4.6666,128.182045,37.955435,6896.3496312,-156.1,-7.554,179.285,1.0
4.6833,128.182047,37.955387,6895.510212,-156.948,-7.596,179.303,1.0
4.7,128.182048,37.955339,6894.6650016,-157.89,-7.639,179.32,1.0
4.7166,128.18205,37.955291,6893.814,-158.921,-7.683,179.336,1.0
4.7333,128.182051,37.955243,6892.9569024,-160.037,-7.727,179.352,1.0
4.75,128.182053,37.955195,6892.0940136,-161.234,-7.771,179.368,1.0
4.7666,128.182054,37.955147,6891.2250288000005,-162.509,-7.816,179.383,1.0
4.7833,128.182056,37.955099,6890.3502528,-163.857,-7.861,179.398,1.0
4.8,128.182057,37.955051,6889.4693808,-165.275,-7.905,179.412,1.0
4.8166,128.182059,37.955003,6888.5827176,-166.759,-7.95,179.427,1.0
4.8333,128.18206,37.954955,6887.6902632,-168.307,-7.995,179.442,1.0
4.85,128.182062,37.954907,6886.7917128,-169.914,-8.04,179.457,1.0
4.8666,128.182063,37.954859,6885.8873712,-171.579,-8.084,179.472,1.0
4.8833,128.182065,37.954811,6884.976933600001,-173.296,-8.127,179.487,1.0
4.9,128.182066,37.954763,6884.0604,-175.064,-8.171,179.503,1.0
4.9166,128.182068,37.954715,6883.1380752,-176.88,-8.213,179.518,1.0
4.9333,128.182069,37.954667,6882.2096544000005,-178.74,-8.255,179.535,1.0
4.95,128.182071,37.954619,6881.2754424,179.356,-8.296,179.551,1.0
4.9666,128.182072,37.954571,6880.3348295999995,177.414,-8.337,179.568,1.0
4.9833,128.182074,37.954524,6879.3884256,175.436,-8.376,179.585,1.0
5.0,128.182075,37.954476,6878.4359256,173.423,-8.414,179.603,1.0
5.0166,128.182077,37.954428,6877.477329599999,171.378,-8.451,179.621,1.0
5.0333,128.182078,37.95438,6876.512637600001,169.303,-8.487,179.639,1.0
5.05,128.18208,37.954332,6875.5433736,167.418,-8.527,179.63,1.0
5.0666,128.182081,37.954284,6874.568928000001,165.716,-8.572,179.595,1.0
5.0833,128.182083,37.954236,6873.589605600001,164.208,-8.62,179.545,1.0
5.1,128.182084,37.954188,6872.606016,162.9,-8.668,179.489,1.0
5.1166,128.182086,37.95414,6871.6181592,161.792,-8.716,179.434,1.0
5.1333,128.182087,37.954092,6870.626644800001,160.878,-8.764,179.382,1.0
5.15,128.182088,37.954044,6869.631472800001,160.152,-8.811,179.332,1.0
5.1666,128.18209,37.953996,6868.6332528,159.605,-8.857,179.286,1.0
5.1833,128.182091,37.953948,6867.6319848,159.229,-8.904,179.242,1.0
5.2,128.182093,37.9539,6866.6285832,159.016,-8.951,179.2,1.0
5.2166,128.182094,37.953852,6865.622438400001,158.958,-8.997,179.159,1.0
5.2333,128.182096,37.953804,6864.614769600001,159.048,-9.043,179.119,1.0
5.25,128.182097,37.953756,6863.605272,159.281,-9.089,179.081,1.0
5.2666,128.182098,37.953707,6862.5945552,159.649,-9.133,179.044,1.0
5.2833,128.1821,37.953659,6861.5826192,160.146,-9.177,179.007,1.0
5.3,128.182101,37.953611,6860.570073600001,160.767,-9.219,178.971,1.0
5.3166,128.182103,37.953563,6859.5572232,161.506,-9.26,178.936,1.0
5.3333,128.182104,37.953515,6858.5443728,162.358,-9.3,178.901,1.0
5.35,128.182106,37.953467,6857.530608,163.316,-9.338,178.867,1.0
5.3666,128.182107,37.953418,6856.516538400001,164.377,-9.375,178.833,1.0
5.3833,128.182109,37.95337,6855.501859200001,165.534,-9.41,178.8,1.0
5.4,128.18211,37.953322,6854.486570400001,166.783,-9.444,178.766,1.0
5.4166,128.182112,37.953274,6853.4709768,168.12,-9.476,178.734,1.0
5.4333,128.182113,37.953225,6852.4550784,169.541,-9.506,178.701,1.0
5.45,128.182115,37.953177,6851.438265600001,171.04,-9.535,178.668,1.0
5.4666,128.182116,37.953129,6850.421147999999,172.615,-9.562,178.636,1.0
5.4833,128.182118,37.95308,6849.4034208,174.26,-9.587,178.604,1.0
5.5,128.182119,37.953032,6848.3850840000005,175.973,-9.61,178.573,1.0
5.5166,128.182121,37.952983,6847.366137600001,177.75,-9.631,178.542,1.0
5.5333,128.182122,37.952935,6846.346581600001,179.586,-9.651,178.511,1.0
5.55,128.182124,37.952887,6845.326416,-178.519,-9.669,178.48,1.0
5.5666,128.182125,37.952838,6844.305336,-176.572,-9.685,178.45,1.0
5.5833,128.182127,37.95279,6843.2836464,-174.574,-9.699,178.421,1.0
5.6,128.182128,37.952741,6842.261347200001,-172.528,-9.711,178.392,1.0
5.6166,128.18213,37.952693,6841.238133600001,-170.438,-9.722,178.364,1.0
5.6333,128.182131,37.952644,6840.214310400001,-168.306,-9.73,178.337,1.0
5.65,128.182133,37.952595,6839.189268,-166.135,-9.737,178.31,1.0
5.6666,128.182134,37.952547,6838.163616,-163.926,-9.742,178.284,1.0
5.6833,128.182136,37.952498,6837.1361352,-161.908,-9.754,178.287,1.0
5.7,128.182138,37.952449,6836.1071304,-160.072,-9.773,178.317,1.0
5.7166,128.182139,37.952401,6835.0753824,-158.43,-9.798,178.362,1.0
5.7333,128.182141,37.952352,6834.041196,-156.988,-9.823,178.413,1.0
5.75,128.182142,37.952303,6833.0036568000005,-155.747,-9.849,178.463,1.0
5.7666,128.182144,37.952255,6831.9630696,-154.701,-9.875,178.511,1.0
5.7833,128.182145,37.952206,6830.918520000001,-153.841,-9.901,178.555,1.0
5.8,128.182147,37.952157,6829.870008,-153.16,-9.928,178.596,1.0
5.8166,128.182148,37.952109,6828.8175336,-152.648,-9.956,178.635,1.0
5.8333,128.18215,37.95206,6827.7601824,-152.297,-9.985,178.672,1.0
5.85,128.182151,37.952011,6826.698564,-152.101,-10.015,178.706,1.0
5.8666,128.182153,37.951963,6825.631764000001,-152.053,-10.046,178.74,1.0
5.8833,128.182154,37.951914,6824.559782400001,-152.146,-10.079,178.771,1.0
5.9,128.182156,37.951865,6823.4823144,-152.374,-10.113,178.801,1.0
5.9166,128.182158,37.951816,6822.3990552000005,-152.731,-10.148,178.829,1.0
5.9333,128.182159,37.951768,6821.309700000001,-153.213,-10.184,178.856,1.0
5.95,128.182161,37.951719,6820.2142488,-153.812,-10.221,178.881,1.0
5.9666,128.182162,37.95167,6819.112396800001,-154.525,-10.259,178.905,1.0
5.9833,128.182164,37.951622,6818.0044488,-155.345,-10.298,178.927,1.0
6.0,128.182166,37.951573,6816.8904048,-156.269,-10.338,178.949,1.0
6.0166,128.182168,37.951524,6815.7699600000005,-157.291,-10.379,178.969,1.0
6.0333,128.182169,37.951476,6814.6437240000005,-158.407,-10.42,178.989,1.0
6.05,128.182171,37.951427,6813.511392,-159.613,-10.461,179.008,1.0
6.0666,128.182173,37.951378,6812.372964,-160.904,-10.504,179.027,1.0
6.0833,128.182175,37.95133,6811.2287448,-162.276,-10.546,179.045,1.0
6.1,128.182176,37.951281,6810.078124800001,-163.726,-10.589,179.063,1.0
6.1166,128.182178,37.951233,6808.921713600001,-165.248,-10.632,179.081,1.0
6.1333,128.18218,37.951184,6807.759206400001,-166.84,-10.675,179.098,1.0
6.15,128.182182,37.951135,6806.5906032,-168.498,-10.718,179.116,1.0
6.1666,128.182184,37.951087,6805.415904,-170.218,-10.761,179.134,1.0
6.1833,128.182186,37.951038,6804.2354136,-171.997,-10.803,179.152,1.0
6.2,128.182187,37.95099,6803.0485224,-173.831,-10.846,179.17,1.0
6.2166,128.182189,37.950941,6801.85584,-175.717,-10.887,179.188,1.0
6.2333,128.182191,37.950892,6800.6570616,-177.653,-10.928,179.207,1.0
6.25,128.182193,37.950844,6799.453101600001,-179.404,-10.968,179.195,1.0
6.2666,128.182195,37.950795,6798.244264800001,179.023,-11.007,179.154,1.0
6.2833,128.182197,37.950747,6797.0305512,177.641,-11.045,179.097,1.0
6.3,128.182198,37.950698,6795.812570400001,176.458,-11.083,179.035,1.0
6.3166,128.1822,37.95065,6794.5906272,175.474,-11.121,178.975,1.0
6.3333,128.182202,37.950601,6793.3647216,174.683,-11.159,178.919,1.0
6.35,128.182204,37.950553,6792.135768,174.077,-11.198,178.866,1.0
6.3666,128.182206,37.950504,6790.9040712,173.648,-11.238,178.817,1.0
6.3833,128.182207,37.950456,6789.6696312,173.386,-11.277,178.77,1.0
6.4,128.182209,37.950407,6788.4327528,173.283,-11.318,178.724,1.0
6.4166,128.182211,37.950358,6787.1940456,173.332,-11.358,178.68,1.0
6.4333,128.182213,37.95031,6785.953814400001,173.526,-11.398,178.637,1.0
6.45,128.182215,37.950261,6784.7120592,173.858,-11.437,178.595,1.0
6.4666,128.182216,37.950213,6783.4693896,174.322,-11.475,178.554,1.0
6.4833,128.182218,37.950164,6782.226110400001,174.911,-11.513,178.514,1.0
6.5,128.18222,37.950115,6780.9828312,175.621,-11.549,178.475,1.0
6.5166,128.182222,37.950067,6779.739247200001,176.444,-11.584,178.436,1.0
6.5333,128.182224,37.950018,6778.495968,177.375,-11.617,178.398,1.0
6.55,128.182226,37.949969,6777.2520792000005,178.41,-11.648,178.361,1.0
6.5666,128.182227,37.949921,6776.008495200001,179.542,-11.678,178.325,1.0
6.5833,128.182229,37.949872,6774.764301600001,-179.232,-11.706,178.289,1.0
6.6,128.182231,37.949823,6773.520108,-177.919,-11.732,178.253,1.0
6.6166,128.182233,37.949775,6772.2759144,-176.523,-11.757,178.219,1.0
6.6333,128.182235,37.949726,6771.029587200001,-175.294,-11.797,178.204,1.0
6.65,128.182237,37.949677,6769.7811264,-174.227,-11.87,178.208,1.0
6.6666,128.182238,37.949628,6768.5299224,-173.317,-11.993,178.224,1.0
6.6833,128.18224,37.94958,6767.275060800001,-172.569,-12.179,178.242,1.0
6.7,128.182242,37.949531,6766.0153224000005,-171.982,-12.442,178.254,1.0
6.7166,128.182244,37.949482,6764.749488,-171.555,-12.789,178.254,1.0
6.7333,128.182246,37.949433,6763.4775576,-171.284,-13.205,178.24,1.0
6.75,128.182248,37.949385,6762.1980072,-171.163,-13.67,178.214,1.0
6.7666,128.18225,37.949336,6760.9102272,-171.185,-14.163,178.18,1.0
6.7833,128.182251,37.949287,6759.6133032,-171.342,-14.664,178.143,1.0
6.8,128.182253,37.949239,6758.3069304,-171.627,-15.152,178.106,1.0
6.8166,128.182255,37.94919,6756.9901944,-172.035,-15.606,178.074,1.0
6.8333,128.182257,37.949141,6755.6624856,-172.558,-16.013,178.05,1.0
6.85,128.182259,37.949093,6754.3228896,-173.19,-16.378,178.034,1.0
6.8666,128.182261,37.949044,6752.970492,-173.925,-16.71,178.025,1.0
6.8833,128.182263,37.948996,6751.604988000001,-174.757,-17.021,178.022,1.0
6.9,128.182265,37.948947,6750.225768,-175.683,-17.316,178.025,1.0
6.9166,128.182267,37.948899,6748.8322224,-176.697,-17.601,178.033,1.0
6.9333,128.182269,37.94885,6747.424656000001,-177.795,-17.879,178.047,1.0
6.95,128.182271,37.948802,6746.002764000001,-178.976,-18.152,178.067,1.0
6.9666,128.182273,37.948754,6744.5662416000005,179.764,-18.422,178.093,1.0
6.9833,128.182275,37.948705,6743.114784000001,178.43,-18.69,178.125,1.0
7.0,128.182277,37.948657,6741.648696,177.023,-18.957,178.164,1.0
7.0166,128.182279,37.948609,6740.167368,175.545,-19.224,178.21,1.0
7.0333,128.182281,37.948561,6738.670800000001,174.0,-19.491,178.265,1.0
7.05,128.182283,37.948512,6737.1592968,172.39,-19.76,178.327,1.0
7.0666,128.182285,37.948464,6735.6322488,170.715,-20.029,178.399,1.0
7.0833,128.182287,37.948416,6734.089656000001,168.979,-20.3,178.48,1.0
7.1,128.182288,37.948368,6732.5312136,167.184,-20.573,178.572,1.0
7.1166,128.18229,37.94832,6730.957531200001,165.33,-20.847,178.675,1.0
7.1333,128.182292,37.948273,6729.3679992,163.419,-21.122,178.79,1.0
7.15,128.182294,37.948225,6727.7626176,161.452,-21.399,178.918,1.0
7.1666,128.182295,37.948177,6726.1416912,159.432,-21.677,179.059,1.0
7.1833,128.182297,37.948129,6724.5046104,157.358,-21.956,179.214,1.0
7.2,128.182299,37.948082,6722.8519848,155.233,-22.234,179.383,1.0
7.2166,128.1823,37.948034,6721.185033600001,153.09,-22.509,179.565,1.0
7.2333,128.182302,37.947986,6719.503147200001,150.965,-22.778,179.753,1.0
7.25,128.182303,37.947939,6717.80724,148.888,-23.039,179.947,1.0
7.2666,128.182304,37.947891,6716.097312,146.886,-23.29,180.145,1.0
7.2833,128.182306,37.947844,6714.374277600001,144.975,-23.531,180.346,1.0
7.3,128.182307,37.947796,6712.6384416,143.169,-23.762,180.553,1.0
7.3166,128.182308,37.947749,6710.8907184,141.531,-23.976,180.739,1.0
7.3333,128.182309,37.947702,6709.1311080000005,140.065,-24.157,180.898,1.0
7.35,128.18231,37.947654,6707.3602200000005,138.716,-24.283,181.027,1.0
7.3666,128.182311,37.947607,6705.5768352000005,137.328,-24.335,181.124,1.0
7.3833,128.182311,37.94756,6703.7830872,135.904,-24.304,181.17,1.0
7.4,128.182312,37.947513,6701.9786712,134.438,-24.198,181.155,1.0
7.4166,128.182313,37.947465,6700.163587200001,132.915,-24.039,181.09,1.0
7.4333,128.182313,37.947418,6698.3387496000005,131.326,-23.846,180.986,1.0
7.45,128.182314,37.947371,6696.5041584,129.661,-23.637,180.858,1.0
7.4666,128.182314,37.947324,6694.660728000001,127.913,-23.429,180.723,1.0
7.4833,128.182314,37.947277,6692.8078488,126.075,-23.236,180.599,1.0
7.5,128.182314,37.94723,6690.94674,124.14,-23.071,180.504,1.0
7.5166,128.182314,37.947183,6689.0774016000005,122.102,-22.942,180.455,1.0
7.5333,128.182314,37.947136,6687.200443199999,119.959,-22.855,180.467,1.0
7.55,128.182314,37.947089,6685.316169600001,117.712,-22.808,180.546,1.0
7.5666,128.182314,37.947042,6683.4248856,115.368,-22.793,180.683,1.0
7.5833,128.182314,37.946996,6681.5265912,112.935,-22.798,180.867,1.0
7.6,128.182313,37.946949,6679.621896000001,110.426,-22.815,181.083,1.0
7.6166,128.182313,37.946902,6677.7114096000005,107.852,-22.832,181.314,1.0
7.6333,128.182312,37.946855,6675.7948272,105.223,-22.844,181.55,1.0
7.65,128.182311,37.946808,6673.8727584,102.545,-22.848,181.784,1.0
7.6666,128.182311,37.946762,6671.945508,99.824,-22.842,182.017,1.0
7.6833,128.18231,37.946715,6670.0133808,97.062,-22.828,182.247,1.0
7.7,128.182309,37.946668,6668.0772912,94.269,-22.801,182.456,1.0
7.7166,128.182308,37.946622,6666.1369343999995,91.455,-22.763,182.624,1.0
7.7333,128.182306,37.946575,6664.1935296,88.628,-22.716,182.734,1.0
7.75,128.182305,37.946528,6662.246772,85.792,-22.665,182.778,1.0
7.7666,128.182304,37.946482,6660.297576,82.942,-22.612,182.772,1.0
7.7833,128.182302,37.946435,6658.345636800001,80.069,-22.56,182.737,1.0
7.8,128.182301,37.946389,6656.3918688,77.167,-22.509,182.688,1.0
7.8166,128.182299,37.946342,6654.436272,74.231,-22.459,182.634,1.0
7.8333,128.182298,37.946295,6652.479456000001,71.26,-22.412,182.578,1.0
7.85,128.182296,37.946249,6650.5214208,68.253,-22.368,182.522,1.0
7.8666,128.182294,37.946202,6648.5624712,65.212,-22.327,182.469,1.0
7.8833,128.182292,37.946156,6646.6026071999995,62.141,-22.289,182.417,1.0
7.9,128.18229,37.946109,6644.6418288,59.045,-22.253,182.37,1.0
7.9166,128.182288,37.946063,6642.680440800001,55.929,-22.219,182.327,1.0
7.9333,128.182286,37.946016,6640.7199672,53.003,-22.208,182.306,1.0
7.95,128.182284,37.94597,6638.758274400001,50.261,-22.219,182.308,1.0
7.9666,128.182282,37.945923,6636.7950576,47.718,-22.24,182.325,1.0
7.9833,128.18228,37.945877,6634.8303168,45.385,-22.265,182.348,1.0
8.0,128.182278,37.94583,6632.863747200001,43.265,-22.287,182.375,1.0
8.0166,128.182276,37.945784,6630.8947392,41.353,-22.305,182.404,1.0
8.0333,128.182274,37.945737,6628.923292800001,39.641,-22.318,182.433,1.0
8.05,128.182272,37.94569,6626.949408,38.121,-22.328,182.463,1.0
8.0666,128.182269,37.945644,6624.972170400001,36.798,-22.314,182.498,1.0
8.0833,128.182267,37.945597,6622.9924944,35.66,-22.265,182.547,1.0
8.1,128.182265,37.945551,6621.01038,34.684,-22.169,182.625,1.0
8.1166,128.182263,37.945504,6619.026132,33.851,-22.017,182.744,1.0
8.1333,128.182261,37.945458,6617.0400552,33.141,-21.799,182.915,1.0
8.15,128.182258,37.945411,6615.0524544,32.53,-21.505,183.138,1.0
8.1666,128.182256,37.945365,6613.0645488,32.001,-21.13,183.414,1.0
8.1833,128.182254,37.945318,6611.0772528,31.543,-20.685,183.728,1.0
8.2,128.182252,37.945272,6609.0914808,31.144,-20.185,184.072,1.0
8.2166,128.182249,37.945225,6607.107537600001,30.795,-19.648,184.431,1.0
8.2333,128.182247,37.945179,6605.1269472,30.49,-19.096,184.792,1.0
8.25,128.182244,37.945132,6603.1500144,30.225,-18.547,185.142,1.0
8.2666,128.182242,37.945086,6601.177044,29.996,-18.022,185.471,1.0
8.2833,128.182239,37.945039,6599.2092552,29.798,-17.542,185.767,1.0
8.3,128.182237,37.944992,6597.246648,29.629,-17.117,186.025,1.0
8.3166,128.182234,37.944946,6595.2886128,29.583,-16.769,186.243,1.0
8.3333,128.182231,37.944899,6593.3354544,29.653,-16.486,186.431,1.0
8.35,128.182228,37.944852,6591.3871728,29.837,-16.253,186.594,1.0
8.3666,128.182226,37.944806,6589.4440728,30.131,-16.056,186.738,1.0
8.3833,128.182223,37.944759,6587.5055448,30.532,-15.88,186.869,1.0
8.4,128.18222,37.944712,6585.5715887999995,31.033,-15.715,186.995,1.0
8.4166,128.182217,37.944665,6583.6422048,31.629,-15.559,187.117,1.0
8.4333,128.182213,37.944619,6581.717088,32.316,-15.409,187.238,1.0
8.45,128.18221,37.944572,6579.7980672,33.076,-15.263,187.357,1.0
8.4666,128.182207,37.944525,6577.884532800001,33.892,-15.122,187.475,1.0
8.4833,128.182204,37.944478,6575.977704,34.747,-14.982,187.593,1.0
8.5,128.1822,37.944431,6574.077276,35.627,-14.845,187.71,1.0
8.5166,128.182197,37.944384,6572.1838584,36.52,-14.708,187.829,1.0
8.5333,128.182193,37.944337,6570.297756000001,37.414,-14.572,187.95,1.0
8.55,128.182189,37.944291,6568.418968800001,38.3,-14.436,188.074,1.0
8.5666,128.182186,37.944244,6566.547801600001,39.171,-14.3,188.203,1.0
8.5833,128.182182,37.944197,6564.6845592,40.022,-14.164,188.335,1.0
8.6,128.182178,37.94415,6562.8289368000005,40.848,-14.027,188.472,1.0
8.6166,128.182173,37.944103,6560.9812392,41.646,-13.892,188.612,1.0
8.6333,128.182169,37.944056,6559.1411616,42.414,-13.759,188.755,1.0
8.65,128.182165,37.944009,6557.3090088,43.151,-13.631,188.899,1.0
8.6666,128.18216,37.943962,6555.4847808,43.856,-13.507,189.042,1.0
8.6833,128.182156,37.943914,6553.6684776,44.529,-13.389,189.186,1.0
8.7,128.182151,37.943867,6551.8597944,45.17,-13.275,189.33,1.0
8.7166,128.182146,37.94382,6550.059036000001,45.779,-13.165,189.474,1.0
8.7333,128.182141,37.943773,6548.265897600001,46.357,-13.06,189.618,1.0
8.75,128.182136,37.943726,6546.480379200001,46.906,-12.959,189.761,1.0
8.7666,128.182131,37.943679,6544.7027856,47.425,-12.862,189.905,1.0
8.7833,128.182125,37.943632,6542.9325072,47.917,-12.768,190.049,1.0
8.8,128.18212,37.943585,6541.169544,48.382,-12.677,190.194,1.0
8.8166,128.182114,37.943538,6539.414505600001,48.822,-12.589,190.338,1.0
8.8333,128.182109,37.94349,6537.665868,49.319,-12.508,190.487,1.0
8.85,128.182103,37.943443,6535.9242408,49.869,-12.435,190.64,1.0
8.8666,128.182097,37.943396,6534.1884048,50.459,-12.366,190.794,1.0
8.8833,128.182091,37.943349,6532.4583600000005,51.079,-12.299,190.948,1.0
8.9,128.182084,37.943302,6530.7350208,51.714,-12.233,191.1,1.0
8.9166,128.182078,37.943254,6529.018387200001,52.352,-12.168,191.252,1.0
8.9333,128.182071,37.943207,6527.3084592000005,52.981,-12.102,191.402,1.0
8.95,128.182065,37.94316,6525.604932,53.592,-12.038,191.552,1.0
8.9666,128.182058,37.943113,6523.9084152000005,54.176,-11.975,191.702,1.0
8.9833,128.182051,37.943066,6522.218604000001,54.727,-11.913,191.852,1.0
9.0,128.182044,37.943018,6520.5351936,55.244,-11.852,192.002,1.0
9.0166,128.182036,37.942971,6518.858793599999,55.722,-11.792,192.153,1.0
9.0333,128.182029,37.942924,6517.1884896,56.163,-11.734,192.306,1.0
9.05,128.182021,37.942877,6515.524891200001,56.566,-11.676,192.459,1.0
9.0666,128.182014,37.942829,6513.867388799999,56.934,-11.62,192.614,1.0
9.0833,128.182006,37.942782,6512.216287200001,57.27,-11.564,192.769,1.0
9.1,128.181998,37.942735,6510.570976800001,57.576,-11.507,192.924,1.0
9.1166,128.18199,37.942688,6508.9320672,57.855,-11.45,193.079,1.0
9.1333,128.181981,37.942641,6507.2980344,58.044,-11.389,193.213,1.0
9.15,128.181973,37.942593,6505.6704024,58.151,-11.335,193.31,1.0
9.1666,128.181964,37.942546,6504.0488663999995,58.17,-11.299,193.36,1.0
9.1833,128.181955,37.942499,6502.4337312,58.097,-11.279,193.377,1.0
9.2,128.181946,37.942452,6500.825606400001,57.927,-11.271,193.374,1.0
9.2166,128.181937,37.942405,6499.2241872,57.66,-11.267,193.365,1.0
9.2333,128.181928,37.942357,6497.629778400001,57.298,-11.264,193.357,1.0
9.25,128.181918,37.94231,6496.0420752,56.844,-11.259,193.353,1.0
9.2666,128.181909,37.942263,6494.4607728,56.301,-11.251,193.354,1.0
9.2833,128.181899,37.942216,6492.8867856,55.672,-11.237,193.363,1.0
9.3,128.181889,37.942169,6491.3191992,54.96,-11.217,193.381,1.0
9.3166,128.181879,37.942121,6489.759537600001,54.37,-11.223,193.409,1.0
9.3333,128.181868,37.942074,6488.2056672,53.901,-11.261,193.436,1.0
9.35,128.181858,37.942027,6486.657283200001,53.568,-11.324,193.457,1.0
9.3666,128.181848,37.94198,6485.1140808,53.378,-11.398,193.472,1.0
9.3833,128.181837,37.941933,6483.575450400001,53.336,-11.477,193.48,1.0
9.4,128.181826,37.941886,6482.041392000001,53.44,-11.557,193.485,1.0
9.4166,128.181816,37.941838,6480.510991200001,53.683,-11.635,193.487,1.0
9.4333,128.181805,37.941791,6478.984248,54.061,-11.71,193.489,1.0
9.45,128.181794,37.941744,6477.460247999999,54.566,-11.784,193.491,1.0
9.4666,128.181783,37.941697,6475.938991200001,55.195,-11.856,193.495,1.0
9.4833,128.181771,37.94165,6474.420172800001,55.941,-11.925,193.501,1.0
9.5,128.18176,37.941602,6472.9028784,56.8,-11.991,193.511,1.0
9.5166,128.181749,37.941555,6471.3868032,57.768,-12.054,193.525,1.0
9.5333,128.181738,37.941508,6469.871947200001,58.841,-12.114,193.544,1.0
9.55,128.181726,37.941461,6468.3577008,60.014,-12.17,193.568,1.0
9.5666,128.181715,37.941413,6466.8437592,61.285,-12.223,193.598,1.0
9.5833,128.181703,37.941366,6465.3295128,62.649,-12.272,193.636,1.0
9.6,128.181691,37.941319,6463.8149616,64.102,-12.318,193.681,1.0
9.6166,128.18168,37.941271,6462.3001056,65.642,-12.36,193.736,1.0
9.6333,128.181668,37.941224,6460.78464,67.265,-12.4,193.8,1.0
9.65,128.181656,37.941177,6459.2688696000005,68.969,-12.436,193.874,1.0
9.6666,128.181644,37.941129,6457.7524896,70.748,-12.47,193.961,1.0
9.6833,128.181632,37.941082,6456.2351952,72.602,-12.503,194.059,1.0
9.7,128.18162,37.941035,6454.716986400001,74.527,-12.535,194.171,1.0
9.7166,128.181608,37.940987,6453.1975584,76.519,-12.566,194.296,1.0
9.7333,128.181596,37.94094,6451.6775208,78.563,-12.597,194.436,1.0
9.75,128.181584,37.940893,6450.156264,80.634,-12.627,194.591,1.0
9.7666,128.181572,37.940845,6448.634092800001,82.709,-12.657,194.762,1.0
9.7833,128.18156,37.940798,6447.1103976,84.769,-12.687,194.95,1.0
9.8,128.181547,37.940751,6445.5854832,86.794,-12.718,195.155,1.0
9.8166,128.181535,37.940703,6444.0590448,88.769,-12.752,195.377,1.0
9.8333,128.181522,37.940656,6442.531082400001,90.679,-12.791,195.616,1.0
9.85,128.181509,37.940609,6441.0009864,92.515,-12.836,195.873,1.0
9.8666,128.181496,37.940561,6439.468756800001,94.268,-12.889,196.146,1.0
9.8833,128.181483,37.940514,6437.933784000001,95.934,-12.951,196.435,1.0
9.9,128.18147,37.940467,6436.396372800001,97.509,-13.023,196.739,1.0
9.9166,128.181457,37.94042,6434.8556088000005,98.992,-13.104,197.055,1.0
9.9333,128.181443,37.940372,6433.311492000001,100.382,-13.196,197.383,1.0
9.95,128.18143,37.940325,6431.7637176,101.683,-13.299,197.72,1.0
9.9666,128.181416,37.940278,6430.211676,102.895,-13.413,198.065,1.0
9.9833,128.181402,37.940231,6428.6553672,104.024,-13.536,198.414,1.0
10.0,128.181388,37.940184,6427.0944864,105.075,-13.668,198.762,1.0
10.0166,128.181374,37.940137,6425.528424000001,106.052,-13.807,199.103,1.0
10.0333,128.18136,37.94009,6423.9574848,106.963,-13.951,199.435,1.0
10.05,128.181346,37.940043,6422.3807544,107.811,-14.1,199.755,1.0
10.0666,128.181331,37.939996,6420.798537600001,108.603,-14.253,200.064,1.0
10.0833,128.181316,37.939949,6419.2105296,109.343,-14.409,200.362,1.0
10.1,128.181302,37.939902,6417.616120799999,110.037,-14.568,200.65,1.0
10.1166,128.181287,37.939855,6416.015311200001,110.688,-14.729,200.927,1.0
10.1333,128.181271,37.939808,6414.4081008,111.302,-14.892,201.195,1.0
10.15,128.181256,37.939761,6412.7941848,111.882,-15.056,201.454,1.0
10.1666,128.181241,37.939715,6411.1732584,112.432,-15.221,201.704,1.0
10.1833,128.181225,37.939668,6409.5459312,113.044,-15.393,201.943,1.0
10.2,128.181209,37.939621,6407.9118984,113.715,-15.573,202.172,1.0
10.2166,128.181194,37.939575,6406.2705504000005,114.433,-15.756,202.393,1.0
10.2333,128.181178,37.939528,6404.622192000001,115.188,-15.939,202.606,1.0
10.25,128.181161,37.939481,6402.966213600001,115.967,-16.12,202.815,1.0
10.2666,128.181145,37.939435,6401.3023104,116.755,-16.299,203.018,1.0
10.2833,128.181129,37.939389,6399.6301776,117.543,-16.478,203.217,1.0
10.3,128.181112,37.939342,6397.949815200001,118.318,-16.655,203.412,1.0
10.3166,128.181096,37.939296,6396.2606136,119.074,-16.833,203.603,1.0
10.3333,128.181079,37.939249,6394.5625728,119.804,-17.011,203.79,1.0
10.35,128.181062,37.939203,6392.855692800001,120.505,-17.19,203.974,1.0
10.3666,128.181045,37.939157,6391.139364000001,121.174,-17.37,204.153,1.0
10.3833,128.181028,37.939111,6389.4135864,121.81,-17.551,204.33,1.0
10.4,128.18101,37.939065,6387.678360000001,122.412,-17.734,204.503,1.0
10.4166,128.180993,37.939019,6385.9330752,122.983,-17.918,204.674,1.0
10.4333,128.180975,37.938973,6384.178341600001,123.521,-18.103,204.841,1.0
10.45,128.180957,37.938927,6382.4132448,124.031,-18.29,205.006,1.0
10.4666,128.180939,37.938881,6380.6380896,124.512,-18.477,205.168,1.0
10.4833,128.180921,37.938835,6378.8525712,124.97,-18.665,205.329,1.0
10.5,128.180903,37.93879,6377.0569944,125.406,-18.851,205.488,1.0
10.5166,128.180885,37.938744,6375.2504448,125.822,-19.038,205.645,1.0
10.5333,128.180866,37.938698,6373.433836800001,126.217,-19.224,205.8,1.0
10.55,128.180848,37.938653,6371.606256000001,126.594,-19.411,205.953,1.0
10.5666,128.180829,37.938607,6369.7680072,126.953,-19.597,206.103,1.0
10.5833,128.18081,37.938562,6367.9187856,127.295,-19.784,206.252,1.0
10.6,128.180791,37.938517,6366.0588960000005,127.623,-19.972,206.398,1.0
10.6166,128.180772,37.938471,6364.1880336,127.938,-20.159,206.542,1.0
10.6333,128.180753,37.938426,6362.3058936,128.241,-20.346,206.684,1.0
10.65,128.180733,37.938381,6360.4127808,128.532,-20.533,206.825,1.0
10.6666,128.180714,37.938336,6358.5083904,128.814,-20.72,206.964,1.0
10.6833,128.180694,37.938291,6356.592722400001,129.087,-20.907,207.101,1.0
10.7,128.180675,37.938246,6354.6657768000005,129.351,-21.093,207.236,1.0
10.7166,128.180655,37.938201,6352.7272488,129.608,-21.279,207.37,1.0
10.7333,128.180635,37.938156,6350.7774432,129.858,-21.465,207.502,1.0
10.75,128.180615,37.938112,6348.816055200001,130.101,-21.65,207.633,1.0
10.7666,128.180595,37.938067,6346.8430848,130.338,-21.835,207.763,1.0
10.7833,128.180574,37.938022,6344.858532,130.57,-22.02,207.892,1.0
10.8,128.180554,37.937978,6342.862092,130.796,-22.205,208.019,1.0
10.8166,128.180533,37.937933,6340.853764800001,131.017,-22.389,208.145,1.0
10.8333,128.180513,37.937889,6338.8338552000005,131.234,-22.572,208.271,1.0
10.85,128.180492,37.937845,6336.8020584000005,131.445,-22.756,208.395,1.0
10.8666,128.180471,37.9378,6334.7583744,131.653,-22.939,208.518,1.0
10.8833,128.18045,37.937756,6332.7024984,131.857,-23.122,208.641,1.0
10.9,128.180429,37.937712,6330.6347352,132.056,-23.304,208.762,1.0
10.9166,128.180408,37.937668,6328.5550848,132.252,-23.486,208.883,1.0
10.9333,128.180386,37.937624,6326.4629376,132.444,-23.668,209.003,1.0
10.95,128.180365,37.93758,6324.3589032,132.633,-23.85,209.122,1.0
10.9666,128.180343,37.937537,6322.242372,132.818,-24.031,209.241,1.0
10.9833,128.180322,37.937493,6320.1139536,133.0,-24.212,209.359,1.0
11.0,128.1803,37.937449,6317.9730384,133.179,-24.392,209.477,1.0
11.0166,128.180278,37.937406,6315.819931200001,133.354,-24.573,209.594,1.0
11.0333,128.180256,37.937362,6313.6543272,133.527,-24.753,209.71,1.0
11.05,128.180234,37.937319,6311.4765312,133.696,-24.933,209.826,1.0
11.0666,128.180212,37.937275,6309.285933600001,133.863,-25.113,209.942,1.0
11.0833,128.180189,37.937232,6307.083144,134.027,-25.292,210.057,1.0
11.1,128.180167,37.937189,6304.8678576,134.188,-25.471,210.172,1.0
11.1166,128.180144,37.937146,6302.6397696,134.346,-25.65,210.286,1.0
11.1333,128.180122,37.937103,6300.3994896,134.502,-25.829,210.4,1.0
11.15,128.180099,37.93706,6298.146408,134.655,-26.007,210.514,1.0
11.1666,128.180076,37.937017,6295.880524800001,134.805,-26.186,210.627,1.0
11.1833,128.180053,37.936974,6293.6021448,134.953,-26.364,210.74,1.0
11.2,128.18003,37.936932,6291.3109632000005,135.098,-26.542,210.853,1.0
11.2166,128.180007,37.936889,6289.0072848,135.241,-26.719,210.966,1.0
11.2333,128.179984,37.936846,6286.6908048000005,135.381,-26.897,211.078,1.0
11.25,128.179961,37.936804,6284.3615232,135.519,-27.074,211.19,1.0
11.2666,128.179937,37.936762,6282.01944,135.655,-27.251,211.302,1.0
11.2833,128.179914,37.936719,6279.664555200001,135.788,-27.428,211.414,1.0
11.3,128.17989,37.936677,6277.296564,135.919,-27.605,211.525,1.0
11.3166,128.179866,37.936635,6274.916076,136.047,-27.782,211.637,1.0
11.3333,128.179843,37.936593,6272.5224816,136.174,-27.958,211.748,1.0
11.35,128.179819,37.936551,6270.1160856,136.298,-28.134,211.859,1.0
11.3666,128.179795,37.936509,6267.6965832000005,136.42,-28.311,211.97,1.0
11.3833,128.179771,37.936467,6265.264279200001,136.539,-28.486,212.081,1.0
11.4,128.179747,37.936426,6262.819173600001,136.657,-28.662,212.192,1.0
11.4166,128.179722,37.936384,6260.3606568000005,136.772,-28.838,212.303,1.0
11.4333,128.179698,37.936343,6257.889338400001,136.886,-29.013,212.413,1.0
11.45,128.179674,37.936301,6255.4052184,136.997,-29.188,212.524,1.0
11.4666,128.179649,37.93626,6252.9076872000005,137.106,-29.363,212.635,1.0
11.4833,128.179625,37.936219,6250.3973544,137.213,-29.538,212.745,1.0
11.5,128.1796,37.936177,6247.873915200001,137.319,-29.713,212.856,1.0
11.5166,128.179575,37.936136,6245.337064800001,137.422,-29.888,212.966,1.0
11.5333,128.17955,37.936095,6242.7874128,137.523,-30.062,213.077,1.0
11.55,128.179525,37.936054,6240.2246544,137.622,-30.236,213.188,1.0
11.5666,128.1795,37.936014,6237.6487896,137.72,-30.411,213.298,1.0
11.5833,128.179475,37.935973,6235.0595136,137.815,-30.585,213.409,1.0
11.6,128.17945,37.935932,6232.457436000001,137.909,-30.758,213.519,1.0
11.6166,128.179425,37.935892,6229.8419472000005,138.0,-30.932,213.63,1.0
11.6333,128.179399,37.935851,6227.213352000001,138.09,-31.106,213.741,1.0
11.65,128.179374,37.935811,6224.5716504,138.178,-31.279,213.852,1.0
11.6666,128.179349,37.935771,6221.916537600001,138.264,-31.452,213.963,1.0
11.6833,128.179323,37.93573,6219.2483184,138.348,-31.625,214.074,1.0
11.7,128.179297,37.93569,6216.566992800001,138.431,-31.798,214.185,1.0
11.7166,128.179272,37.93565,6213.872256000001,138.511,-31.971,214.296,1.0
11.7333,128.179246,37.935611,6211.1644128,138.59,-32.144,214.408,1.0
11.75,128.17922,37.935571,6208.4434632,138.668,-32.316,214.519,1.0
11.7666,128.179194,37.935531,6205.7091024,138.743,-32.489,214.631,1.0
11.7833,128.179168,37.935491,6202.9616352,138.817,-32.661,214.742,1.0
11.8,128.179142,37.935452,6200.200756800001,138.889,-32.833,214.854,1.0
11.8166,128.179116,37.935413,6197.4264672,138.959,-33.005,214.966,1.0
11.8333,128.179089,37.935373,6194.6390712,139.028,-33.177,215.079,1.0
11.85,128.179063,37.935334,6191.838568800001,139.094,-33.348,215.191,1.0
11.8666,128.179037,37.935295,6189.024655200001,139.16,-33.52,215.304,1.0
11.8833,128.17901,37.935256,6186.1973304,139.223,-33.691,215.416,1.0
11.9,128.178984,37.935217,6183.3568992,139.285,-33.863,215.529,1.0
11.9166,128.178957,37.935178,6180.503056800001,139.346,-34.034,215.642,1.0
11.9333,128.178931,37.935139,6177.6358032,139.404,-34.205,215.756,1.0
11.95,128.178904,37.935101,6174.7554432,139.462,-34.375,215.869,1.0
11.9666,128.178877,37.935062,6171.8619768,139.517,-34.546,215.983,1.0
11.9833,128.17885,37.935024,6168.9547944,139.571,-34.717,216.097,1.0
12.0,128.178823,37.934986,6166.0348104,139.623,-34.887,216.211,1.0
12.0166,128.178796,37.934947,6163.101110400001,139.674,-35.057,216.326,1.0
12.0333,128.178769,37.934909,6160.154304000001,139.723,-35.228,216.441,1.0
12.05,128.178742,37.934871,6157.194086400001,139.771,-35.398,216.556,1.0
12.0666,128.178715,37.934833,6154.2207624,139.817,-35.567,216.671,1.0
12.0833,128.178688,37.934795,6151.2340272,139.862,-35.737,216.787,1.0
12.1,128.17866,37.934758,6148.2341856,139.905,-35.907,216.902,1.0
12.1166,128.178633,37.93472,6145.220628,139.947,-36.076,217.019,1.0
12.1333,128.178606,37.934683,6142.194268800001,139.987,-36.246,217.135,1.0
12.15,128.178578,37.934645,6139.1544984,140.025,-36.415,217.252,1.0
12.1666,128.178551,37.934608,6136.1013168,140.063,-36.584,217.369,1.0
12.1833,128.178523,37.934571,6133.034724000001,140.098,-36.753,217.486,1.0
12.2,128.178495,37.934534,6129.9550248000005,140.133,-36.922,217.604,1.0
12.2166,128.178468,37.934497,6126.8622192,140.165,-37.09,217.722,1.0
12.2333,128.17844,37.93446,6123.7560023999995,140.197,-37.259,217.84,1.0
12.25,128.178412,37.934423,6120.636679200001,140.226,-37.427,217.959,1.0
12.2666,128.178384,37.934386,6117.5039448,140.255,-37.596,218.078,1.0
12.2833,128.178356,37.93435,6114.3577992,140.282,-37.764,218.197,1.0
12.3,128.178328,37.934313,6111.198852,140.307,-37.932,218.317,1.0
12.3166,128.1783,37.934277,6108.026493599999,140.331,-38.1,218.437,1.0
12.3333,128.178272,37.934241,6104.840724000001,140.354,-38.267,218.558,1.0
12.35,128.178244,37.934204,6101.641848,140.375,-38.435,218.679,1.0
12.3666,128.178216,37.934168,6098.429865600001,140.395,-38.603,218.8,1.0
12.3833,128.178187,37.934133,6095.204472,140.414,-38.77,218.922,1.0
12.4,128.178159,37.934097,6091.9662768,140.431,-38.937,219.044,1.0
12.4166,128.178131,37.934061,6088.714365600001,140.447,-39.104,219.166,1.0
12.4333,128.178102,37.934025,6085.4496528,140.461,-39.271,219.289,1.0
12.45,128.178074,37.93399,6082.1718336,140.474,-39.438,219.413,1.0
12.4666,128.178045,37.933955,6078.8806032,140.486,-39.605,219.537,1.0
12.4833,128.178017,37.933919,6075.576266399999,140.496,-39.771,219.661,1.0
12.5,128.177988,37.933884,6072.258823200001,140.505,-39.938,219.786,1.0
12.5166,128.177959,37.933849,6068.9282736000005,140.512,-40.104,219.911,1.0
12.5333,128.177931,37.933814,6065.5846176000005,140.519,-40.27,220.036,1.0
12.55,128.177902,37.933779,6062.227855200001,140.523,-40.436,220.162,1.0
12.5666,128.177873,37.933745,6058.8579864,140.527,-40.602,220.289,1.0
12.5833,128.177844,37.93371,6055.475316,140.529,-40.768,220.416,1.0
12.6,128.177816,37.933676,6052.0792344,140.53,-40.934,220.544,1.0
12.6166,128.177787,37.933641,6048.6700464000005,140.529,-41.099,220.672,1.0
12.6333,128.177758,37.933607,6045.248056800001,140.527,-41.265,220.8,1.0
12.65,128.177729,37.933573,6041.812960800001,140.524,-41.43,220.93,1.0
12.6666,128.1777,37.933539,6038.3647584,140.52,-41.595,221.059,1.0
12.6833,128.17767,37.933505,6034.9034496,140.514,-41.76,221.189,1.0
12.7,128.177641,37.933471,6031.4293392,140.506,-41.925,221.32,1.0
12.7166,128.177612,37.933437,6027.942427200001,140.498,-42.089,221.451,1.0
12.7333,128.177583,37.933404,6024.442104,140.488,-42.254,221.583,1.0
12.75,128.177554,37.93337,6020.929284000001,140.477,-42.418,221.716,1.0
12.7666,128.177524,37.933337,6017.4030528,140.464,-42.583,221.849,1.0
12.7833,128.177495,37.933304,6013.864324800001,140.451,-42.747,221.982,1.0
12.8,128.177466,37.933271,6010.312490400001,140.436,-42.911,222.116,1.0
12.8166,128.177436,37.933238,6006.7478544000005,140.419,-43.075,222.251,1.0
12.8333,128.177407,37.933205,6003.170112,140.401,-43.238,222.386,1.0
12.85,128.177377,37.933172,5999.5798728,140.382,-43.402,222.522,1.0
12.8666,128.177348,37.933139,5995.9765272,140.362,-43.565,222.659,1.0
12.8833,128.177318,37.933107,5992.36038,140.34,-43.729,222.796,1.0
12.9,128.177289,37.933075,5988.731736000001,140.317,-43.892,222.934,1.0
12.9166,128.177259,37.933042,5985.089985600001,140.293,-44.055,223.073,1.0
12.9333,128.17723,37.93301,5981.435433600001,140.267,-44.218,223.212,1.0
12.95,128.1772,37.932978,5977.7683848,140.24,-44.38,223.351,1.0
12.9666,128.17717,37.932946,5974.0882296,140.212,-44.543,223.492,1.0
12.9833,128.177141,37.932914,5970.3955776,140.183,-44.705,223.633,1.0
13.0,128.177111,37.932883,5966.6904288000005,140.152,-44.867,223.775,1.0
13.0166,128.177081,37.932851,5962.972478400001,140.12,-45.03,223.917,1.0
13.0333,128.177051,37.93282,5959.2417264000005,140.086,-45.191,224.061,1.0
13.0499,128.177021,37.932788,5955.4981728,140.051,-45.353,224.205,1.0
13.0666,128.176991,37.932757,5951.7424272,140.015,-45.515,224.349,1.0
13.0833,128.176962,37.932726,5947.97388,139.978,-45.676,224.495,1.0
13.1,128.176932,37.932695,5944.1925312,139.939,-45.838,224.641,1.0
13.1166,128.176902,37.932664,5940.3989904,139.899,-45.999,224.788,1.0
13.1333,128.176872,37.932634,5936.592648,139.858,-46.16,224.936,1.0
13.15,128.176842,37.932603,5932.7741136,139.815,-46.321,225.084,1.0
13.1666,128.176812,37.932573,5928.9427776,139.771,-46.481,225.233,1.0
13.1833,128.176782,37.932542,5925.0989448,139.725,-46.642,225.383,1.0
13.2,128.176752,37.932512,5921.242920000001,139.679,-46.802,225.534,1.0
13.2166,128.176721,37.932482,5917.3740935999995,139.63,-46.963,225.686,1.0
13.2333,128.176691,37.932452,5913.4930752,139.581,-47.123,225.838,1.0
13.25,128.176661,37.932422,5909.599560000001,139.53,-47.282,225.991,1.0
13.2666,128.176631,37.932393,5905.6938528,139.478,-47.442,226.145,1.0
13.2833,128.176601,37.932363,5901.7756488,139.425,-47.602,226.3,1.0
13.3,128.176571,37.932334,5897.8452528,139.37,-47.761,226.456,1.0
13.3166,128.17654,37.932305,5893.902664800001,139.314,-47.92,226.613,1.0
13.3333,128.17651,37.932275,5889.94758,139.256,-48.079,226.77,1.0
13.35,128.17648,37.932246,5885.9803032,139.197,-48.238,226.929,1.0
13.3666,128.176449,37.932217,5882.0005296,139.137,-48.397,227.088,1.0
13.3833,128.176419,37.932189,5878.0088688000005,139.075,-48.555,227.248,1.0
13.4,128.176389,37.93216,5874.005016,139.012,-48.713,227.41,1.0
13.4166,128.176358,37.932131,5869.9889711999995,138.948,-48.872,227.572,1.0
13.4333,128.176328,37.932103,5865.9607344,138.882,-49.029,227.735,1.0
13.45,128.176298,37.932075,5861.9206104,138.815,-49.187,227.899,1.0
13.4666,128.176267,37.932047,5857.8679896,138.746,-49.345,228.064,1.0
13.4833,128.176237,37.932019,5853.803786400001,138.676,-49.502,228.23,1.0
13.5,128.176207,37.931991,5849.7270864,138.605,-49.659,228.397,1.0
13.5166,128.176176,37.931963,5845.638804,138.532,-49.816,228.565,1.0
13.5333,128.176146,37.931935,5841.5383296,138.458,-49.973,228.734,1.0
13.55,128.176115,37.931908,5837.4259680000005,138.382,-50.13,228.904,1.0
13.5666,128.176085,37.931881,5833.301719200001,138.305,-50.286,229.075,1.0
13.5833,128.176054,37.931853,5829.165278400001,138.227,-50.442,229.247,1.0
13.6,128.176024,37.931826,5825.0172552,138.146,-50.598,229.42,1.0
13.6166,128.175993,37.931799,5820.8573448,138.065,-50.754,229.594,1.0
13.6333,128.175963,37.931773,5816.685547200001,137.982,-50.909,229.769,1.0
13.65,128.175932,37.931746,5812.5021672,137.898,-51.065,229.946,1.0
13.6666,128.175902,37.931719,5808.3069000000005,137.812,-51.22,230.123,1.0
13.6833,128.175871,37.931693,5804.0997456000005,137.724,-51.375,230.302,1.0
13.7,128.17584,37.931667,5799.8813136,137.635,-51.529,230.482,1.0
13.7166,128.17581,37.93164,5795.6506896,137.545,-51.684,230.663,1.0
13.7333,128.175779,37.931614,5791.408788000001,137.453,-51.838,230.845,1.0
13.75,128.175749,37.931589,5787.1549992,137.36,-51.992,231.028,1.0
13.7666,128.175718,37.931563,5782.889932800001,137.265,-52.146,231.212,1.0
13.7833,128.175688,37.931537,5778.612979200001,137.168,-52.299,231.398,1.0
13.8,128.175657,37.931512,5774.324748,137.07,-52.452,231.585,1.0
13.8166,128.175626,37.931487,5770.024934399999,136.971,-52.605,231.773,1.0
13.8333,128.175596,37.931461,5765.7138432,136.869,-52.758,231.962,1.0
13.85,128.175565,37.931436,5761.3911696000005,136.767,-52.911,232.153,1.0
13.8666,128.175534,37.931411,5757.0569136,136.662,-53.063,232.345,1.0
13.8833,128.175504,37.931387,5752.71138,136.556,-53.215,232.538,1.0
13.9,128.175473,37.931362,5748.3545688,136.449,-53.367,232.732,1.0
13.9166,128.175443,37.931338,5743.98648,136.34,-53.518,232.928,1.0
13.9333,128.175412,37.931313,5739.6071136,136.229,-53.67,233.125,1.0
13.95,128.175381,37.931289,5735.216469600001,136.117,-53.821,233.324,1.0
13.9666,128.175351,37.931265,5730.814547999999,136.002,-53.971,233.524,1.0
13.9833,128.17532,37.931241,5726.4013488,135.887,-54.122,233.725,1.0
14.0,128.175289,37.931217,5721.9771768,135.769,-54.272,233.928,1.0
14.0166,128.175259,37.931194,5717.542032,135.65,-54.422,234.132,1.0
14.0333,128.175228,37.93117,5713.0956096,135.529,-54.571,234.337,1.0
14.05,128.175198,37.931147,5708.6379096,135.407,-54.721,234.544,1.0
14.0666,128.175167,37.931123,5704.1695416,135.283,-54.87,234.753,1.0
14.0833,128.175136,37.9311,5699.689896000001,135.157,-55.019,234.963,1.0
14.1,128.175106,37.931077,5695.1995824000005,135.029,-55.167,235.174,1.0
14.1166,128.175075,37.931055,5690.6982960000005,134.899,-55.315,235.387,1.0
14.1333,128.175044,37.931032,5686.186036800001,134.768,-55.463,235.601,1.0
14.15,128.175014,37.93101,5681.6628048,134.635,-55.61,235.817,1.0
14.1666,128.174983,37.930987,5677.128904800001,134.5,-55.758,236.035,1.0
14.1833,128.174953,37.930965,5672.5843368000005,134.363,-55.905,236.254,1.0
14.2,128.174922,37.930943,5668.0287960000005,134.225,-56.051,236.475,1.0
14.2166,128.174892,37.930921,5663.462587200001,134.085,-56.197,236.697,1.0
14.2333,128.174861,37.930899,5658.886015200001,133.942,-56.343,236.921,1.0
14.25,128.17483,37.930878,5654.298470400001,133.798,-56.489,237.147,1.0
14.2666,128.1748,37.930856,5649.7002575999995,133.652,-56.634,237.374,1.0
14.2833,128.174769,37.930835,5645.0916816,133.504,-56.779,237.603,1.0
14.3,128.174739,37.930814,5640.4724376,133.355,-56.924,237.834,1.0
14.3166,128.174708,37.930792,5635.8428304,133.203,-57.068,238.066,1.0
14.3333,128.174678,37.930772,5631.20286,133.049,-57.211,238.3,1.0
14.35,128.174647,37.930751,5626.5522216,132.894,-57.355,238.536,1.0
