Time,Longitude,Latitude,Altitude,Roll (deg),Pitch (deg),Yaw (deg),Health
0.0,128.181881,37.968463,7002.830292000001,0.0,-0.003,179.999,1.0
0.0166,128.181881,37.968418,7002.8116992000005,0.0,-0.012,180.0,1.0
0.0333,128.181881,37.968374,7002.7912776,0.087,-0.025,180.011,1.0
0.05,128.181881,37.968329,7002.7690272,0.258,-0.042,180.034,1.0
0.0666,128.181881,37.968284,7002.744338400001,0.516,-0.06,180.064,1.0
0.0833,128.181881,37.968239,7002.716601600001,0.863,-0.08,180.097,1.0
0.1,128.181881,37.968194,7002.6861216,1.299,-0.101,180.132,1.0
0.1166,128.181881,37.968149,7002.6522888,1.823,-0.123,180.167,1.0
0.1333,128.181881,37.968104,7002.6144936,2.43,-0.146,180.201,1.0
0.15,128.181881,37.968059,7002.572736,3.12,-0.17,180.234,1.0
0.1666,128.181881,37.968014,7002.526406400001,3.887,-0.195,180.266,1.0
0.1833,128.181881,37.967969,7002.4764192,4.729,-0.222,180.297,1.0
0.2,128.181881,37.967924,7002.4221648,5.642,-0.249,180.327,1.0
0.2166,128.181881,37.967879,7002.3642528,6.624,-0.278,180.355,1.0
0.2333,128.181881,37.967834,7002.302073600001,7.671,-0.307,180.382,1.0
0.25,128.181881,37.967789,7002.2362368,8.782,-0.338,180.408,1.0
0.2666,128.181881,37.967744,7002.166132800001,9.952,-0.371,180.432,1.0
0.2833,128.181881,37.967699,7002.0923712,11.18,-0.404,180.455,1.0
0.3,128.181881,37.967654,7002.014952,12.463,-0.439,180.477,1.0
0.3166,128.181881,37.967609,7001.9335704000005,13.799,-0.475,180.497,1.0
0.3333,128.181881,37.967564,7001.8485312,15.186,-0.512,180.515,1.0
0.35,128.181881,37.967518,7001.7595296,16.621,-0.551,180.533,1.0
0.3666,128.181881,37.967473,7001.666870400001,18.103,-0.59,180.548,1.0
0.3833,128.181881,37.967428,7001.5708584,19.631,-0.631,180.562,1.0
0.4,128.181881,37.967383,7001.470884000001,21.201,-0.673,180.575,1.0
0.4166,128.181881,37.967338,7001.367252000001,22.813,-0.716,180.586,1.0
0.4333,128.181881,37.967293,7001.2602672,24.464,-0.759,180.595,1.0
0.45,128.181881,37.967248,7001.1499296,26.155,-0.799,180.604,1.0
0.4666,128.181881,37.967203,7001.0359344,27.882,-0.833,180.616,1.0
0.4833,128.181881,37.967158,7000.918891200001,29.645,-0.856,180.632,1.0
0.5,128.181881,37.967112,7000.7988000000005,31.442,-0.869,180.653,1.0
0.5166,128.181881,37.967067,7000.675356000001,33.272,-0.87,180.681,1.0
0.5333,128.181881,37.967022,7000.5491688,35.134,-0.859,180.717,1.0
0.55,128.181882,37.966977,7000.420238400001,37.026,-0.838,180.76,1.0
0.5666,128.181882,37.966932,7000.28826,38.948,-0.807,180.813,1.0
0.5833,128.181882,37.966886,7000.154148,40.898,-0.767,180.873,1.0
0.6,128.181882,37.966841,7000.017597600001,42.874,-0.72,180.943,1.0
0.6166,128.181882,37.966796,6999.878608800001,44.877,-0.667,181.021,1.0
0.6333,128.181882,37.966751,6999.7371816,46.904,-0.611,181.107,1.0
0.65,128.181882,37.966706,6999.5942304,48.955,-0.552,181.201,1.0
0.6666,128.181882,37.96666,6999.448840800001,51.03,-0.492,181.302,1.0
0.6833,128.181882,37.966615,6999.3019272,53.128,-0.434,181.408,1.0
0.7,128.181882,37.96657,6999.15288,55.247,-0.378,181.517,1.0
0.7166,128.181882,37.966525,6999.002308800001,57.389,-0.328,181.628,1.0
0.7333,128.181882,37.966479,6998.850213600001,59.552,-0.284,181.74,1.0
0.75,128.181882,37.966434,6998.6959848,61.737,-0.246,181.85,1.0
0.7666,128.181882,37.966389,6998.5405368,63.943,-0.217,181.958,1.0
0.7833,128.181882,37.966344,6998.3832600000005,66.171,-0.195,182.062,1.0
0.8,128.181882,37.966298,6998.224154400001,68.42,-0.182,182.16,1.0
0.8166,128.181881,37.966253,6998.063524800001,70.691,-0.178,182.251,1.0
0.8333,128.181881,37.966208,6997.9010664,72.983,-0.182,182.335,1.0
0.85,128.181881,37.966162,6997.7367792000005,75.299,-0.193,182.409,1.0
0.8666,128.181881,37.966117,6997.5706632,77.637,-0.213,182.473,1.0
0.8833,128.181881,37.966072,6997.402718400001,79.998,-0.239,182.525,1.0
0.9,128.181881,37.966026,6997.23264,82.383,-0.272,182.564,1.0
0.9166,128.18188,37.965981,6997.060428000001,84.793,-0.311,182.589,1.0
0.9333,128.18188,37.965936,6996.8860824,87.227,-0.353,182.597,1.0
0.95,128.18188,37.96589,6996.7092984,89.687,-0.399,182.59,1.0
0.9666,128.18188,37.965845,6996.5306856,92.173,-0.447,182.564,1.0
0.9833,128.181879,37.9658,6996.3493296,94.686,-0.495,182.519,1.0
1.0,128.181879,37.965754,6996.165840000001,97.226,-0.542,182.455,1.0
1.0166,128.181879,37.965709,6995.979912,99.794,-0.586,182.376,1.0
1.0333,128.181878,37.965664,6995.7915456,102.39,-0.627,182.287,1.0
1.05,128.181878,37.965618,6995.6010456,105.016,-0.666,182.195,1.0
1.0666,128.181878,37.965573,6995.4081072,107.67,-0.702,182.101,1.0
1.0833,128.181877,37.965527,6995.2127304,110.354,-0.736,182.008,1.0
1.1,128.181877,37.965482,6995.015220000001,113.068,-0.767,181.918,1.0
1.1166,128.181877,37.965437,6994.815576,115.804,-0.796,181.831,1.0
1.1333,128.181876,37.965391,6994.6131888,118.556,-0.821,181.749,1.0
1.15,128.181876,37.965346,6994.408668,121.318,-0.845,181.671,1.0
1.1666,128.181876,37.9653,6994.2017088,124.086,-0.866,181.599,1.0
1.1833,128.181875,37.965255,6993.9929208,126.857,-0.885,181.531,1.0
1.2,128.181875,37.965209,6993.7819992,129.633,-0.903,181.467,1.0
1.2166,128.181875,37.965164,6993.5692488,132.413,-0.921,181.408,1.0
1.2333,128.181874,37.965118,6993.354974400001,135.2,-0.939,181.352,1.0
1.25,128.181874,37.965073,6993.139176,137.997,-0.957,181.3,1.0
1.2666,128.181874,37.965027,6992.922158400001,140.805,-0.975,181.25,1.0
1.2833,128.181873,37.964982,6992.7042264,143.629,-0.994,181.202,1.0
1.3,128.181873,37.964936,6992.48538,146.471,-1.013,181.156,1.0
1.3166,128.181873,37.964891,6992.2656192,149.333,-1.032,181.111,1.0
1.3333,128.181872,37.964845,6992.0455536,152.217,-1.052,181.068,1.0
1.35,128.181872,37.9648,6991.824878400001,155.12,-1.072,181.026,1.0
1.3666,128.181872,37.964754,6991.6038984,158.044,-1.092,180.986,1.0
1.3833,128.181871,37.964709,6991.382613600001,160.985,-1.112,180.947,1.0
1.4,128.181871,37.964663,6991.161328800001,163.944,-1.131,180.909,1.0
1.4166,128.181871,37.964617,6990.9394344,166.918,-1.151,180.872,1.0
1.4333,128.181871,37.964572,6990.7178448,169.906,-1.169,180.836,1.0
1.45,128.18187,37.964526,6990.495950400001,172.907,-1.187,180.801,1.0
1.4666,128.18187,37.964481,6990.274056000001,175.918,-1.205,180.767,1.0
1.4833,128.18187,37.964435,6990.0521616,178.939,-1.221,180.734,1.0
1.5,128.181869,37.964389,6989.8299624,-178.032,-1.237,180.702,1.0
1.5166,128.181869,37.964344,6989.607763200001,-175.0,-1.252,180.67,1.0
1.5333,128.181869,37.964298,6989.385564,-171.966,-1.266,180.64,1.0
1.55,128.181869,37.964252,6989.162755200001,-168.932,-1.278,180.61,1.0
1.5666,128.181868,37.964207,6988.939946400001,-165.9,-1.29,180.581,1.0
1.5833,128.181868,37.964161,6988.716832800001,-162.87,-1.3,180.554,1.0
1.6,128.181868,37.964115,6988.493414400001,-159.845,-1.309,180.527,1.0
1.6166,128.181867,37.96407,6988.2693864,-156.825,-1.316,180.501,1.0
1.6333,128.181867,37.964024,6988.0450536,-153.811,-1.322,180.477,1.0
1.65,128.181866,37.963978,6987.820111200001,-150.803,-1.327,180.453,1.0
1.6666,128.181866,37.963932,6987.594559200001,-147.803,-1.33,180.431,1.0
1.6833,128.181866,37.963887,6987.368092800001,-144.811,-1.331,180.411,1.0
1.7,128.181865,37.963841,6987.140712,-141.827,-1.331,180.392,1.0
1.7166,128.181865,37.963795,6986.9124168,-138.852,-1.33,180.375,1.0
1.7333,128.181864,37.963749,6986.6832072,-135.888,-1.327,180.359,1.0
1.75,128.181864,37.963704,6986.452778400001,-132.934,-1.323,180.346,1.0
1.7666,128.181863,37.963658,6986.2208256,-129.992,-1.318,180.335,1.0
1.7833,128.181863,37.963612,6985.9873488,-127.063,-1.312,180.326,1.0
1.8,128.181862,37.963566,6985.7526528,-124.147,-1.305,180.32,1.0
1.8166,128.181862,37.96352,6985.516128,-121.246,-1.298,180.317,1.0
1.8333,128.181861,37.963475,6985.2777744,-118.359,-1.29,180.315,1.0
1.85,128.181861,37.963429,6985.037592000001,-115.487,-1.281,180.317,1.0
1.8666,128.18186,37.963383,6984.795276,-112.63,-1.272,180.321,1.0
1.8833,128.181859,37.963337,6984.5508264,-109.79,-1.263,180.328,1.0
1.9,128.181859,37.963291,6984.304548,-106.966,-1.255,180.338,1.0
1.9166,128.181858,37.963245,6984.0558312,-104.158,-1.247,180.351,1.0
1.9333,128.181858,37.963199,6983.804676,-101.367,-1.239,180.366,1.0
1.95,128.181857,37.963154,6983.5513872,-98.593,-1.232,180.384,1.0
1.9666,128.181856,37.963108,6983.295355200001,-95.835,-1.226,180.404,1.0
1.9833,128.181855,37.963062,6983.0368848,-93.094,-1.221,180.427,1.0
2.0,128.181855,37.963016,6982.775976,-90.369,-1.217,180.453,1.0
2.0166,128.181854,37.96297,6982.512324,-87.66,-1.215,180.481,1.0
2.0333,128.181853,37.962924,6982.246233600001,-84.966,-1.214,180.511,1.0
2.05,128.181853,37.962878,6981.9770952,-82.286,-1.215,180.544,1.0
2.0666,128.181852,37.962832,6981.705823200001,-79.62,-1.217,180.579,1.0
2.0833,128.181851,37.962786,6981.4315032,-76.968,-1.222,180.616,1.0
2.1,128.18185,37.96274,6981.15444,-74.33,-1.229,180.655,1.0
2.1166,128.18185,37.962694,6980.874938400001,-71.703,-1.238,180.695,1.0
2.1333,128.181849,37.962648,6980.5923888,-69.089,-1.25,180.737,1.0
2.15,128.181848,37.962602,6980.3074008,-66.485,-1.264,180.781,1.0
2.1666,128.181847,37.962556,6980.0193648,-63.893,-1.28,180.826,1.0
2.1833,128.181846,37.96251,6979.728890400001,-61.311,-1.3,180.871,1.0
2.2,128.181846,37.962464,6979.4356728,-58.738,-1.321,180.918,1.0
2.2166,128.181845,37.962418,6979.139712,-56.175,-1.346,180.965,1.0
2.2333,128.181844,37.962372,6978.841008,-53.62,-1.374,181.012,1.0
2.25,128.181843,37.962326,6978.539865600001,-51.072,-1.404,181.06,1.0
2.2666,128.181842,37.96228,6978.2359799999995,-48.533,-1.438,181.108,1.0
2.2833,128.181841,37.962234,6977.9293512,-45.999,-1.474,181.156,1.0
2.3,128.181841,37.962188,6977.619979200001,-43.473,-1.513,181.203,1.0
2.3166,128.18184,37.962142,6977.3081688,-40.951,-1.554,181.25,1.0
2.3333,128.181839,37.962096,6976.993920000001,-38.435,-1.599,181.296,1.0
2.35,128.181838,37.962049,6976.676928000001,-35.924,-1.646,181.341,1.0
2.3666,128.181837,37.962003,6976.357497600001,-33.416,-1.695,181.385,1.0
2.3833,128.181837,37.961957,6976.035324,-30.912,-1.748,181.428,1.0
2.4,128.181836,37.961911,6975.710712,-28.411,-1.802,181.469,1.0
2.4166,128.181835,37.961865,6975.3836616,-25.912,-1.859,181.509,1.0
2.4333,128.181834,37.961819,6975.053868,-23.416,-1.919,181.547,1.0
2.45,128.181833,37.961773,6974.7219408,-20.92,-1.98,181.583,1.0
2.4666,128.181832,37.961726,6974.3872704000005,-18.426,-2.043,181.618,1.0
2.4833,128.181831,37.96168,6974.0501616,-15.932,-2.108,181.65,1.0
2.5,128.181831,37.961634,6973.710614400001,-13.438,-2.175,181.68,1.0
2.5166,128.18183,37.961588,6973.368628800001,-10.944,-2.244,181.707,1.0
2.5333,128.181829,37.961542,6973.0239,-8.449,-2.314,181.733,1.0
2.55,128.181828,37.961496,6972.6770376,-5.952,-2.385,181.755,1.0
2.5666,128.181827,37.961449,6972.327432,-3.454,-2.457,181.776,1.0
2.5833,128.181826,37.961403,6971.975692800001,-0.953,-2.53,181.793,1.0
2.6,128.181826,37.961357,6971.621210400001,1.549,-2.604,181.808,1.0
2.6166,128.181825,37.961311,6971.2642896,4.055,-2.679,181.82,1.0
2.6333,128.181824,37.961264,6970.9049304,6.565,-2.754,181.83,1.0
2.65,128.181823,37.961218,6970.542828000001,9.079,-2.829,181.837,1.0
2.6666,128.181822,37.961172,6970.178592,11.597,-2.905,181.841,1.0
2.6833,128.181821,37.961126,6969.8116128,14.119,-2.98,181.842,1.0
2.7,128.18182,37.961079,6969.4421952,16.646,-3.047,181.843,1.0
2.7166,128.18182,37.961033,6969.070644,19.178,-3.098,181.847,1.0
2.7333,128.181819,37.960987,6968.697264,21.715,-3.129,181.855,1.0
2.75,128.181818,37.96094,6968.3217504,24.257,-3.136,181.872,1.0
2.7666,128.181817,37.960894,6967.9441032,26.804,-3.121,181.898,1.0
2.7833,128.181816,37.960848,6967.5652368,29.356,-3.083,181.937,1.0
2.8,128.181815,37.960801,6967.184541600001,31.913,-3.025,181.988,1.0
2.8166,128.181814,37.960755,6966.8032368,34.463,-2.948,182.054,1.0
2.8333,128.181813,37.960709,6966.4216272,36.993,-2.856,182.132,1.0
2.85,128.181812,37.960662,6966.0400176,39.495,-2.751,182.225,1.0
2.8666,128.181811,37.960616,6965.6587128,41.96,-2.636,182.331,1.0
2.8833,128.18181,37.96057,6965.2777128,44.381,-2.514,182.45,1.0
2.9,128.181809,37.960523,6964.8973224,46.755,-2.389,182.581,1.0
2.9166,128.181808,37.960477,6964.5175416,49.08,-2.265,182.722,1.0
2.9333,128.181807,37.960431,6964.138370400001,51.356,-2.147,182.869,1.0
2.95,128.181806,37.960384,6963.7601136,53.584,-2.036,183.019,1.0
2.9666,128.181805,37.960338,6963.3821616,55.768,-1.936,183.171,1.0
2.9833,128.181804,37.960291,6963.0048192,57.91,-1.848,183.32,1.0
3.0,128.181802,37.960245,6962.6280864,60.016,-1.773,183.466,1.0
3.0166,128.181801,37.960199,6962.2513536,62.09,-1.711,183.607,1.0
3.0333,128.1818,37.960152,6961.8746208,64.137,-1.662,183.742,1.0
3.05,128.181798,37.960106,6961.498192800001,66.162,-1.626,183.868,1.0
3.0666,128.181797,37.960059,6961.1211552,68.171,-1.603,183.986,1.0
3.0833,128.181795,37.960013,6960.7441176,70.168,-1.59,184.095,1.0
3.1,128.181794,37.959967,6960.3661656,72.16,-1.589,184.193,1.0
3.1166,128.181792,37.95992,6959.987604,74.15,-1.598,184.281,1.0
3.1333,128.18179,37.959874,6959.607823200001,76.147,-1.616,184.357,1.0
3.15,128.181789,37.959827,6959.227128,78.155,-1.643,184.421,1.0
3.1666,128.181787,37.959781,6958.844908800001,80.185,-1.677,184.471,1.0
3.1833,128.181785,37.959734,6958.461165600001,82.244,-1.719,184.508,1.0
3.2,128.181783,37.959688,6958.0755936,84.345,-1.768,184.53,1.0
3.2166,128.181781,37.959641,6957.688192800001,86.492,-1.822,184.536,1.0
3.2333,128.181779,37.959595,6957.2986584,88.685,-1.88,184.525,1.0
3.25,128.181778,37.959549,6956.907295200001,90.926,-1.94,184.495,1.0
3.2666,128.181776,37.959502,6956.5137984,93.213,-2.0,184.443,1.0
3.2833,128.181774,37.959456,6956.1178632,95.548,-2.059,184.37,1.0
3.3,128.181772,37.959409,6955.71888,97.733,-2.103,184.277,1.0
3.3166,128.18177,37.959363,6955.3174584,99.773,-2.132,184.174,1.0
3.3333,128.181768,37.959316,6954.9135984,101.669,-2.152,184.067,1.0
3.35,128.181765,37.95927,6954.5069952,103.421,-2.166,183.961,1.0
3.3666,128.181763,37.959223,6954.0979536,105.031,-2.177,183.859,1.0
3.3833,128.181761,37.959176,6953.685864,106.504,-2.187,183.764,1.0
3.4,128.181759,37.95913,6953.2710312,107.845,-2.197,183.676,1.0
3.4166,128.181757,37.959083,6952.8534552,109.059,-2.207,183.595,1.0
3.4333,128.181755,37.959037,6952.434355200001,110.352,-2.229,183.518,1.0
3.45,128.181752,37.95899,6952.012512,111.721,-2.263,183.443,1.0
3.4666,128.18175,37.958944,6951.5885352000005,113.171,-2.305,183.372,1.0
3.4833,128.181748,37.958897,6951.162120000001,114.706,-2.35,183.304,1.0
3.5,128.181745,37.958851,6950.733876,116.325,-2.396,183.242,1.0
3.5166,128.181743,37.958804,6950.3038032,118.027,-2.443,183.185,1.0
3.5333,128.181741,37.958758,6949.8719016000005,119.809,-2.489,183.131,1.0
3.55,128.181739,37.958711,6949.4387808,121.667,-2.535,183.082,1.0
3.5666,128.181736,37.958664,6949.0041360000005,123.6,-2.58,183.036,1.0
3.5833,128.181734,37.958618,6948.5679672,125.603,-2.625,182.992,1.0
3.6,128.181732,37.958571,6948.1302744,127.669,-2.67,182.952,1.0
3.6166,128.18173,37.958525,6947.6913624,129.792,-2.713,182.914,1.0
3.6333,128.181727,37.958478,6947.2509264,131.967,-2.757,182.878,1.0
3.65,128.181725,37.958431,6946.809576,134.19,-2.799,182.845,1.0
3.6666,128.181723,37.958385,6946.367006400001,136.46,-2.842,182.813,1.0
3.6833,128.181721,37.958338,6945.9235224,138.774,-2.884,182.783,1.0
3.7,128.181719,37.958291,6945.479124,141.132,-2.927,182.753,1.0
3.7166,128.181716,37.958244,6945.034116,143.535,-2.969,182.725,1.0
3.7333,128.181714,37.958198,6944.5884984,145.982,-3.011,182.697,1.0
3.75,128.181712,37.958151,6944.142576,148.472,-3.054,182.669,1.0
3.7666,128.18171,37.958104,6943.6963488,151.005,-3.096,182.642,1.0
3.7833,128.181708,37.958058,6943.249512,153.578,-3.137,182.614,1.0
3.8,128.181706,37.958011,6942.8026752,156.189,-3.179,182.587,1.0
3.8166,128.181704,37.957964,6942.355533600001,158.834,-3.219,182.56,1.0
3.8333,128.181702,37.957917,6941.9080872,161.513,-3.259,182.533,1.0
3.85,128.181699,37.95787,6941.4606408,164.221,-3.298,182.507,1.0
3.8666,128.181697,37.957824,6941.0131944,166.958,-3.336,182.48,1.0
3.8833,128.181695,37.957777,6940.565748,169.72,-3.373,182.452,1.0
3.9,128.181693,37.95773,6940.117996800001,172.505,-3.408,182.425,1.0
3.9166,128.181691,37.957683,6939.6702456,175.312,-3.442,182.398,1.0
3.9333,128.181689,37.957636,6939.2224944,178.137,-3.475,182.37,1.0
3.95,128.181687,37.957589,6938.774438400001,-179.02,-3.506,182.343,1.0
3.9666,128.181685,37.957543,6938.3263824000005,-176.164,-3.535,182.315,1.0
3.9833,128.181683,37.957496,6937.8780216000005,-173.294,-3.563,182.287,1.0
4.0,128.18168,37.957449,6937.4296608,-170.415,-3.588,182.26,1.0
4.0166,128.181678,37.957402,6936.980690400001,-167.526,-3.611,182.233,1.0
4.0333,128.181676,37.957355,6936.531415200001,-164.63,-3.633,182.206,1.0
4.05,128.181674,37.957308,6936.0818352,-161.729,-3.652,182.18,1.0
4.0666,128.181672,37.957261,6935.6316456,-158.824,-3.669,182.154,1.0
4.0833,128.18167,37.957214,6935.1808464000005,-155.918,-3.684,182.129,1.0
4.1,128.181667,37.957167,6934.729437600001,-153.011,-3.697,182.105,1.0
4.1166,128.181665,37.95712,6934.277114400001,-150.104,-3.707,182.082,1.0
4.1333,128.181663,37.957073,6933.8238768,-147.201,-3.715,182.061,1.0
4.15,128.181661,37.957026,6933.369420000001,-144.3,-3.722,182.041,1.0
4.1666,128.181658,37.956979,6932.9140488,-141.405,-3.726,182.023,1.0
4.1833,128.181656,37.956932,6932.4571536,-138.515,-3.728,182.007,1.0
4.2,128.181654,37.956885,6931.9990392,-135.633,-3.728,181.992,1.0
4.2166,128.181652,37.956838,6931.5394008,-132.758,-3.727,181.98,1.0
4.2333,128.181649,37.956791,6931.078238400001,-129.892,-3.724,181.97,1.0
4.25,128.181647,37.956744,6930.615552000001,-127.035,-3.72,181.963,1.0
4.2666,128.181645,37.956697,6930.150732,-124.189,-3.715,181.958,1.0
4.2833,128.181642,37.95665,6929.684083200001,-121.353,-3.708,181.955,1.0
4.3,128.18164,37.956603,6929.2156056,-118.529,-3.701,181.956,1.0
4.3166,128.181637,37.956556,6928.7449944,-115.716,-3.693,181.959,1.0
4.3333,128.181635,37.956508,6928.272249600001,-112.916,-3.685,181.965,1.0
4.35,128.181633,37.956461,6927.7970663999995,-110.129,-3.677,181.973,1.0
4.3666,128.18163,37.956414,6927.3197496,-107.354,-3.668,181.985,1.0
4.3833,128.181628,37.956367,6926.8402992,-104.593,-3.66,181.999,1.0
4.4,128.181625,37.95632,6926.3581056,-101.844,-3.652,182.016,1.0
4.4166,128.181623,37.956273,6925.873473600001,-99.11,-3.645,182.036,1.0
4.4333,128.18162,37.956225,6925.3864032,-96.388,-3.639,182.058,1.0
4.45,128.181618,37.956178,6924.8965896,-93.679,-3.634,182.084,1.0
4.4666,128.181615,37.956131,6924.404337600001,-90.983,-3.63,182.111,1.0
4.4833,128.181613,37.956084,6923.909342400001,-88.299,-3.627,182.141,1.0
4.5,128.18161,37.956037,6923.411604,-85.626,-3.626,182.174,1.0
4.5166,128.181608,37.955989,6922.911427200001,-82.965,-3.626,182.209,1.0
4.5333,128.181605,37.955942,6922.4085072,-80.315,-3.629,182.246,1.0
4.55,128.181603,37.955895,6921.902844,-77.675,-3.633,182.285,1.0
4.5666,128.1816,37.955847,6921.394437600001,-75.045,-3.639,182.326,1.0
4.5833,128.181598,37.9558,6920.883592800001,-72.424,-3.648,182.369,1.0
4.6,128.181595,37.955753,6920.3700048,-69.812,-3.659,182.413,1.0
4.6166,128.181592,37.955706,6919.853673600001,-67.208,-3.673,182.459,1.0
4.6333,128.18159,37.955658,6919.3345992,-64.612,-3.689,182.506,1.0
4.65,128.181587,37.955611,6918.812781600001,-62.024,-3.708,182.553,1.0
4.6666,128.181585,37.955564,6918.2885256,-59.442,-3.73,182.602,1.0
4.6833,128.181582,37.955516,6917.761526400001,-56.867,-3.754,182.651,1.0
4.7,128.18158,37.955469,6917.2320887999995,-54.297,-3.782,182.7,1.0
4.7166,128.181577,37.955422,6916.6999080000005,-51.733,-3.812,182.75,1.0
4.7333,128.181574,37.955374,6916.1652888,-49.174,-3.845,182.799,1.0
4.75,128.181572,37.955327,6915.6279264,-46.619,-3.881,182.849,1.0
4.7666,128.181569,37.955279,6915.0881256,-44.067,-3.92,182.898,1.0
4.7833,128.181567,37.955232,6914.5458864,-41.519,-3.961,182.946,1.0
4.8,128.181564,37.955185,6914.0012088,-38.974,-4.006,182.993,1.0
4.8166,128.181562,37.955137,6913.453788000001,-36.431,-4.052,183.04,1.0
4.8333,128.181559,37.95509,6912.9039288,-33.89,-4.102,183.085,1.0
4.85,128.181556,37.955042,6912.3516312,-31.351,-4.154,183.129,1.0
4.8666,128.181554,37.954995,6911.7972,-28.812,-4.209,183.172,1.0
4.8833,128.181551,37.954947,6911.2400256,-26.274,-4.266,183.213,1.0
4.9,128.181549,37.9549,6910.6804128,-23.736,-4.325,183.252,1.0
4.9166,128.181546,37.954852,6910.1186664,-21.197,-4.386,183.289,1.0
4.9333,128.181543,37.954805,6909.5541768,-18.657,-4.449,183.324,1.0
4.95,128.181541,37.954757,6908.9875536,-16.116,-4.515,183.357,1.0
4.9666,128.181538,37.95471,6908.418492000001,-13.573,-4.581,183.388,1.0
4.9833,128.181536,37.954662,6907.846992000001,-11.028,-4.65,183.416,1.0
5.0,128.181533,37.954615,6907.2730536,-8.481,-4.72,183.442,1.0
5.0166,128.18153,37.954567,6906.6966768,-5.93,-4.791,183.465,1.0
5.0333,128.181528,37.95452,6906.1181664,-3.376,-4.863,183.486,1.0
5.05,128.181525,37.954472,6905.5369128,-0.818,-4.936,183.503,1.0
5.0666,128.181523,37.954424,6904.9535256,1.743,-5.01,183.519,1.0
5.0833,128.18152,37.954377,6904.368004800001,4.31,-5.076,183.531,1.0
5.1,128.181517,37.954329,6903.7803504,6.881,-5.126,183.543,1.0
5.1166,128.181515,37.954282,6903.1905624,9.458,-5.154,183.556,1.0
5.1333,128.181512,37.954234,6902.5992504000005,12.039,-5.156,183.572,1.0
5.15,128.181509,37.954186,6902.006414400001,14.625,-5.132,183.593,1.0
5.1666,128.181507,37.954139,6901.412054400001,17.216,-5.082,183.621,1.0
5.1833,128.181504,37.954091,6900.8170848,19.806,-5.009,183.658,1.0
5.2,128.181502,37.954043,6900.2218104,22.38,-4.914,183.704,1.0
5.2166,128.181499,37.953996,6899.6271456,24.925,-4.801,183.761,1.0
5.2333,128.181496,37.953948,6899.0330904,27.431,-4.67,183.829,1.0
5.25,128.181493,37.9539,6898.4405592,29.888,-4.527,183.909,1.0
5.2666,128.181491,37.953853,6897.849552000001,32.288,-4.373,184.001,1.0
5.2833,128.181488,37.953805,6897.260678400001,34.626,-4.213,184.106,1.0
5.3,128.181485,37.953757,6896.6736336,36.899,-4.047,184.223,1.0
5.3166,128.181482,37.95371,6896.089027200001,39.106,-3.88,184.352,1.0
5.3333,128.181479,37.953662,6895.506859200001,41.248,-3.713,184.492,1.0
5.35,128.181476,37.953614,6894.9271296,43.327,-3.549,184.643,1.0
5.3666,128.181473,37.953566,6894.3498384,45.347,-3.39,184.803,1.0
5.3833,128.18147,37.953519,6893.7746808,47.311,-3.239,184.968,1.0
5.4,128.181467,37.953471,6893.2022664,49.224,-3.1,185.135,1.0
5.4166,128.181464,37.953423,6892.6316808,51.092,-2.975,185.301,1.0
5.4333,128.181461,37.953375,6892.0635336000005,52.92,-2.864,185.465,1.0
5.45,128.181458,37.953328,6891.497520000001,54.712,-2.767,185.625,1.0
5.4666,128.181454,37.95328,6890.9333352,56.472,-2.685,185.78,1.0
5.4833,128.181451,37.953232,6890.370674400001,58.204,-2.617,185.929,1.0
5.5,128.181447,37.953184,6889.809842400001,59.912,-2.561,186.072,1.0
5.5166,128.181444,37.953137,6889.2505344,61.597,-2.518,186.208,1.0
5.5333,128.18144,37.953089,6888.6927504000005,63.262,-2.485,186.337,1.0
5.55,128.181437,37.953041,6888.1358808,64.909,-2.463,186.46,1.0
5.5666,128.181433,37.952993,6887.5802304,66.538,-2.45,186.576,1.0
5.5833,128.181429,37.952946,6887.0251896,68.151,-2.446,186.685,1.0
5.6,128.181425,37.952898,6886.471063200001,69.748,-2.45,186.788,1.0
5.6166,128.181421,37.95285,6885.9169368,71.332,-2.461,186.883,1.0
5.6333,128.181417,37.952802,6885.363420000001,72.903,-2.478,186.971,1.0
5.65,128.181413,37.952755,6884.8099032,74.464,-2.502,187.051,1.0
5.6666,128.181408,37.952707,6884.2563864,76.015,-2.532,187.124,1.0
5.6833,128.181404,37.952659,6883.702260000001,77.56,-2.568,187.188,1.0
5.7,128.1814,37.952611,6883.147524000001,79.103,-2.608,187.244,1.0
5.7166,128.181395,37.952563,6882.5921784,80.649,-2.653,187.291,1.0
5.7333,128.181391,37.952516,6882.0356136,82.204,-2.703,187.328,1.0
5.75,128.181386,37.952468,6881.4778295999995,83.775,-2.758,187.355,1.0
5.7666,128.181381,37.95242,6880.9185216,85.376,-2.817,187.37,1.0
5.7833,128.181377,37.952372,6880.3579944,87.021,-2.88,187.373,1.0
5.8,128.181372,37.952325,6879.795333600001,88.732,-2.948,187.361,1.0
5.8166,128.181367,37.952277,6879.2311488000005,90.519,-3.019,187.333,1.0
5.8333,128.181362,37.952229,6878.6645256,92.382,-3.092,187.285,1.0
5.85,128.181358,37.952181,6878.096073600001,94.321,-3.164,187.214,1.0
5.8666,128.181353,37.952133,6877.524268800001,96.123,-3.219,187.119,1.0
5.8833,128.181348,37.952085,6876.9503304,97.795,-3.257,187.01,1.0
5.9,128.181343,37.952038,6876.3739536,99.333,-3.284,186.895,1.0
5.9166,128.181338,37.95199,6875.7954432,100.735,-3.304,186.782,1.0
5.9333,128.181333,37.951942,6875.2144944,102.004,-3.322,186.673,1.0
5.95,128.181328,37.951894,6874.6308024,103.143,-3.34,186.571,1.0
5.9666,128.181323,37.951846,6874.0449768,104.156,-3.357,186.477,1.0
5.9833,128.181318,37.951798,6873.4561032,105.049,-3.374,186.392,1.0
6.0,128.181313,37.951751,6872.864791200001,105.826,-3.392,186.314,1.0
6.0166,128.181307,37.951703,6872.2704312000005,106.493,-3.411,186.243,1.0
6.0333,128.181302,37.951655,6871.673328000001,107.052,-3.432,186.18,1.0
6.05,128.181297,37.951607,6871.072872,107.508,-3.453,186.124,1.0
6.0666,128.181291,37.951559,6870.469672800001,107.865,-3.475,186.074,1.0
6.0833,128.181286,37.951511,6869.8631208,108.133,-3.499,186.029,1.0
6.1,128.181281,37.951464,6869.2535208,108.323,-3.526,185.989,1.0
6.1166,128.181275,37.951416,6868.640568000001,108.45,-3.555,185.954,1.0
6.1333,128.181269,37.951368,6868.025481600001,108.711,-3.599,185.918,1.0
6.15,128.181264,37.95132,6867.407652000001,109.102,-3.657,185.88,1.0
6.1666,128.181258,37.951272,6866.7867744000005,109.628,-3.723,185.843,1.0
6.1833,128.181253,37.951225,6866.1631536,110.29,-3.792,185.808,1.0
6.2,128.181247,37.951177,6865.5367896,111.088,-3.861,185.776,1.0
6.2166,128.181241,37.951129,6864.9076824,111.999,-3.928,185.747,1.0
6.2333,128.181236,37.951081,6864.2761368,113.001,-3.992,185.721,1.0
6.25,128.18123,37.951033,6863.6421528,114.073,-4.052,185.699,1.0
6.2666,128.181224,37.950985,6863.00634,115.198,-4.109,185.68,1.0
6.2833,128.181218,37.950938,6862.3680888,116.364,-4.163,185.664,1.0
6.3,128.181213,37.95089,6861.728008800001,117.563,-4.215,185.65,1.0
6.3166,128.181207,37.950842,6861.085795200001,118.79,-4.267,185.638,1.0
6.3333,128.181201,37.950794,6860.441448,120.044,-4.318,185.627,1.0
6.35,128.181195,37.950746,6859.795272,121.323,-4.369,185.618,1.0
6.3666,128.18119,37.950698,6859.1469624,122.629,-4.421,185.609,1.0
6.3833,128.181184,37.95065,6858.497128800001,123.964,-4.473,185.6,1.0
6.4,128.181178,37.950602,6857.8454664,125.329,-4.525,185.592,1.0
6.4166,128.181173,37.950555,6857.19228,126.726,-4.578,185.584,1.0
6.4333,128.181167,37.950507,6856.5372648,128.157,-4.631,185.576,1.0
6.45,128.181161,37.950459,6855.8810304,129.624,-4.684,185.567,1.0
6.4666,128.181155,37.950411,6855.223272,131.13,-4.738,185.559,1.0
6.4833,128.18115,37.950363,6854.5642944,132.675,-4.791,185.55,1.0
6.5,128.181144,37.950315,6853.904097600001,134.263,-4.845,185.541,1.0
6.5166,128.181138,37.950267,6853.242681600001,135.895,-4.899,185.531,1.0
6.5333,128.181133,37.950219,6852.5803512,137.572,-4.952,185.52,1.0
6.55,128.181127,37.950171,6851.917106400001,139.296,-5.006,185.508,1.0
6.5666,128.181121,37.950123,6851.253252,141.069,-5.059,185.496,1.0
6.5833,128.181116,37.950075,6850.588788000001,142.892,-5.112,185.482,1.0
6.6,128.18111,37.950027,6849.923409600001,144.766,-5.164,185.468,1.0
6.6166,128.181105,37.949979,6849.2580312,146.693,-5.215,185.452,1.0
6.6333,128.181099,37.949931,6848.592043199999,148.674,-5.266,185.435,1.0
6.65,128.181093,37.949883,6847.9260552000005,150.71,-5.316,185.417,1.0
6.6666,128.181088,37.949835,6847.2597624,152.802,-5.365,185.398,1.0
6.6833,128.181082,37.949786,6846.5934696,154.95,-5.412,185.377,1.0
6.7,128.181077,37.949738,6845.927481600001,157.153,-5.458,185.355,1.0
6.7166,128.181071,37.94969,6845.2611888,159.408,-5.503,185.333,1.0
6.7333,128.181066,37.949642,6844.5948960000005,161.713,-5.545,185.309,1.0
6.75,128.18106,37.949594,6843.9286032,164.063,-5.586,185.285,1.0
6.7666,128.181054,37.949546,6843.2623104,166.456,-5.625,185.261,1.0
6.7833,128.181049,37.949498,6842.5960176,168.89,-5.662,185.236,1.0
6.8,128.181043,37.949449,6841.92942,171.361,-5.697,185.211,1.0
6.8166,128.181038,37.949401,6841.263127200001,173.866,-5.73,185.185,1.0
6.8333,128.181032,37.949353,6840.5965295999995,176.403,-5.76,185.159,1.0
6.85,128.181027,37.949305,6839.929932,178.969,-5.788,185.133,1.0
6.8666,128.181021,37.949256,6839.2630296,-178.437,-5.814,185.107,1.0
6.8833,128.181016,37.949208,6838.5961272,-175.82,-5.838,185.081,1.0
6.9,128.18101,37.94916,6837.928920000001,-173.18,-5.859,185.054,1.0
6.9166,128.181005,37.949112,6837.2611032,-170.521,-5.878,185.029,1.0
6.9333,128.180999,37.949063,6836.593286400001,-167.843,-5.895,185.003,1.0
6.95,128.180993,37.949015,6835.9245552,-165.15,-5.909,184.979,1.0
6.9666,128.180988,37.948967,6835.255519200001,-162.443,-5.921,184.955,1.0
6.9833,128.180982,37.948918,6834.585873600001,-159.723,-5.93,184.931,1.0
7.0,128.180977,37.94887,6833.9153136,-156.993,-5.937,184.909,1.0
7.0166,128.180971,37.948822,6833.244144,-154.254,-5.942,184.888,1.0
7.0333,128.180965,37.948773,6832.571755200001,-151.508,-5.945,184.869,1.0
7.05,128.18096,37.948725,6831.898452000001,-148.756,-5.945,184.851,1.0
7.0666,128.180954,37.948676,6831.2242344,-145.999,-5.944,184.834,1.0
7.0833,128.180948,37.948628,6830.5484928000005,-143.24,-5.94,184.82,1.0
7.1,128.180943,37.94858,6829.871836800001,-140.478,-5.935,184.807,1.0
7.1166,128.180937,37.948531,6829.193352000001,-137.715,-5.928,184.796,1.0
7.1333,128.180931,37.948483,6828.513648,-134.952,-5.92,184.788,1.0
7.15,128.180926,37.948434,6827.832115200001,-132.19,-5.91,184.782,1.0
7.1666,128.18092,37.948386,6827.1487536,-129.43,-5.899,184.778,1.0
7.1833,128.180914,37.948337,6826.463868000001,-126.673,-5.887,184.777,1.0
7.2,128.180908,37.948289,6825.7771536,-123.919,-5.874,184.779,1.0
7.2166,128.180903,37.94824,6825.0883056,-121.169,-5.86,184.783,1.0
7.2333,128.180897,37.948192,6824.3973240000005,-118.424,-5.846,184.789,1.0
7.25,128.180891,37.948143,6823.7042088,-115.684,-5.831,184.799,1.0
7.2666,128.180885,37.948095,6823.00896,-112.95,-5.817,184.811,1.0
7.2833,128.180879,37.948046,6822.3115776,-110.222,-5.802,184.826,1.0
7.3,128.180873,37.947998,6821.611756800001,-107.501,-5.788,184.844,1.0
7.3166,128.180868,37.947949,6820.909497600001,-104.786,-5.774,184.865,1.0
7.3333,128.180862,37.9479,6820.2048,-102.077,-5.761,184.888,1.0
7.35,128.180856,37.947852,6819.497664,-99.374,-5.749,184.914,1.0
7.3666,128.18085,37.947803,6818.7880896,-96.677,-5.737,184.943,1.0
7.3833,128.180844,37.947755,6818.0760768,-93.986,-5.727,184.974,1.0
7.4,128.180838,37.947706,6817.3613208,-91.3,-5.718,185.008,1.0
7.4166,128.180832,37.947657,6816.6441264000005,-88.62,-5.711,185.045,1.0
7.4333,128.180826,37.947609,6815.9241888,-85.945,-5.706,185.084,1.0
7.45,128.18082,37.94756,6815.2018128,-83.275,-5.702,185.124,1.0
7.4666,128.180815,37.947511,6814.4769983999995,-80.609,-5.7,185.168,1.0
7.4833,128.180809,37.947463,6813.7494408,-77.947,-5.701,185.212,1.0
7.5,128.180803,37.947414,6813.01914,-75.29,-5.704,185.259,1.0
7.5166,128.180797,37.947365,6812.286400800001,-72.636,-5.71,185.307,1.0
7.5333,128.180791,37.947317,6811.5509184,-69.986,-5.718,185.357,1.0
7.55,128.180785,37.947268,6810.812997600001,-67.338,-5.728,185.408,1.0
7.5666,128.180779,37.947219,6810.072638400001,-64.693,-5.742,185.46,1.0
7.5833,128.180773,37.94717,6809.329536,-62.051,-5.758,185.513,1.0
7.6,128.180767,37.947122,6808.583995200001,-59.41,-5.778,185.567,1.0
7.6166,128.180761,37.947073,6807.836016,-56.771,-5.8,185.621,1.0
7.6333,128.180755,37.947024,6807.0852936,-54.133,-5.825,185.675,1.0
7.65,128.180749,37.946975,6806.3321328,-51.496,-5.854,185.73,1.0
7.6666,128.180743,37.946927,6805.576838400001,-48.859,-5.885,185.784,1.0
7.6833,128.180737,37.946878,6804.818800800001,-46.222,-5.92,185.838,1.0
7.7,128.180731,37.946829,6804.058324800001,-43.585,-5.957,185.892,1.0
7.7166,128.180725,37.94678,6803.295715200001,-40.948,-5.997,185.945,1.0
7.7333,128.180719,37.946731,6802.5306672,-38.309,-6.041,185.997,1.0
7.75,128.180713,37.946683,6801.7631808,-35.669,-6.087,186.047,1.0
7.7666,128.180707,37.946634,6800.993256000001,-33.027,-6.136,186.097,1.0
7.7833,128.180701,37.946585,6800.221197600001,-30.383,-6.187,186.145,1.0
7.8,128.180695,37.946536,6799.4467008,-27.737,-6.242,186.191,1.0
7.8166,128.180689,37.946487,6798.669765600001,-25.087,-6.298,186.236,1.0
7.8333,128.180683,37.946438,6797.890696800001,-22.435,-6.358,186.278,1.0
7.85,128.180677,37.946389,6797.1094944,-19.778,-6.419,186.319,1.0
7.8666,128.180671,37.94634,6796.3258536,-17.118,-6.483,186.357,1.0
7.8833,128.180665,37.946291,6795.540079200001,-14.453,-6.548,186.393,1.0
7.9,128.180659,37.946243,6794.7518664,-11.783,-6.615,186.426,1.0
7.9166,128.180653,37.946194,6793.961215200001,-9.109,-6.684,186.457,1.0
7.9333,128.180647,37.946145,6793.1687352,-6.429,-6.749,186.484,1.0
7.95,128.180641,37.946096,6792.3744264,-3.743,-6.799,186.508,1.0
7.9666,128.180635,37.946047,6791.578288799999,-1.051,-6.828,186.527,1.0
7.9833,128.180629,37.945998,6790.780627200001,1.646,-6.833,186.545,1.0
8.0,128.180623,37.945949,6789.981441600001,4.35,-6.811,186.563,1.0
8.0166,128.180617,37.9459,6789.181036800001,7.058,-6.762,186.584,1.0
8.0333,128.180611,37.945851,6788.3809368,9.757,-6.688,186.608,1.0
8.05,128.180605,37.945802,6787.5814464000005,12.432,-6.591,186.637,1.0
8.0666,128.180599,37.945753,6786.7825656,15.069,-6.473,186.672,1.0
8.0833,128.180593,37.945704,6785.9858184,17.656,-6.337,186.715,1.0
8.1,128.180587,37.945655,6785.1909000000005,20.182,-6.184,186.768,1.0
8.1166,128.180581,37.945606,6784.398724800001,22.64,-6.018,186.832,1.0
8.1333,128.180575,37.945556,6783.609597600001,25.025,-5.842,186.908,1.0
8.15,128.180569,37.945507,6782.8238232,27.331,-5.658,186.995,1.0
8.1666,128.180563,37.945458,6782.0414016,29.559,-5.468,187.096,1.0
8.1833,128.180556,37.945409,6781.262942400001,31.709,-5.276,187.208,1.0
8.2,128.18055,37.94536,6780.4881408,33.782,-5.082,187.333,1.0
8.2166,128.180544,37.945311,6779.717301600001,35.783,-4.89,187.469,1.0
8.2333,128.180537,37.945262,6778.9507296,37.715,-4.701,187.615,1.0
8.25,128.180531,37.945213,6778.188120000001,39.583,-4.516,187.77,1.0
8.2666,128.180525,37.945164,6777.4294728,41.392,-4.338,187.934,1.0
8.2833,128.180518,37.945115,6776.675092800001,43.148,-4.166,188.105,1.0
8.3,128.180511,37.945066,6775.9246752,44.857,-4.004,188.281,1.0
8.3166,128.180505,37.945017,6775.178220000001,46.523,-3.853,188.459,1.0
8.3333,128.180498,37.944967,6774.4354224,48.151,-3.715,188.637,1.0
8.35,128.180491,37.944918,6773.696587200001,49.747,-3.593,188.811,1.0
8.3666,128.180484,37.944869,6772.9614096000005,51.314,-3.485,188.981,1.0
8.3833,128.180477,37.94482,6772.2295848,52.856,-3.391,189.146,1.0
8.4,128.18047,37.944771,6771.5014176,54.374,-3.311,189.306,1.0
8.4166,128.180463,37.944722,6770.7762984,55.871,-3.243,189.461,1.0
8.4333,128.180456,37.944673,6770.054532,57.347,-3.187,189.61,1.0
8.45,128.180448,37.944624,6769.3355088,58.803,-3.141,189.754,1.0
8.4666,128.180441,37.944575,6768.619533600001,60.239,-3.104,189.893,1.0
8.4833,128.180433,37.944525,6767.906301600001,61.654,-3.075,190.027,1.0
8.5,128.180426,37.944476,6767.195812800001,63.048,-3.054,190.157,1.0
8.5166,128.180418,37.944427,6766.4874576,64.418,-3.04,190.283,1.0
8.5333,128.18041,37.944378,6765.781540800001,65.766,-3.033,190.405,1.0
8.55,128.180402,37.944329,6765.0774528,67.089,-3.031,190.522,1.0
8.5666,128.180394,37.94428,6764.3754984,68.387,-3.035,190.635,1.0
8.5833,128.180386,37.944231,6763.6750680000005,69.66,-3.044,190.743,1.0
8.6,128.180378,37.944182,6762.9761616,70.906,-3.058,190.848,1.0
8.6166,128.18037,37.944133,6762.278474400001,72.125,-3.076,190.947,1.0
8.6333,128.180361,37.944084,6761.582006400001,73.318,-3.099,191.043,1.0
8.65,128.180353,37.944035,6760.8864527999995,74.485,-3.126,191.133,1.0
8.6666,128.180344,37.943986,6760.1915088000005,75.624,-3.156,191.219,1.0
8.6833,128.180335,37.943937,6759.4971744,76.737,-3.19,191.3,1.0
8.7,128.180327,37.943888,6758.8031448,77.823,-3.227,191.376,1.0
8.7166,128.180318,37.943839,6758.109115200001,78.883,-3.266,191.447,1.0
8.7333,128.180309,37.94379,6757.4153904,79.918,-3.308,191.513,1.0
8.75,128.1803,37.943741,6756.721360800001,80.926,-3.353,191.574,1.0
8.7666,128.18029,37.943692,6756.0270264,81.909,-3.4,191.629,1.0
8.7833,128.180281,37.943643,6755.3320824,82.866,-3.448,191.68,1.0
8.8,128.180272,37.943594,6754.6368336000005,83.799,-3.498,191.725,1.0
8.8166,128.180262,37.943545,6753.9403656,84.707,-3.549,191.766,1.0
8.8333,128.180253,37.943496,6753.243288000001,85.589,-3.602,191.801,1.0
8.85,128.180243,37.943447,6752.5449912,86.446,-3.655,191.831,1.0
8.8666,128.180233,37.943398,6751.8454752,87.274,-3.708,191.857,1.0
8.8833,128.180223,37.94335,6751.14474,88.061,-3.759,191.877,1.0
8.9,128.180213,37.943301,6750.4424808,88.797,-3.808,191.894,1.0
8.9166,128.180203,37.943252,6749.738697600001,89.474,-3.855,191.907,1.0
8.9333,128.180193,37.943203,6749.0333904,90.089,-3.899,191.916,1.0
8.95,128.180183,37.943154,6748.326559200001,90.656,-3.942,191.923,1.0
8.9666,128.180172,37.943105,6747.6175944,91.161,-3.984,191.933,1.0
8.9833,128.180162,37.943057,6746.9071056,91.611,-4.025,191.929,1.0
9.0,128.180151,37.943008,6746.194788000001,92.017,-4.064,191.895,1.0
9.0166,128.180141,37.942959,6745.4806416,92.39,-4.104,191.828,1.0
9.0333,128.18013,37.94291,6744.7643616,92.739,-4.143,191.739,1.0
9.05,128.180119,37.942862,6744.0465576,93.075,-4.182,191.64,1.0
9.0666,128.180108,37.942813,6743.326315200001,93.406,-4.22,191.54,1.0
9.0833,128.180098,37.942764,6742.6039392,93.744,-4.256,191.444,1.0
9.1,128.180087,37.942715,6741.8794296,94.096,-4.288,191.354,1.0
9.1166,128.180076,37.942667,6741.1527864,94.467,-4.317,191.272,1.0
9.1333,128.180065,37.942618,6740.4243144,94.86,-4.343,191.196,1.0
9.15,128.180054,37.942569,6739.693404000001,95.275,-4.369,191.126,1.0
9.1666,128.180043,37.94252,6738.960664800001,95.715,-4.394,191.063,1.0
9.1833,128.180032,37.942472,6738.225792,96.182,-4.42,191.005,1.0
9.2,128.18002,37.942423,6737.4890904,96.677,-4.445,190.952,1.0
9.2166,128.180009,37.942374,6736.749950400001,97.197,-4.471,190.905,1.0
9.2333,128.179998,37.942325,6736.0089816,97.741,-4.496,190.861,1.0
9.25,128.179987,37.942277,6735.2655744,98.304,-4.52,190.823,1.0
9.2666,128.179975,37.942228,6734.520338400001,98.884,-4.543,190.789,1.0
9.2833,128.179964,37.942179,6733.772664,99.477,-4.566,190.758,1.0
9.3,128.179953,37.942131,6733.0228560000005,100.079,-4.588,190.732,1.0
9.3166,128.179941,37.942082,6732.270914400001,100.689,-4.609,190.709,1.0
9.3333,128.17993,37.942033,6731.5168392,101.301,-4.63,190.689,1.0
9.35,128.179919,37.941984,6730.7603256,101.913,-4.65,190.673,1.0
9.3666,128.179907,37.941936,6730.001983200001,102.522,-4.671,190.659,1.0
9.3833,128.179896,37.941887,6729.240897600001,103.124,-4.691,190.649,1.0
9.4,128.179884,37.941838,6728.478897600001,103.862,-4.721,190.638,1.0
9.4166,128.179873,37.941789,6727.714764,104.729,-4.762,190.627,1.0
9.4333,128.179861,37.941741,6726.948496800001,105.729,-4.809,190.616,1.0
9.45,128.17985,37.941692,6726.180096,106.861,-4.858,190.606,1.0
9.4666,128.179838,37.941643,6725.4101712,108.125,-4.906,190.598,1.0
9.4833,128.179827,37.941594,6724.6384176,109.498,-4.952,190.592,1.0
9.5,128.179815,37.941546,6723.86514,110.961,-4.994,190.588,1.0
9.5166,128.179804,37.941497,6723.090338400001,112.494,-5.034,190.586,1.0
9.5333,128.179792,37.941448,6722.313708,114.081,-5.071,190.587,1.0
9.55,128.179781,37.941399,6721.5355536,115.705,-5.108,190.59,1.0
9.5666,128.179769,37.941351,6720.75618,117.351,-5.148,190.592,1.0
9.5833,128.179758,37.941302,6719.974977600001,119.011,-5.192,190.594,1.0
9.6,128.179746,37.941253,6719.192251200001,120.682,-5.24,190.594,1.0
9.6166,128.179735,37.941204,6718.406781600001,122.216,-5.281,190.601,1.0
9.6333,128.179723,37.941155,6717.619483200001,123.632,-5.316,190.614,1.0
9.65,128.179712,37.941106,6716.830356,124.958,-5.35,190.628,1.0
9.6666,128.1797,37.941058,6716.0384856,126.22,-5.39,190.641,1.0
9.6833,128.179689,37.941009,6715.2450912,127.445,-5.436,190.65,1.0
9.7,128.179677,37.94096,6714.4501728000005,128.657,-5.488,190.656,1.0
9.7166,128.179666,37.940911,6713.6537304,129.875,-5.544,190.658,1.0
9.7333,128.179654,37.940862,6712.855764000001,131.116,-5.603,190.658,1.0
9.75,128.179643,37.940813,6712.056883200001,132.387,-5.664,190.657,1.0
9.7666,128.179631,37.940764,6711.2567832,133.697,-5.725,190.655,1.0
9.7833,128.17962,37.940716,6710.4557688,135.047,-5.786,190.652,1.0
9.8,128.179608,37.940667,6709.6535352,136.44,-5.848,190.649,1.0
9.8166,128.179597,37.940618,6708.850692000001,137.879,-5.908,190.644,1.0
9.8333,128.179585,37.940569,6708.0469344,139.364,-5.969,190.638,1.0
9.85,128.179574,37.94052,6707.2422624,140.897,-6.029,190.631,1.0
9.8666,128.179562,37.940471,6706.4372856,142.48,-6.088,190.623,1.0
9.8833,128.179551,37.940422,6705.6316992,144.113,-6.147,190.613,1.0
9.9,128.179539,37.940373,6704.8255032,145.799,-6.205,190.601,1.0
9.9166,128.179528,37.940324,6704.0193072,147.539,-6.262,190.589,1.0
9.9333,128.179517,37.940275,6703.212806400001,149.335,-6.319,190.574,1.0
9.95,128.179505,37.940226,6702.4063056,151.187,-6.374,190.558,1.0
9.9666,128.179494,37.940177,6701.5998048,153.097,-6.428,190.541,1.0
9.9833,128.179482,37.940128,6700.793304,155.065,-6.48,190.522,1.0
10.0,128.179471,37.940079,6699.9868032,157.094,-6.532,190.501,1.0
10.0166,128.17946,37.94003,6699.180912,159.183,-6.581,190.479,1.0
10.0333,128.179448,37.939981,6698.3753256,161.332,-6.629,190.455,1.0
10.05,128.179437,37.939932,6697.5703488,163.543,-6.675,190.43,1.0
10.0666,128.179426,37.939883,6696.765372,165.812,-6.719,190.404,1.0
10.0833,128.179414,37.939834,6695.9610048,168.135,-6.76,190.377,1.0
10.1,128.179403,37.939785,6695.156637600001,170.51,-6.799,190.349,1.0
10.1166,128.179392,37.939735,6694.3528799999995,172.932,-6.836,190.321,1.0
10.1333,128.17938,37.939686,6693.549122400001,175.398,-6.87,190.293,1.0
10.15,128.179369,37.939637,6692.745669600001,177.906,-6.902,190.264,1.0
10.1666,128.179357,37.939588,6691.9425216,-179.548,-6.931,190.236,1.0
10.1833,128.179346,37.939539,6691.1390688,-176.968,-6.957,190.207,1.0
10.2,128.179335,37.939489,6690.3359208,-174.357,-6.981,190.178,1.0
10.2166,128.179323,37.93944,6689.5327728,-171.716,-7.001,190.15,1.0
10.2333,128.179312,37.939391,6688.72932,-169.048,-7.02,190.121,1.0
10.25,128.179301,37.939342,6687.9255624,-166.357,-7.035,190.094,1.0
10.2666,128.179289,37.939292,6687.1215,-163.644,-7.048,190.067,1.0
10.2833,128.179278,37.939243,6686.317132800001,-160.911,-7.058,190.04,1.0
10.3,128.179266,37.939194,6685.512460800001,-158.162,-7.065,190.015,1.0
10.3166,128.179255,37.939145,6684.706874400001,-155.397,-7.07,189.991,1.0
10.3333,128.179243,37.939095,6683.9006784,-152.619,-7.072,189.969,1.0
10.35,128.179232,37.939046,6683.093568,-149.829,-7.072,189.948,1.0
10.3666,128.17922,37.938997,6682.2855432,-147.03,-7.07,189.929,1.0
10.3833,128.179209,37.938947,6681.476604,-144.222,-7.065,189.911,1.0
10.4,128.179197,37.938898,6680.666445600001,-141.408,-7.058,189.896,1.0
10.4166,128.179186,37.938848,6679.8547632,-138.589,-7.049,189.883,1.0
10.4333,128.179174,37.938799,6679.0418616,-135.765,-7.039,189.872,1.0
10.45,128.179163,37.93875,6678.2277408,-132.938,-7.027,189.864,1.0
10.4666,128.179151,37.9387,6677.4114864,-130.11,-7.013,189.858,1.0
10.4833,128.17914,37.938651,6676.5940128,-127.281,-6.998,189.856,1.0
10.5,128.179128,37.938601,6675.774405600001,-124.453,-6.983,189.856,1.0
10.5166,128.179116,37.938552,6674.952969600001,-121.625,-6.966,189.858,1.0
10.5333,128.179105,37.938503,6674.129704800001,-118.799,-6.948,189.864,1.0
10.55,128.179093,37.938453,6673.304306400001,-115.976,-6.931,189.873,1.0
10.5666,128.179081,37.938404,6672.476774400001,-113.156,-6.913,189.884,1.0
10.5833,128.17907,37.938354,6671.646804,-110.34,-6.895,189.899,1.0
10.6,128.179058,37.938305,6670.8147,-107.527,-6.877,189.917,1.0
10.6166,128.179046,37.938255,6669.9804624,-104.718,-6.86,189.938,1.0
10.6333,128.179035,37.938206,6669.1437864,-101.912,-6.843,189.962,1.0
10.65,128.179023,37.938156,6668.304672,-99.11,-6.827,189.989,1.0
10.6666,128.179011,37.938107,6667.463119200001,-96.312,-6.812,190.018,1.0
10.6833,128.178999,37.938057,6666.6188232,-93.517,-6.799,190.051,1.0
10.7,128.178988,37.938008,6665.7723936,-90.725,-6.786,190.087,1.0
10.7166,128.178976,37.937958,6664.9232208,-87.936,-6.776,190.125,1.0
10.7333,128.178964,37.937909,6664.0719144,-85.151,-6.767,190.166,1.0
10.75,128.178952,37.937859,6663.217864800001,-82.367,-6.761,190.209,1.0
10.7666,128.178941,37.937809,6662.361072000001,-79.586,-6.756,190.254,1.0
10.7833,128.178929,37.93776,6661.5021456,-76.807,-6.754,190.302,1.0
10.8,128.178917,37.93771,6660.640476,-74.03,-6.755,190.351,1.0
10.8166,128.178905,37.937661,6659.776368000001,-71.255,-6.758,190.402,1.0
10.8333,128.178893,37.937611,6658.9095168,-68.48,-6.765,190.455,1.0
10.85,128.178882,37.937561,6658.040532,-65.707,-6.774,190.509,1.0
10.8666,128.17887,37.937512,6657.168804,-62.934,-6.786,190.564,1.0
10.8833,128.178858,37.937462,6656.294942400001,-60.161,-6.801,190.62,1.0
10.9,128.178846,37.937412,6655.418337600001,-57.388,-6.82,190.677,1.0
10.9166,128.178834,37.937363,6654.5395992,-54.615,-6.842,190.734,1.0
10.9333,128.178822,37.937313,6653.6584224,-51.841,-6.867,190.791,1.0
10.95,128.178811,37.937263,6652.775112,-49.066,-6.895,190.849,1.0
10.9666,128.178799,37.937214,6651.8890584,-46.289,-6.927,190.906,1.0
10.9833,128.178787,37.937164,6651.001176,-43.511,-6.961,190.963,1.0
11.0,128.178775,37.937114,6650.110550400001,-40.73,-7.0,191.019,1.0
11.0166,128.178763,37.937064,6649.2180960000005,-37.947,-7.041,191.074,1.0
11.0333,128.178751,37.937015,6648.3232032,-35.16,-7.085,191.128,1.0
11.05,128.17874,37.936965,6647.426176800001,-32.371,-7.133,191.181,1.0
11.0666,128.178728,37.936915,6646.5270168,-29.578,-7.184,191.232,1.0
11.0833,128.178716,37.936865,6645.6254184,-26.781,-7.237,191.281,1.0
11.1,128.178704,37.936816,6644.7219912,-23.979,-7.293,191.329,1.0
11.1166,128.178692,37.936766,6643.8161256,-21.173,-7.352,191.374,1.0
11.1333,128.17868,37.936716,6642.9084312,-18.362,-7.413,191.417,1.0
11.15,128.178669,37.936666,6641.9982984,-15.546,-7.477,191.458,1.0
11.1666,128.178657,37.936616,6641.0863368,-12.723,-7.541,191.496,1.0
11.1833,128.178645,37.936567,6640.172546400001,-9.895,-7.596,191.529,1.0
11.2,128.178633,37.936517,6639.2569272,-7.059,-7.632,191.556,1.0
11.2166,128.178621,37.936467,6638.3400888,-4.217,-7.645,191.578,1.0
11.2333,128.178609,37.936417,6637.4217264,-1.369,-7.631,191.598,1.0
11.25,128.178597,37.936367,6636.503364,1.473,-7.59,191.615,1.0
11.2666,128.178585,37.936317,6635.585611200001,4.295,-7.522,191.633,1.0
11.2833,128.178574,37.936267,6634.668468,7.082,-7.43,191.652,1.0
11.3,128.178562,37.936218,6633.7531536,9.822,-7.315,191.676,1.0
11.3166,128.17855,37.936168,6632.8402776,12.501,-7.18,191.706,1.0
11.3333,128.178538,37.936118,6631.92984,15.11,-7.027,191.744,1.0
11.35,128.178526,37.936068,6631.022755200001,17.64,-6.859,191.792,1.0
11.3666,128.178514,37.936018,6630.119328000001,20.087,-6.679,191.852,1.0
11.3833,128.178502,37.935968,6629.220168000001,22.447,-6.488,191.924,1.0
11.4,128.17849,37.935918,6628.324970400001,24.719,-6.29,192.009,1.0
11.4166,128.178478,37.935868,6627.4343448,26.905,-6.088,192.106,1.0
11.4333,128.178466,37.935818,6626.5485960000005,29.007,-5.882,192.216,1.0
11.45,128.178454,37.935768,6625.667724000001,31.028,-5.676,192.337,1.0
11.4666,128.178441,37.935718,6624.791728800001,32.973,-5.472,192.47,1.0
11.4833,128.178429,37.935668,6623.9209152,34.848,-5.27,192.613,1.0
11.5,128.178417,37.935618,6623.0552832,36.659,-5.074,192.765,1.0
11.5166,128.178404,37.935569,6622.194832800001,38.41,-4.883,192.926,1.0
11.5333,128.178392,37.935519,6621.3392592,40.108,-4.7,193.094,1.0
11.55,128.178379,37.935469,6620.4888672,41.76,-4.524,193.268,1.0
11.5666,128.178367,37.935419,6619.643656800001,43.369,-4.357,193.447,1.0
11.5833,128.178354,37.935369,6618.803628000001,44.941,-4.2,193.63,1.0
11.6,128.178341,37.935319,6617.9681712,46.48,-4.055,193.812,1.0
11.6166,128.178329,37.935269,6617.137896,47.991,-3.924,193.993,1.0
11.6333,128.178316,37.935219,6616.312192800001,49.478,-3.807,194.169,1.0
11.65,128.178303,37.935169,6615.4910616,50.942,-3.705,194.34,1.0
11.6666,128.17829,37.935119,6614.6745024,52.385,-3.616,194.507,1.0
11.6833,128.178276,37.935069,6613.862210400001,53.81,-3.54,194.668,1.0
11.7,128.178263,37.935019,6613.0544904,55.215,-3.474,194.825,1.0
11.7166,128.17825,37.93497,6612.2507328,56.602,-3.419,194.977,1.0
11.7333,128.178236,37.93492,6611.4509376000005,57.969,-3.372,195.125,1.0
11.75,128.178223,37.93487,6610.6551048,59.315,-3.333,195.269,1.0
11.7666,128.178209,37.93482,6609.8629296,60.639,-3.302,195.41,1.0
11.7833,128.178195,37.93477,6609.0741072,61.94,-3.277,195.547,1.0
11.8,128.178181,37.93472,6608.288637600001,63.216,-3.259,195.68,1.0
11.8166,128.178167,37.934671,6607.5065208,64.466,-3.246,195.81,1.0
11.8333,128.178153,37.934621,6606.727452000001,65.689,-3.238,195.937,1.0
11.85,128.178139,37.934571,6605.9511264,66.884,-3.236,196.061,1.0
11.8666,128.178125,37.934521,6605.1772392,68.051,-3.238,196.181,1.0
11.8833,128.17811,37.934472,6604.4057904,69.189,-3.245,196.297,1.0
11.9,128.178096,37.934422,6603.63678,70.297,-3.256,196.41,1.0
11.9166,128.178081,37.934372,6602.8695984,71.375,-3.271,196.52,1.0
11.9333,128.178066,37.934323,6602.1042456000005,72.423,-3.29,196.626,1.0
11.95,128.178051,37.934273,6601.3404168,73.441,-3.312,196.728,1.0
11.9666,128.178036,37.934223,6600.578112,74.428,-3.337,196.826,1.0
11.9833,128.178021,37.934174,6599.8170264,75.384,-3.365,196.921,1.0
12.0,128.178006,37.934124,6599.05716,76.309,-3.396,197.012,1.0
12.0166,128.17799,37.934074,6598.298208,77.203,-3.429,197.1,1.0
12.0333,128.177975,37.934025,6597.539865600001,78.065,-3.465,197.184,1.0
12.05,128.177959,37.933975,6596.782132800001,78.894,-3.502,197.265,1.0
12.0666,128.177944,37.933926,6596.025009600001,79.69,-3.54,197.343,1.0
12.0833,128.177928,37.933876,6595.268191200001,80.452,-3.58,197.417,1.0
12.1,128.177912,37.933827,6594.511372800001,81.179,-3.622,197.489,1.0
12.1166,128.177896,37.933778,6593.7548592,81.87,-3.664,197.558,1.0
12.1333,128.17788,37.933728,6592.9980408,82.523,-3.706,197.625,1.0
12.15,128.177864,37.933679,6592.2412224,83.229,-3.757,197.691,1.0
12.1666,128.177847,37.933629,6591.4837944,83.969,-3.814,197.756,1.0
12.1833,128.177831,37.93358,6590.725452000001,84.719,-3.871,197.819,1.0
12.2,128.177814,37.933531,6589.966195200001,85.447,-3.924,197.881,1.0
12.2166,128.177798,37.933481,6589.2057192,86.125,-3.968,197.944,1.0
12.2333,128.177781,37.933432,6588.444633600001,86.728,-4.006,198.007,1.0
12.25,128.177764,37.933383,6587.6823288000005,87.251,-4.039,198.073,1.0
12.2666,128.177747,37.933334,6586.9194144,87.695,-4.07,198.134,1.0
12.2833,128.17773,37.933285,6586.1552808,88.05,-4.101,198.183,1.0
12.3,128.177713,37.933235,6585.3899280000005,88.293,-4.129,198.218,1.0
12.3166,128.177695,37.933186,6584.623660800001,88.465,-4.159,198.235,1.0
12.3333,128.177678,37.933137,6583.856479200001,88.562,-4.191,198.235,1.0
12.35,128.17766,37.933088,6583.0874688,88.579,-4.221,198.22,1.0
12.3666,128.177643,37.933039,6582.3172392,88.512,-4.246,198.194,1.0
12.3833,128.177625,37.93299,6581.5457904,88.355,-4.264,198.158,1.0
12.4,128.177607,37.932941,6580.7731224,88.109,-4.277,198.119,1.0
12.4166,128.177589,37.932892,6579.9992352,87.774,-4.286,198.08,1.0
12.4333,128.177571,37.932843,6579.2244336,87.354,-4.295,198.046,1.0
12.45,128.177553,37.932794,6578.4487176,86.863,-4.304,198.02,1.0
12.4666,128.177535,37.932745,6577.6720872000005,86.323,-4.317,198.008,1.0
12.4833,128.177516,37.932697,6576.894847200001,85.757,-4.332,198.012,1.0
12.5,128.177498,37.932648,6576.116388,85.188,-4.35,198.033,1.0
12.5166,128.177479,37.932599,6575.337014400001,84.633,-4.371,198.072,1.0
12.5333,128.177461,37.93255,6574.5567264,84.105,-4.392,198.129,1.0
12.55,128.177442,37.932501,6573.775524000001,83.611,-4.413,198.202,1.0
12.5666,128.177424,37.932453,6572.9931024,83.158,-4.432,198.289,1.0
12.5833,128.177405,37.932404,6572.2097664,82.752,-4.45,198.389,1.0
12.6,128.177386,37.932355,6571.4258208,82.393,-4.466,198.5,1.0
12.6166,128.177367,37.932306,6570.6406560000005,82.082,-4.48,198.619,1.0
12.6333,128.177348,37.932258,6569.8545768,81.721,-4.485,198.746,1.0
12.65,128.177329,37.932209,6569.0681928,81.318,-4.479,198.877,1.0
12.6666,128.17731,37.93216,6568.2811992,80.882,-4.47,199.012,1.0
12.6833,128.17729,37.932112,6567.494510400001,80.433,-4.461,199.152,1.0
12.7,128.177271,37.932063,6566.707212,79.992,-4.454,199.298,1.0
12.7166,128.177252,37.932014,6565.919913600001,79.581,-4.451,199.449,1.0
12.7333,128.177232,37.931966,6565.1323104,79.217,-4.451,199.608,1.0
12.75,128.177213,37.931917,6564.344097600001,78.91,-4.452,199.774,1.0
12.7666,128.177193,37.931869,6563.55558,78.663,-4.452,199.946,1.0
12.7833,128.177173,37.93182,6562.7667576,78.473,-4.45,200.122,1.0
12.8,128.177153,37.931772,6561.9776304,78.337,-4.446,200.303,1.0
12.8166,128.177133,37.931723,6561.1885032,78.246,-4.439,200.485,1.0
12.8333,128.177113,37.931675,6560.3990711999995,78.194,-4.431,200.667,1.0
12.85,128.177093,37.931626,6559.609944,78.173,-4.421,200.849,1.0
12.8666,128.177073,37.931578,6558.820512,78.179,-4.411,201.029,1.0
12.8833,128.177053,37.93153,6558.0313848,78.206,-4.4,201.206,1.0
12.9,128.177032,37.931481,6557.2425624,78.249,-4.39,201.38,1.0
12.9166,128.177012,37.931433,6556.45374,78.307,-4.379,201.551,1.0
12.9333,128.176991,37.931385,6555.6652224,78.375,-4.37,201.717,1.0
12.95,128.17697,37.931336,6554.8767048,78.453,-4.361,201.88,1.0
12.9666,128.17695,37.931288,6554.088796800001,78.537,-4.353,202.039,1.0
12.9833,128.176929,37.93124,6553.3008887999995,78.627,-4.346,202.194,1.0
13.0,128.176908,37.931192,6552.5132856,78.722,-4.341,202.345,1.0
13.0166,128.176886,37.931143,6551.7259872,78.82,-4.336,202.492,1.0
13.0333,128.176865,37.931095,6550.9389936,78.921,-4.332,202.636,1.0
13.0499,128.176844,37.931047,6550.152,79.024,-4.329,202.775,1.0
13.0666,128.176822,37.930999,6549.365311200001,79.127,-4.327,202.911,1.0
13.0833,128.176801,37.930951,6548.5789272,79.232,-4.326,203.043,1.0
13.1,128.176779,37.930903,6547.792848,79.336,-4.326,203.171,1.0
13.1166,128.176757,37.930855,6547.007073600001,79.44,-4.327,203.296,1.0
13.1333,128.176735,37.930807,6546.2212992,79.543,-4.329,203.418,1.0
13.15,128.176713,37.930759,6545.435524800001,79.644,-4.331,203.537,1.0
13.1666,128.176691,37.930711,6544.650055200001,79.742,-4.334,203.653,1.0
13.1833,128.176669,37.930663,6543.8648904,79.838,-4.337,203.766,1.0
13.2,128.176646,37.930616,6543.0797256,79.929,-4.342,203.875,1.0
13.2166,128.176624,37.930568,6542.294865600001,80.016,-4.346,203.983,1.0
13.2333,128.176601,37.93052,6541.5097008,80.097,-4.351,204.088,1.0
13.25,128.176579,37.930472,6540.7251456,80.172,-4.356,204.19,1.0
13.2666,128.176556,37.930425,6539.9402856,80.239,-4.362,204.291,1.0
13.2833,128.176533,37.930377,6539.1557304,80.299,-4.368,204.389,1.0
13.3,128.17651,37.930329,6538.3711752,80.35,-4.374,204.486,1.0
13.3166,128.176487,37.930282,6537.586620000001,80.391,-4.379,204.581,1.0
13.3333,128.176463,37.930234,6536.802369600001,80.421,-4.385,204.674,1.0
13.35,128.17644,37.930187,6536.0178144,80.441,-4.391,204.767,1.0
13.3666,128.176416,37.930139,6535.233564,80.449,-4.397,204.859,1.0
13.3833,128.176393,37.930092,6534.4493136,80.446,-4.403,204.95,1.0
13.4,128.176369,37.930045,6533.6650632,80.432,-4.409,205.041,1.0
13.4166,128.176345,37.929997,6532.8808128,80.407,-4.414,205.131,1.0
13.4333,128.176321,37.92995,6532.0965624,80.371,-4.42,205.222,1.0
13.45,128.176297,37.929903,6531.3126168,80.325,-4.425,205.313,1.0
13.4666,128.176273,37.929855,6530.5283664,80.27,-4.43,205.405,1.0
13.4833,128.176249,37.929808,6529.7444208,80.207,-4.434,205.498,1.0
13.5,128.176224,37.929761,6528.9604752,80.137,-4.439,205.591,1.0
13.5166,128.1762,37.929714,6528.176529599999,80.062,-4.443,205.686,1.0
13.5333,128.176175,37.929667,6527.392584000001,79.982,-4.447,205.782,1.0
13.55,128.17615,37.92962,6526.608638400001,79.9,-4.451,205.88,1.0
13.5666,128.176126,37.929573,6525.824997600001,79.816,-4.454,205.98,1.0
13.5833,128.176101,37.929526,6525.0410520000005,79.732,-4.457,206.081,1.0
13.6,128.176076,37.929479,6524.257411200001,79.648,-4.46,206.183,1.0
13.6166,128.17605,37.929432,6523.473770400001,79.567,-4.462,206.288,1.0
13.6333,128.176025,37.929385,6522.6901296,79.488,-4.464,206.393,1.0
13.65,128.176,37.929338,6521.9067936,79.413,-4.466,206.501,1.0
13.6666,128.175974,37.929291,6521.1234576,79.342,-4.467,206.61,1.0
13.6833,128.175949,37.929245,6520.3401216,79.275,-4.468,206.72,1.0
13.7,128.175923,37.929198,6519.557090400001,79.214,-4.469,206.831,1.0
13.7166,128.175897,37.929151,6518.7740592,79.157,-4.469,206.944,1.0
13.7333,128.175871,37.929104,6517.991028,79.105,-4.469,207.057,1.0
13.75,128.175845,37.929058,6517.208301600001,79.059,-4.468,207.172,1.0
13.7666,128.175819,37.929011,6516.4255752,79.018,-4.468,207.287,1.0
13.7833,128.175793,37.928965,6515.6431536,78.982,-4.467,207.403,1.0
13.8,128.175767,37.928918,6514.861036800001,78.951,-4.466,207.519,1.0
13.8166,128.17574,37.928872,6514.078920000001,78.924,-4.464,207.635,1.0
13.8333,128.175714,37.928825,6513.297108,78.903,-4.463,207.752,1.0
13.85,128.175687,37.928779,6512.5152960000005,78.885,-4.462,207.869,1.0
13.8666,128.175661,37.928733,6511.7337888,78.872,-4.46,207.987,1.0
13.8833,128.175634,37.928686,6510.952586400001,78.863,-4.458,208.104,1.0
13.9,128.175607,37.92864,6510.171384000001,78.858,-4.457,208.221,1.0
13.9166,128.17558,37.928594,6509.390486400001,78.855,-4.455,208.337,1.0
13.9333,128.175552,37.928548,6508.6098936,78.856,-4.453,208.454,1.0
13.95,128.175525,37.928501,6507.829300800001,78.86,-4.452,208.57,1.0
13.9666,128.175498,37.928455,6507.0493176,78.867,-4.45,208.686,1.0
13.9833,128.17547,37.928409,6506.2693344,78.875,-4.448,208.802,1.0
14.0,128.175443,37.928363,6505.489351200001,78.886,-4.447,208.917,1.0
14.0166,128.175415,37.928317,6504.7099776000005,78.898,-4.446,209.032,1.0
14.0333,128.175387,37.928271,6503.930604,78.912,-4.444,209.146,1.0
14.05,128.175359,37.928225,6503.1515352,78.927,-4.443,209.259,1.0
14.0666,128.175331,37.928179,6502.3727712,78.944,-4.442,209.373,1.0
14.0833,128.175303,37.928134,6501.5940072,78.961,-4.441,209.485,1.0
14.1,128.175275,37.928088,6500.815852799999,78.978,-4.44,209.597,1.0
14.1166,128.175246,37.928042,6500.0376983999995,78.997,-4.439,209.709,1.0
14.1333,128.175218,37.927996,6499.259544,79.015,-4.439,209.82,1.0
14.15,128.175189,37.927951,6498.4819992,79.033,-4.438,209.93,1.0
14.1666,128.175161,37.927905,6497.7044544,79.052,-4.438,210.04,1.0
14.1833,128.175132,37.92786,6496.927214400001,79.07,-4.437,210.15,1.0
14.2,128.175103,37.927814,6496.150279200001,79.087,-4.437,210.259,1.0
14.2166,128.175074,37.927769,6495.373344,79.104,-4.437,210.367,1.0
14.2333,128.175045,37.927723,6494.5967136,79.12,-4.437,210.475,1.0
14.25,128.175016,37.927678,6493.820388000001,79.136,-4.437,210.583,1.0
14.2666,128.174986,37.927632,6493.0440624,79.15,-4.437,210.69,1.0
14.2833,128.174957,37.927587,6492.2680416,79.164,-4.437,210.797,1.0
14.3,128.174927,37.927542,6491.4923256,79.176,-4.437,210.904,1.0
14.3166,128.174898,37.927497,6490.7166096,79.188,-4.438,211.01,1.0
14.3333,128.174868,37.927451,6489.9411984,79.198,-4.438,211.116,1.0
14.35,128.174838,37.927406,6489.166092,79.207,-4.438,211.222,1.0
14.3666,128.174808,37.927361,6488.3909856,79.215,-4.439,211.328,1.0
14.3833,128.174778,37.927316,6487.616184,79.221,-4.439,211.433,1.0
14.4,128.174748,37.927271,6486.841687200001,79.227,-4.439,211.539,1.0
14.4166,128.174718,37.927226,6486.0671904,79.231,-4.44,211.644,1.0
14.4333,128.174687,37.927181,6485.2929984,79.234,-4.44,211.749,1.0
14.45,128.174657,37.927136,6484.5188064,79.236,-4.44,211.854,1.0
14.4666,128.174626,37.927092,6483.7449192,79.237,-4.441,211.959,1.0
14.4833,128.174595,37.927047,6482.971032,79.237,-4.441,212.065,1.0
14.5,128.174565,37.927002,6482.1974496,79.236,-4.442,212.17,1.0
14.5166,128.174534,37.926957,6481.424172,79.235,-4.442,212.275,1.0
14.5333,128.174503,37.926913,6480.6508944,79.233,-4.442,212.38,1.0
14.55,128.174472,37.926868,6479.8779216,79.23,-4.442,212.486,1.0
14.5666,128.17444,37.926824,6479.1049488,79.226,-4.443,212.591,1.0
14.5833,128.174409,37.926779,6478.3322808,79.222,-4.443,212.696,1.0
14.6,128.174377,37.926735,6477.5599176000005,79.218,-4.443,212.802,1.0
14.6166,128.174346,37.92669,6476.7875544,79.213,-4.443,212.908,1.0
