Time,Longitude,Latitude,Altitude,Roll (deg),Pitch (deg),Yaw (deg),Health
0.0,128.181881,37.923646,7000.146528,0.0,-0.003,0.0,1.0
0.0166,128.181881,37.923691,7000.1605488000005,0.0,-0.012,0.0,1.0
0.0333,128.181881,37.923736,7000.173960000001,0.0,-0.025,0.0,1.0
0.05,128.181881,37.923781,7000.186152000001,0.0,-0.04,359.999,1.0
0.0666,128.181881,37.923826,7000.1977344,0.0,-0.055,359.999,1.0
0.0833,128.181881,37.923871,7000.2084024,0.0,-0.071,0.0,1.0
0.1,128.181881,37.923916,7000.218156000001,0.0,-0.087,0.0,1.0
0.1166,128.181881,37.923961,7000.226995200001,0.0,-0.101,0.0,1.0
0.1333,128.181881,37.924006,7000.234920000001,0.002,-0.114,0.0,1.0
0.15,128.181881,37.924051,7000.2419304000005,0.004,-0.125,0.001,1.0
0.1666,128.181881,37.924096,7000.2480264000005,0.008,-0.135,0.002,1.0
0.1833,128.181881,37.924141,7000.253208,0.014,-0.143,0.003,1.0
0.2,128.181881,37.924186,7000.2574752,0.022,-0.15,0.004,1.0
0.2166,128.181881,37.924231,7000.260828,0.032,-0.155,0.006,1.0
0.2333,128.181881,37.924276,7000.2632664,0.045,-0.158,0.008,1.0
0.25,128.181881,37.924321,7000.2647904000005,0.06,-0.161,0.01,1.0
0.2666,128.181881,37.924366,7000.2654,0.078,-0.162,0.012,1.0
0.2833,128.181881,37.924411,7000.2654,0.098,-0.162,0.014,1.0
0.3,128.181881,37.924456,7000.2641808,0.119,-0.162,0.016,1.0
0.3166,128.181881,37.924501,7000.262352000001,0.142,-0.161,0.018,1.0
0.3333,128.181881,37.924546,7000.2596088,0.166,-0.16,0.021,1.0
0.35,128.181881,37.924591,7000.256256000001,0.191,-0.158,0.023,1.0
0.3666,128.181881,37.924636,7000.2519888,0.217,-0.156,0.025,1.0
0.3833,128.181881,37.924682,7000.247112,0.243,-0.154,0.027,1.0
0.4,128.181881,37.924727,7000.2416256,0.269,-0.151,0.03,1.0
0.4166,128.181881,37.924772,7000.235224800001,0.295,-0.148,0.032,1.0
0.4333,128.181881,37.924817,7000.228214400001,0.32,-0.146,0.034,1.0
0.45,128.181881,37.924862,7000.2205944,0.345,-0.143,0.036,1.0
0.4666,128.181881,37.924907,7000.212364800001,0.368,-0.14,0.038,1.0
0.4833,128.181881,37.924953,7000.2035256,0.391,-0.137,0.04,1.0
0.5,128.181881,37.924998,7000.1940768,0.413,-0.135,0.042,1.0
0.5166,128.181881,37.925043,7000.1840184,0.435,-0.133,0.043,1.0
0.5333,128.181881,37.925088,7000.1730456000005,0.457,-0.131,0.046,1.0
0.55,128.181881,37.925133,7000.1614632,0.48,-0.13,0.048,1.0
0.5666,128.181881,37.925179,7000.1492712,0.506,-0.13,0.05,1.0
0.5833,128.181881,37.925224,7000.136469600001,0.535,-0.131,0.053,1.0
0.6,128.181881,37.925269,7000.1224488,0.57,-0.132,0.057,1.0
0.6166,128.181881,37.925314,7000.1075136,0.613,-0.135,0.061,1.0
0.6333,128.181881,37.92536,7000.091359200001,0.667,-0.14,0.065,1.0
0.65,128.181881,37.925405,7000.0755096,0.722,-0.145,0.07,1.0
0.6666,128.181881,37.92545,7000.0587456,0.778,-0.151,0.074,1.0
0.6833,128.181881,37.925495,7000.0410672,0.836,-0.159,0.079,1.0
0.7,128.181881,37.925541,7000.022474400001,0.899,-0.167,0.083,1.0
0.7166,128.181881,37.925586,7000.0029672,0.969,-0.177,0.089,1.0
0.7333,128.181881,37.925631,6999.982545600001,1.046,-0.187,0.095,1.0
0.75,128.181881,37.925677,6999.9609048,1.135,-0.198,0.102,1.0
0.7666,128.181881,37.925722,6999.9380448,1.236,-0.209,0.111,1.0
0.7833,128.181881,37.925767,6999.913965600001,1.352,-0.221,0.12,1.0
0.8,128.181881,37.925813,6999.8886672,1.482,-0.233,0.129,1.0
0.8166,128.181881,37.925858,6999.8624544,1.629,-0.245,0.139,1.0
0.8333,128.181881,37.925904,6999.834717600001,1.79,-0.257,0.149,1.0
0.85,128.181881,37.925949,6999.8060663999995,1.965,-0.268,0.159,1.0
0.8666,128.181881,37.925994,6999.776196000001,2.153,-0.279,0.169,1.0
0.8833,128.181881,37.92604,6999.7454112000005,2.352,-0.289,0.178,1.0
0.9,128.181881,37.926085,6999.713712,2.56,-0.299,0.187,1.0
0.9166,128.181881,37.926131,6999.6814032,2.773,-0.307,0.196,1.0
0.9333,128.181881,37.926176,6999.6478752,2.989,-0.314,0.204,1.0
0.95,128.181881,37.926222,6999.6140424000005,3.205,-0.32,0.211,1.0
0.9666,128.181881,37.926267,6999.5792952,3.419,-0.324,0.218,1.0
0.9833,128.181881,37.926313,6999.544548,3.626,-0.327,0.225,1.0
1.0,128.181881,37.926358,6999.509496000001,3.821,-0.327,0.23,1.0
1.0166,128.181881,37.926403,6999.474444,4.001,-0.326,0.235,1.0
1.0333,128.181881,37.926449,6999.437868,4.186,-0.324,0.241,1.0
1.05,128.181881,37.926495,6999.400987200001,4.367,-0.32,0.247,1.0
1.0666,128.181881,37.92654,6999.364716,4.538,-0.314,0.253,1.0
1.0833,128.181881,37.926586,6999.3281400000005,4.691,-0.307,0.258,1.0
1.1,128.181881,37.926631,6999.291868800001,4.824,-0.297,0.262,1.0
1.1166,128.181881,37.926677,6999.2559024,4.935,-0.286,0.264,1.0
1.1333,128.181882,37.926722,6999.219631200001,5.028,-0.274,0.266,1.0
1.15,128.181882,37.926768,6999.183664800001,5.101,-0.262,0.266,1.0
1.1666,128.181882,37.926813,6999.1480032,5.156,-0.251,0.265,1.0
1.1833,128.181882,37.926859,6999.112646400001,5.19,-0.241,0.264,1.0
1.2,128.181882,37.926905,6999.0775944,5.202,-0.233,0.26,1.0
1.2166,128.181882,37.92695,6999.0428472,5.19,-0.227,0.256,1.0
1.2333,128.181882,37.926996,6999.0090144000005,5.151,-0.222,0.25,1.0
1.25,128.181882,37.927041,6998.9742672,5.104,-0.219,0.244,1.0
1.2666,128.181882,37.927087,6998.939520000001,5.05,-0.218,0.238,1.0
1.2833,128.181882,37.927133,6998.9047728000005,4.991,-0.218,0.233,1.0
1.3,128.181882,37.927178,6998.8697208,4.928,-0.219,0.227,1.0
1.3166,128.181882,37.927224,6998.8346688,4.863,-0.22,0.222,1.0
1.3333,128.181882,37.92727,6998.799312,4.795,-0.221,0.216,1.0
1.35,128.181883,37.927315,6998.7636504,4.728,-0.223,0.21,1.0
1.3666,128.181883,37.927361,6998.727684000001,4.659,-0.224,0.204,1.0
1.3833,128.181883,37.927407,6998.692632,4.576,-0.224,0.197,1.0
1.4,128.181883,37.927452,6998.656360800001,4.49,-0.224,0.19,1.0
1.4166,128.181883,37.927498,6998.6203944,4.404,-0.225,0.182,1.0
1.4333,128.181883,37.927544,6998.5841232,4.318,-0.225,0.175,1.0
1.45,128.181883,37.927589,6998.547547200001,4.233,-0.225,0.168,1.0
1.4666,128.181883,37.927635,6998.5118856,4.135,-0.224,0.16,1.0
1.4833,128.181883,37.927681,6998.476224000001,4.026,-0.222,0.151,1.0
1.5,128.181884,37.927727,6998.4402576,3.91,-0.219,0.143,1.0
1.5166,128.181884,37.927772,6998.403986400001,3.791,-0.216,0.135,1.0
1.5333,128.181884,37.927818,6998.367715200001,3.672,-0.212,0.129,1.0
1.55,128.181884,37.927864,6998.3308344,3.558,-0.208,0.123,1.0
1.5666,128.181884,37.92791,6998.2939536,3.449,-0.204,0.118,1.0
1.5833,128.181884,37.927955,6998.2564632,3.348,-0.198,0.115,1.0
1.6,128.181884,37.928001,6998.218668,3.255,-0.193,0.111,1.0
1.6166,128.181884,37.928047,6998.180568000001,3.17,-0.188,0.109,1.0
1.6333,128.181885,37.928093,6998.142468,3.092,-0.183,0.106,1.0
1.65,128.181885,37.928139,6998.1037584000005,3.021,-0.178,0.104,1.0
1.6666,128.181885,37.928185,6998.0650488,2.956,-0.174,0.102,1.0
1.6833,128.181885,37.92823,6998.0260344,2.896,-0.17,0.099,1.0
1.7,128.181885,37.928276,6997.9870200000005,2.839,-0.166,0.097,1.0
1.7166,128.181885,37.928322,6997.9480056,2.785,-0.164,0.094,1.0
1.7333,128.181885,37.928368,6997.9086864,2.733,-0.162,0.092,1.0
1.75,128.181886,37.928414,6997.8702816,2.674,-0.161,0.088,1.0
1.7666,128.181886,37.92846,6997.831572,2.607,-0.162,0.084,1.0
1.7833,128.181886,37.928506,6997.7931672,2.533,-0.163,0.08,1.0
1.8,128.181886,37.928552,6997.7547624,2.454,-0.165,0.075,1.0
1.8166,128.181886,37.928598,6997.7166624,2.371,-0.167,0.071,1.0
1.8333,128.181886,37.928643,6997.6779528,2.287,-0.17,0.067,1.0
1.85,128.181886,37.928689,6997.639548,2.204,-0.172,0.064,1.0
1.8666,128.181887,37.928735,6997.600533600001,2.125,-0.174,0.061,1.0
1.8833,128.181887,37.928781,6997.5615192000005,2.052,-0.175,0.06,1.0
1.9,128.181887,37.928827,6997.5222,1.984,-0.175,0.059,1.0
1.9166,128.181887,37.928873,6997.4828808,1.924,-0.175,0.058,1.0
1.9333,128.181887,37.928919,6997.442952000001,1.871,-0.175,0.058,1.0
1.95,128.181887,37.928965,6997.4030232000005,1.824,-0.174,0.058,1.0
1.9666,128.181888,37.929011,6997.3627896,1.784,-0.173,0.058,1.0
1.9833,128.181888,37.929057,6997.322556000001,1.749,-0.172,0.058,1.0
2.0,128.181888,37.929103,6997.2826272,1.714,-0.171,0.057,1.0
2.0166,128.181888,37.929149,6997.2423936,1.678,-0.172,0.056,1.0
2.0333,128.181888,37.929195,6997.202160000001,1.642,-0.173,0.055,1.0
2.05,128.181888,37.929241,6997.1616216,1.607,-0.175,0.053,1.0
2.0666,128.181889,37.929288,6997.121083200001,1.576,-0.178,0.052,1.0
2.0833,128.181889,37.929334,6997.0805448,1.548,-0.18,0.052,1.0
2.1,128.181889,37.92938,6997.039396800001,1.525,-0.182,0.052,1.0
2.1166,128.181889,37.929426,6996.9982488000005,1.506,-0.184,0.053,1.0
2.1333,128.181889,37.929472,6996.9571008,1.492,-0.185,0.054,1.0
2.15,128.181889,37.929518,6996.915343199999,1.483,-0.186,0.055,1.0
2.1666,128.18189,37.929564,6996.8735856,1.478,-0.188,0.057,1.0
2.1833,128.18189,37.92961,6996.831828,1.479,-0.19,0.059,1.0
2.2,128.18189,37.929656,6996.789460800001,1.486,-0.194,0.061,1.0
2.2166,128.18189,37.929703,6996.7470936,1.495,-0.198,0.063,1.0
2.2333,128.18189,37.929749,6996.7047264,1.506,-0.201,0.065,1.0
2.25,128.18189,37.929795,6996.6623592000005,1.519,-0.205,0.067,1.0
2.2666,128.181891,37.929841,6996.6193824,1.534,-0.209,0.069,1.0
2.2833,128.181891,37.929887,6996.576405600001,1.553,-0.213,0.071,1.0
2.3,128.181891,37.929934,6996.5331240000005,1.577,-0.217,0.074,1.0
2.3166,128.181891,37.92998,6996.4895376,1.606,-0.221,0.077,1.0
2.3333,128.181891,37.930026,6996.445341600001,1.642,-0.226,0.081,1.0
2.35,128.181891,37.930072,6996.401145600001,1.684,-0.231,0.085,1.0
2.3666,128.181892,37.930118,6996.35634,1.735,-0.236,0.089,1.0
2.3833,128.181892,37.930165,6996.3115344,1.792,-0.241,0.094,1.0
2.4,128.181892,37.930211,6996.2661192000005,1.856,-0.245,0.099,1.0
2.4166,128.181892,37.930257,6996.2203992,1.925,-0.249,0.104,1.0
2.4333,128.181892,37.930304,6996.1752888,1.991,-0.251,0.108,1.0
2.45,128.181892,37.93035,6996.129873600001,2.052,-0.251,0.111,1.0
2.4666,128.181893,37.930396,6996.0847632,2.109,-0.25,0.114,1.0
2.4833,128.181893,37.930442,6996.039348,2.162,-0.248,0.117,1.0
2.5,128.181893,37.930489,6995.993932800001,2.211,-0.245,0.119,1.0
2.5166,128.181893,37.930535,6995.9491272000005,2.254,-0.241,0.122,1.0
2.5333,128.181893,37.930581,6995.903712,2.292,-0.236,0.124,1.0
2.55,128.181893,37.930628,6995.858906400001,2.325,-0.23,0.125,1.0
2.5666,128.181894,37.930674,6995.813796,2.354,-0.224,0.127,1.0
2.5833,128.181894,37.930721,6995.7686856,2.379,-0.218,0.129,1.0
2.6,128.181894,37.930767,6995.7235752,2.402,-0.212,0.131,1.0
2.6166,128.181894,37.930813,6995.678769600001,2.422,-0.206,0.134,1.0
2.6333,128.181894,37.93086,6995.633964000001,2.44,-0.201,0.136,1.0
2.65,128.181895,37.930906,6995.5888536,2.456,-0.196,0.137,1.0
2.6666,128.181895,37.930953,6995.544048,2.47,-0.191,0.139,1.0
2.6833,128.181895,37.930999,6995.499242400001,2.482,-0.186,0.14,1.0
2.7,128.181895,37.931045,6995.4547416000005,2.492,-0.182,0.141,1.0
2.7166,128.181895,37.931092,6995.409936,2.501,-0.178,0.142,1.0
2.7333,128.181896,37.931138,6995.3654352,2.509,-0.174,0.142,1.0
2.75,128.181896,37.931185,6995.3209344,2.514,-0.171,0.143,1.0
2.7666,128.181896,37.931231,6995.276433600001,2.519,-0.168,0.143,1.0
2.7833,128.181896,37.931278,6995.232237600001,2.523,-0.165,0.143,1.0
2.8,128.181896,37.931324,6995.1877368000005,2.526,-0.163,0.144,1.0
2.8166,128.181897,37.931371,6995.143540800001,2.53,-0.161,0.144,1.0
2.8333,128.181897,37.931417,6995.0993448,2.532,-0.161,0.144,1.0
2.85,128.181897,37.931464,6995.0551488,2.533,-0.162,0.144,1.0
2.8666,128.181897,37.93151,6995.0109528,2.535,-0.165,0.144,1.0
2.8833,128.181897,37.931557,6994.966452000001,2.539,-0.169,0.145,1.0
2.9,128.181898,37.931604,6994.921646400001,2.547,-0.177,0.147,1.0
2.9166,128.181898,37.93165,6994.8762312,2.565,-0.19,0.149,1.0
2.9333,128.181898,37.931697,6994.829901600001,2.601,-0.209,0.153,1.0
2.95,128.181898,37.931743,6994.782048,2.665,-0.234,0.159,1.0
2.9666,128.181898,37.93179,6994.7329752,2.763,-0.265,0.167,1.0
2.9833,128.181899,37.931837,6994.682378400001,2.899,-0.299,0.177,1.0
3.0,128.181899,37.931883,6994.6302576,3.076,-0.336,0.188,1.0
3.0166,128.181899,37.93193,6994.5769176,3.289,-0.373,0.201,1.0
3.0333,128.181899,37.931976,6994.5220536,3.537,-0.409,0.213,1.0
3.05,128.181899,37.932023,6994.4659704000005,3.82,-0.444,0.226,1.0
3.0666,128.1819,37.93207,6994.4080584,4.138,-0.476,0.239,1.0
3.0833,128.1819,37.932117,6994.348927200001,4.489,-0.505,0.252,1.0
3.1,128.1819,37.932163,6994.288272,4.871,-0.531,0.264,1.0
3.1166,128.1819,37.93221,6994.226397600001,5.281,-0.554,0.276,1.0
3.1333,128.181901,37.932257,6994.1629992,5.716,-0.574,0.288,1.0
3.15,128.181901,37.932303,6994.099296,6.165,-0.592,0.299,1.0
3.1666,128.181901,37.93235,6994.0343736,6.624,-0.606,0.309,1.0
3.1833,128.181901,37.932397,6993.9685368,7.09,-0.617,0.319,1.0
3.2,128.181901,37.932444,6993.9020904,7.559,-0.626,0.328,1.0
3.2166,128.181902,37.932491,6993.8350344,8.029,-0.633,0.337,1.0
3.2333,128.181902,37.932537,6993.7673688,8.495,-0.637,0.346,1.0
3.25,128.181902,37.932584,6993.6997032,8.946,-0.64,0.354,1.0
3.2666,128.181902,37.932631,6993.6320376,9.379,-0.639,0.361,1.0
3.2833,128.181903,37.932678,6993.5640672,9.791,-0.637,0.368,1.0
3.3,128.181903,37.932725,6993.4964016,10.177,-0.633,0.374,1.0
3.3166,128.181903,37.932772,6993.429040800001,10.536,-0.627,0.38,1.0
3.3333,128.181903,37.932818,6993.36168,10.864,-0.619,0.386,1.0
3.35,128.181904,37.932865,6993.295538400001,11.155,-0.609,0.392,1.0
3.3666,128.181904,37.932912,6993.228482400001,11.422,-0.598,0.398,1.0
3.3833,128.181904,37.932959,6993.1626456,11.66,-0.584,0.405,1.0
3.4,128.181905,37.933006,6993.097113600001,11.863,-0.57,0.411,1.0
3.4166,128.181905,37.933053,6993.032191200001,12.032,-0.554,0.417,1.0
3.4333,128.181905,37.9331,6992.967878400001,12.165,-0.54,0.422,1.0
3.45,128.181905,37.933147,6992.9050896,12.254,-0.527,0.425,1.0
3.4666,128.181906,37.933194,6992.8416912,12.313,-0.519,0.425,1.0
3.4833,128.181906,37.933241,6992.779512,12.339,-0.515,0.423,1.0
3.5,128.181907,37.933288,6992.7182472,12.329,-0.515,0.418,1.0
3.5166,128.181907,37.933335,6992.6575920000005,12.283,-0.52,0.411,1.0
3.5333,128.181907,37.933382,6992.598765600001,12.191,-0.527,0.401,1.0
3.55,128.181908,37.933429,6992.540244,12.055,-0.537,0.388,1.0
3.5666,128.181908,37.933476,6992.4826368,11.879,-0.549,0.373,1.0
3.5833,128.181908,37.933523,6992.4253344,11.671,-0.56,0.358,1.0
3.6,128.181909,37.93357,6992.369251200001,11.429,-0.572,0.343,1.0
3.6166,128.181909,37.933617,6992.3140824,11.151,-0.583,0.327,1.0
3.6333,128.18191,37.933664,6992.258913600001,10.845,-0.592,0.312,1.0
3.65,128.18191,37.933711,6992.2040496,10.522,-0.6,0.299,1.0
3.6666,128.181911,37.933758,6992.148576,10.193,-0.605,0.287,1.0
3.6833,128.181911,37.933805,6992.0931024,9.864,-0.609,0.278,1.0
3.7,128.181911,37.933852,6992.0382384,9.532,-0.611,0.27,1.0
3.7166,128.181912,37.933899,6991.982764800001,9.201,-0.611,0.262,1.0
3.7333,128.181912,37.933946,6991.926986400001,8.874,-0.61,0.255,1.0
3.75,128.181913,37.933993,6991.8712080000005,8.555,-0.607,0.249,1.0
3.7666,128.181913,37.93404,6991.8148200000005,8.244,-0.604,0.244,1.0
3.7833,128.181914,37.934087,6991.7593464,7.931,-0.601,0.238,1.0
3.8,128.181914,37.934134,6991.7032632,7.618,-0.598,0.232,1.0
3.8166,128.181915,37.934182,6991.6474848,7.303,-0.596,0.225,1.0
3.8333,128.181915,37.934229,6991.5917064000005,6.989,-0.593,0.219,1.0
3.85,128.181916,37.934276,6991.535928,6.675,-0.592,0.212,1.0
3.8666,128.181916,37.934323,6991.4798448,6.364,-0.59,0.206,1.0
3.8833,128.181917,37.93437,6991.424676,6.044,-0.59,0.199,1.0
3.9,128.181917,37.934417,6991.3695072,5.717,-0.59,0.192,1.0
3.9166,128.181917,37.934465,6991.314643199999,5.384,-0.59,0.185,1.0
3.9333,128.181918,37.934512,6991.259474400001,5.048,-0.591,0.178,1.0
3.95,128.181918,37.934559,6991.204610400001,4.71,-0.592,0.171,1.0
3.9666,128.181919,37.934606,6991.150965600001,4.361,-0.594,0.164,1.0
3.9833,128.181919,37.934653,6991.097016,4.002,-0.596,0.157,1.0
4.0,128.18192,37.934701,6991.0430664,3.635,-0.598,0.149,1.0
4.0166,128.18192,37.934748,6990.9897264,3.264,-0.6,0.142,1.0
4.0333,128.181921,37.934795,6990.9360816,2.89,-0.603,0.135,1.0
4.05,128.181922,37.934842,6990.883656000001,2.504,-0.605,0.129,1.0
4.0666,128.181922,37.93489,6990.8312304,2.108,-0.608,0.121,1.0
4.0833,128.181923,37.934937,6990.7791096,1.705,-0.612,0.114,1.0
4.1,128.181923,37.934984,6990.7272936,1.296,-0.615,0.107,1.0
4.1166,128.181924,37.935032,6990.6751728,0.885,-0.619,0.101,1.0
4.1333,128.181924,37.935079,6990.624576,0.449,-0.623,0.094,1.0
4.15,128.181925,37.935126,6990.5748936,-0.006,-0.628,0.085,1.0
4.1666,128.181925,37.935174,6990.525211200001,-0.481,-0.634,0.077,1.0
4.1833,128.181926,37.935221,6990.476138400001,-0.97,-0.64,0.068,1.0
4.2,128.181926,37.935268,6990.427065600001,-1.468,-0.646,0.061,1.0
4.2166,128.181927,37.935316,6990.3795168,-1.982,-0.652,0.053,1.0
4.2333,128.181927,37.935363,6990.331663200001,-2.507,-0.659,0.046,1.0
4.25,128.181928,37.935411,6990.2841144,-3.039,-0.666,0.039,1.0
4.2666,128.181928,37.935458,6990.236565600001,-3.573,-0.672,0.033,1.0
4.2833,128.181929,37.935505,6990.190236,-4.117,-0.679,0.027,1.0
4.3,128.181929,37.935553,6990.143601600001,-4.668,-0.686,0.021,1.0
4.3166,128.18193,37.9356,6990.097272,-5.222,-0.694,0.016,1.0
4.3333,128.18193,37.935648,6990.0506376,-5.774,-0.701,0.011,1.0
4.35,128.181931,37.935695,6990.0043080000005,-6.322,-0.708,0.006,1.0
4.3666,128.181931,37.935743,6989.958588,-6.875,-0.716,0.002,1.0
4.3833,128.181931,37.93579,6989.9125632000005,-7.428,-0.723,359.997,1.0
4.4,128.181932,37.935838,6989.8665384000005,-7.98,-0.731,359.993,1.0
4.4166,128.181932,37.935885,6989.820513600001,-8.526,-0.739,359.989,1.0
4.4333,128.181933,37.935933,6989.774184000001,-9.063,-0.747,359.986,1.0
4.45,128.181933,37.93598,6989.728464000001,-9.601,-0.755,359.983,1.0
4.4666,128.181934,37.936028,6989.6824392,-10.136,-0.763,359.979,1.0
4.4833,128.181934,37.936075,6989.6361096,-10.666,-0.772,359.976,1.0
4.5,128.181935,37.936123,6989.58978,-11.186,-0.78,359.973,1.0
4.5166,128.181935,37.93617,6989.5437552,-11.706,-0.788,359.97,1.0
4.5333,128.181935,37.936218,6989.4971208,-12.221,-0.796,359.968,1.0
4.55,128.181936,37.936265,6989.4501816,-12.728,-0.804,359.965,1.0
4.5666,128.181936,37.936313,6989.402937600001,-13.224,-0.812,359.963,1.0
4.5833,128.181937,37.936361,6989.3559984,-13.716,-0.819,359.96,1.0
4.6,128.181937,37.936408,6989.3084496,-14.202,-0.827,359.958,1.0
4.6166,128.181937,37.936456,6989.2602912,-14.677,-0.834,359.956,1.0
4.6333,128.181938,37.936503,6989.211828,-15.139,-0.841,359.954,1.0
4.65,128.181938,37.936551,6989.1624504,-15.582,-0.847,359.953,1.0
4.6666,128.181939,37.936599,6989.113377600001,-16.017,-0.853,359.951,1.0
4.6833,128.181939,37.936646,6989.063390400001,-16.44,-0.859,359.95,1.0
4.7,128.181939,37.936694,6989.0130984,-16.849,-0.864,359.948,1.0
4.7166,128.18194,37.936742,6988.962806400001,-17.252,-0.87,359.946,1.0
4.7333,128.18194,37.936789,6988.912514400001,-17.659,-0.875,359.943,1.0
4.75,128.18194,37.936837,6988.8619176,-18.065,-0.88,359.939,1.0
4.7666,128.181941,37.936885,6988.810711200001,-18.467,-0.885,359.935,1.0
4.7833,128.181941,37.936933,6988.758895200001,-18.859,-0.889,359.932,1.0
4.8,128.181941,37.93698,6988.706164800001,-19.237,-0.892,359.929,1.0
4.8166,128.181941,37.937028,6988.6537392,-19.607,-0.895,359.926,1.0
4.8333,128.181942,37.937076,6988.6003992000005,-19.968,-0.898,359.923,1.0
4.85,128.181942,37.937124,6988.5464496,-20.315,-0.9,359.92,1.0
4.8666,128.181942,37.937171,6988.4915856,-20.645,-0.901,359.917,1.0
4.8833,128.181942,37.937219,6988.4367216,-20.968,-0.902,359.914,1.0
4.9,128.181943,37.937267,6988.3809432,-21.282,-0.903,359.91,1.0
4.9166,128.181943,37.937315,6988.324555200001,-21.584,-0.904,359.907,1.0
4.9333,128.181943,37.937363,6988.2675576,-21.873,-0.905,359.903,1.0
4.95,128.181943,37.937411,6988.2108648,-22.159,-0.905,359.899,1.0
4.9666,128.181943,37.937458,6988.1532576,-22.44,-0.906,359.894,1.0
4.9833,128.181944,37.937506,6988.0950408,-22.714,-0.906,359.889,1.0
5.0,128.181944,37.937554,6988.036214400001,-22.98,-0.906,359.884,1.0
5.0166,128.181944,37.937602,6987.976473600001,-23.234,-0.906,359.879,1.0
5.0333,128.181944,37.93765,6987.917037600001,-23.488,-0.906,359.874,1.0
5.05,128.181944,37.937698,6987.856992000001,-23.74,-0.907,359.868,1.0
5.0666,128.181944,37.937746,6987.796641600001,-23.992,-0.908,359.862,1.0
5.0833,128.181944,37.937794,6987.7359864,-24.246,-0.91,359.856,1.0
5.1,128.181945,37.937842,6987.675940800001,-24.514,-0.915,359.85,1.0
5.1166,128.181945,37.93789,6987.615590400001,-24.8,-0.922,359.845,1.0
5.1333,128.181945,37.937938,6987.5555448000005,-25.107,-0.933,359.839,1.0
5.15,128.181945,37.937986,6987.4951944,-25.432,-0.949,359.836,1.0
5.1666,128.181945,37.938034,6987.4339296,-25.708,-0.966,359.838,1.0
5.1833,128.181945,37.938082,6987.371750400001,-25.934,-0.985,359.845,1.0
5.2,128.181945,37.93813,6987.308047200001,-26.053,-0.985,359.861,1.0
5.2166,128.181945,37.938178,6987.243124800001,-26.069,-0.954,359.876,1.0
5.2333,128.181945,37.938226,6987.177592800001,-25.987,-0.881,359.879,1.0
5.25,128.181945,37.938274,6987.110841600001,-25.815,-0.756,359.858,1.0
5.2666,128.181945,37.938322,6987.0434808,-25.563,-0.57,359.806,1.0
5.2833,128.181945,37.93837,6986.976120000001,-25.245,-0.316,359.719,1.0
5.3,128.181945,37.938418,6986.910283200001,-24.875,0.013,359.594,1.0
5.3166,128.181944,37.938466,6986.845665600001,-24.466,0.411,359.436,1.0
5.3333,128.181944,37.938514,6986.7837912,-24.031,0.864,359.253,1.0
5.35,128.181944,37.938562,6986.724964800001,-23.579,1.358,359.052,1.0
5.3666,128.181944,37.93861,6986.670100800001,-23.119,1.877,358.842,1.0
5.3833,128.181944,37.938658,6986.619504,-22.657,2.4,358.633,1.0
5.4,128.181944,37.938706,6986.573784000001,-22.197,2.91,358.432,1.0
5.4166,128.181943,37.938755,6986.5335504,-21.743,3.389,358.248,1.0
5.4333,128.181943,37.938803,6986.4994128,-21.297,3.825,358.084,1.0
5.45,128.181943,37.938851,6986.471676,-20.861,4.222,357.94,1.0
5.4666,128.181942,37.938899,6986.4509496,-20.434,4.585,357.813,1.0
5.4833,128.181942,37.938947,6986.437843199999,-20.019,4.92,357.7,1.0
5.5,128.181941,37.938995,6986.4326616,-19.614,5.23,357.6,1.0
5.5166,128.181941,37.939044,6986.4354048000005,-19.22,5.519,357.51,1.0
5.5333,128.18194,37.939092,6986.4466824,-18.838,5.79,357.429,1.0
5.55,128.181939,37.93914,6986.4667992,-18.466,6.045,357.356,1.0
5.5666,128.181939,37.939188,6986.4957552000005,-18.104,6.286,357.29,1.0
5.5833,128.181938,37.939236,6986.5338552,-17.754,6.514,357.23,1.0
5.6,128.181937,37.939284,6986.5814040000005,-17.413,6.732,357.176,1.0
5.6166,128.181936,37.939333,6986.637182400001,-17.008,6.942,357.131,1.0
5.6333,128.181935,37.939381,6986.701800000001,-16.543,7.144,357.095,1.0
5.65,128.181935,37.939429,6986.774647200001,-16.026,7.338,357.065,1.0
5.6666,128.181934,37.939477,6986.856028800001,-15.469,7.525,357.04,1.0
5.6833,128.181933,37.939525,6986.9465544,-14.882,7.706,357.017,1.0
5.7,128.181932,37.939574,6987.0465288000005,-14.277,7.88,356.996,1.0
5.7166,128.181931,37.939622,6987.156256800001,-13.662,8.048,356.978,1.0
5.7333,128.18193,37.93967,6987.276347999999,-13.047,8.211,356.961,1.0
5.75,128.181928,37.939718,6987.4068024,-12.44,8.369,356.946,1.0
5.7666,128.181927,37.939766,6987.547924800001,-11.846,8.523,356.934,1.0
5.7833,128.181926,37.939814,6987.700020000001,-11.27,8.672,356.923,1.0
5.8,128.181925,37.939863,6987.862783200001,-10.716,8.818,356.915,1.0
5.8166,128.181924,37.939911,6988.036824000001,-10.186,8.961,356.909,1.0
5.8333,128.181922,37.939959,6988.222142400001,-9.682,9.102,356.904,1.0
5.85,128.181921,37.940007,6988.418433600001,-9.205,9.241,356.902,1.0
5.8666,128.18192,37.940055,6988.626002399999,-8.754,9.378,356.902,1.0
5.8833,128.181918,37.940103,6988.8451536,-8.331,9.514,356.903,1.0
5.9,128.181917,37.940151,6989.075582400001,-7.934,9.649,356.906,1.0
5.9166,128.181916,37.940199,6989.3172888,-7.562,9.783,356.911,1.0
5.9333,128.181914,37.940248,6989.5705776,-7.214,9.916,356.917,1.0
5.95,128.181913,37.940296,6989.8348392,-6.889,10.049,356.924,1.0
5.9666,128.181911,37.940344,6990.1106832000005,-6.586,10.181,356.933,1.0
5.9833,128.18191,37.940392,6990.398109600001,-6.302,10.313,356.943,1.0
6.0,128.181908,37.94044,6990.696508800001,-6.037,10.445,356.954,1.0
6.0166,128.181907,37.940488,6991.0064904,-5.789,10.576,356.966,1.0
6.0333,128.181905,37.940536,6991.3274448,-5.556,10.707,356.978,1.0
6.05,128.181904,37.940584,6991.659981600001,-5.338,10.837,356.991,1.0
6.0666,128.181902,37.940632,6992.003796000001,-5.133,10.968,357.005,1.0
6.0833,128.1819,37.94068,6992.358888000001,-4.941,11.098,357.018,1.0
6.1,128.181899,37.940728,6992.7252576,-4.759,11.227,357.032,1.0
6.1166,128.181897,37.940776,6993.1029048,-4.588,11.356,357.046,1.0
6.1333,128.181896,37.940824,6993.4918296,-4.427,11.485,357.061,1.0
6.15,128.181894,37.940872,6993.891727200001,-4.275,11.614,357.075,1.0
6.1666,128.181892,37.94092,6994.3032072,-4.13,11.742,357.09,1.0
6.1833,128.181891,37.940968,6994.725660000001,-3.993,11.87,357.104,1.0
6.2,128.181889,37.941015,6995.1593904,-3.864,11.998,357.119,1.0
6.2166,128.181887,37.941063,6995.6043984,-3.74,12.125,357.134,1.0
6.2333,128.181885,37.941111,6996.060684000001,-3.623,12.252,357.149,1.0
6.25,128.181884,37.941159,6996.527942400001,-3.511,12.379,357.164,1.0
6.2666,128.181882,37.941207,6997.006478400001,-3.404,12.505,357.179,1.0
6.2833,128.18188,37.941255,6997.495987200001,-3.302,12.631,357.194,1.0
6.3,128.181878,37.941303,6997.996773600001,-3.205,12.757,357.208,1.0
6.3166,128.181877,37.94135,6998.5088376,-3.111,12.883,357.223,1.0
6.3333,128.181875,37.941398,6999.031874400001,-3.022,13.008,357.238,1.0
6.35,128.181873,37.941446,6999.565884000001,-2.936,13.133,357.253,1.0
6.3666,128.181871,37.941494,7000.111476,-2.853,13.258,357.267,1.0
6.3833,128.181869,37.941541,7000.667736,-2.774,13.382,357.282,1.0
6.4,128.181868,37.941589,7001.2352736,-2.698,13.506,357.296,1.0
6.4166,128.181866,37.941637,7001.813784000001,-2.624,13.63,357.311,1.0
6.4333,128.181864,37.941684,7002.403572,-2.553,13.754,357.325,1.0
6.45,128.181862,37.941732,7003.0043328,-2.485,13.878,357.339,1.0
6.4666,128.18186,37.94178,7003.6163712,-2.419,14.001,357.353,1.0
6.4833,128.181858,37.941827,7004.2390776,-2.355,14.124,357.367,1.0
6.5,128.181857,37.941875,7004.8730616,-2.294,14.247,357.381,1.0
6.5166,128.181855,37.941923,7005.5180184,-2.234,14.37,357.395,1.0
6.5333,128.181853,37.94197,7006.173948,-2.177,14.492,357.408,1.0
6.55,128.181851,37.942018,7006.841155200001,-2.121,14.615,357.422,1.0
6.5666,128.181849,37.942065,7007.5190304,-2.068,14.737,357.435,1.0
6.5833,128.181847,37.942113,7008.2081832,-2.016,14.859,357.448,1.0
6.6,128.181845,37.94216,7008.908004,-1.965,14.981,357.461,1.0
6.6166,128.181843,37.942208,7009.6191024,-1.916,15.103,357.474,1.0
6.6333,128.181841,37.942255,7010.340868800001,-1.869,15.225,357.487,1.0
6.65,128.181839,37.942303,7011.0739128000005,-1.823,15.346,357.5,1.0
6.6666,128.181838,37.94235,7011.817624800001,-1.779,15.468,357.512,1.0
6.6833,128.181836,37.942397,7012.572614400001,-1.736,15.589,357.525,1.0
6.7,128.181834,37.942445,7013.338272,-1.694,15.71,357.537,1.0
6.7166,128.181832,37.942492,7014.1149024,-1.654,15.831,357.549,1.0
6.7333,128.18183,37.94254,7014.9022008,-1.615,15.952,357.561,1.0
6.75,128.181828,37.942587,7015.7007768,-1.577,16.073,357.573,1.0
6.7666,128.181826,37.942634,7016.510020799999,-1.54,16.194,357.585,1.0
6.7833,128.181824,37.942681,7017.3299328,-1.505,16.314,357.597,1.0
6.8,128.181822,37.942729,7018.1611224,-1.47,16.435,357.608,1.0
6.8166,128.18182,37.942776,7019.00298,-1.436,16.555,357.62,1.0
6.8333,128.181818,37.942823,7019.8555056000005,-1.404,16.675,357.631,1.0
6.85,128.181816,37.94287,7020.7190040000005,-1.373,16.796,357.642,1.0
6.8666,128.181814,37.942917,7021.5934752,-1.342,16.916,357.653,1.0
6.8833,128.181812,37.942965,7022.478614400001,-1.313,17.036,357.664,1.0
6.9,128.18181,37.943012,7023.3744216000005,-1.284,17.156,357.674,1.0
6.9166,128.181808,37.943059,7024.280896800001,-1.256,17.276,357.685,1.0
6.9333,128.181806,37.943106,7025.1983448,-1.23,17.396,357.695,1.0
6.95,128.181804,37.943153,7026.126765600001,-1.204,17.515,357.706,1.0
6.9666,128.181802,37.9432,7027.0655496,-1.179,17.635,357.716,1.0
6.9833,128.1818,37.943247,7028.015306400001,-1.154,17.755,357.726,1.0
7.0,128.181798,37.943294,7028.9754264,-1.131,17.874,357.736,1.0
7.0166,128.181796,37.943341,7029.946519200001,-1.108,17.993,357.746,1.0
7.0333,128.181794,37.943388,7030.92828,-1.087,18.113,357.755,1.0
7.05,128.181792,37.943435,7031.9207088,-1.065,18.232,357.765,1.0
7.0666,128.18179,37.943481,7032.9238056,-1.045,18.351,357.774,1.0
7.0833,128.181788,37.943528,7033.937570400001,-1.025,18.47,357.783,1.0
7.1,128.181786,37.943575,7034.9616984,-1.006,18.59,357.793,1.0
7.1166,128.181784,37.943622,7035.9967992,-0.988,18.709,357.802,1.0
7.1333,128.181782,37.943669,7037.0422632,-0.971,18.827,357.811,1.0
7.15,128.18178,37.943715,7038.0987000000005,-0.954,18.946,357.819,1.0
7.1666,128.181778,37.943762,7039.1651952,-0.937,19.065,357.828,1.0
7.1833,128.181776,37.943809,7040.242663200001,-0.922,19.184,357.837,1.0
7.2,128.181774,37.943855,7041.3304944,-0.907,19.303,357.845,1.0
7.2166,128.181772,37.943902,7042.4289936,-0.892,19.421,357.853,1.0
7.2333,128.18177,37.943949,7043.537856000001,-0.878,19.54,357.862,1.0
7.25,128.181768,37.943995,7044.6573864,-0.865,19.658,357.87,1.0
7.2666,128.181766,37.944042,7045.78728,-0.853,19.777,357.878,1.0
7.2833,128.181764,37.944088,7046.927841600001,-0.841,19.895,357.886,1.0
7.3,128.181762,37.944135,7048.0787664,-0.829,20.013,357.893,1.0
7.3166,128.18176,37.944181,7049.2400544,-0.818,20.131,357.901,1.0
7.3333,128.181758,37.944228,7050.4120104,-0.808,20.25,357.908,1.0
7.35,128.181756,37.944274,7051.5943296,-0.798,20.368,357.916,1.0
7.3666,128.181754,37.94432,7052.787012,-0.789,20.486,357.923,1.0
7.3833,128.181752,37.944367,7053.9900576,-0.78,20.604,357.93,1.0
7.4,128.18175,37.944413,7055.2034664,-0.772,20.722,357.937,1.0
7.4166,128.181748,37.944459,7056.4275431999995,-0.764,20.84,357.944,1.0
7.4333,128.181746,37.944505,7057.661678400001,-0.757,20.957,357.951,1.0
7.45,128.181744,37.944552,7058.9061768,-0.75,21.075,357.958,1.0
7.4666,128.181742,37.944598,7060.1610384000005,-0.744,21.193,357.965,1.0
7.4833,128.18174,37.944644,7061.4262632,-0.738,21.31,357.971,1.0
7.5,128.181738,37.94469,7062.7018512,-0.732,21.428,357.977,1.0
7.5166,128.181736,37.944736,7063.9878024,-0.727,21.546,357.984,1.0
7.5333,128.181734,37.944782,7065.283812,-0.723,21.663,357.99,1.0
7.55,128.181732,37.944828,7066.5901848,-0.719,21.78,357.996,1.0
7.5666,128.18173,37.944874,7067.9069208,-0.715,21.898,358.002,1.0
7.5833,128.181728,37.94492,7069.233715200001,-0.712,22.015,358.007,1.0
7.6,128.181726,37.944966,7070.570568,-0.709,22.132,358.013,1.0
7.6166,128.181724,37.945012,7071.917784000001,-0.706,22.25,358.018,1.0
7.6333,128.181721,37.945058,7073.2753632,-0.704,22.367,358.023,1.0
7.65,128.181719,37.945104,7074.643000800001,-0.702,22.484,358.028,1.0
7.6666,128.181717,37.945149,7076.020696800001,-0.701,22.601,358.033,1.0
7.6833,128.181715,37.945195,7077.408451200001,-0.7,22.718,358.038,1.0
7.7,128.181713,37.945241,7078.806568800001,-0.7,22.835,358.042,1.0
7.7166,128.181711,37.945286,7080.2147448000005,-0.699,22.952,358.046,1.0
7.7333,128.181709,37.945332,7081.632979200001,-0.7,23.068,358.051,1.0
7.75,128.181707,37.945378,7083.061272,-0.7,23.185,358.055,1.0
7.7666,128.181705,37.945423,7084.4996232,-0.702,23.302,358.059,1.0
7.7833,128.181703,37.945469,7085.948032800001,-0.703,23.418,358.063,1.0
7.8,128.181701,37.945514,7087.406500800001,-0.705,23.535,358.067,1.0
7.8166,128.181699,37.94556,7088.8747224,-0.707,23.652,358.07,1.0
7.8333,128.181697,37.945605,7090.3533072,-0.71,23.768,358.074,1.0
7.85,128.181695,37.945651,7091.8416456,-0.713,23.884,358.078,1.0
7.8666,128.181693,37.945696,7093.340042400001,-0.716,24.001,358.081,1.0
7.8833,128.181691,37.945741,7094.848497600001,-0.72,24.117,358.084,1.0
7.9,128.181689,37.945787,7096.366706400001,-0.724,24.233,358.088,1.0
7.9166,128.181687,37.945832,7097.8949736,-0.728,24.35,358.091,1.0
7.9333,128.181685,37.945877,7099.4329944,-0.733,24.466,358.094,1.0
7.95,128.181683,37.945922,7100.981073600001,-0.738,24.582,358.097,1.0
7.9666,128.181681,37.945967,7102.538906400001,-0.744,24.698,358.1,1.0
7.9833,128.181679,37.946013,7104.1064928000005,-0.749,24.814,358.103,1.0
8.0,128.181677,37.946058,7105.6841376,-0.755,24.93,358.106,1.0
8.0166,128.181675,37.946103,7107.271536,-0.762,25.046,358.109,1.0
8.0333,128.181673,37.946148,7108.8686880000005,-0.768,25.161,358.112,1.0
8.05,128.181671,37.946193,7110.4755936,-0.775,25.277,358.114,1.0
8.0666,128.181669,37.946238,7112.0925576,-0.782,25.393,358.117,1.0
8.0833,128.181667,37.946282,7113.718970400001,-0.79,25.509,358.12,1.0
8.1,128.181665,37.946327,7115.355136800001,-0.798,25.624,358.122,1.0
8.1166,128.181663,37.946372,7117.001056800001,-0.806,25.74,358.125,1.0
8.1333,128.181661,37.946417,7118.6567304,-0.814,25.855,358.127,1.0
8.15,128.181659,37.946462,7120.3221576,-0.823,25.971,358.13,1.0
8.1666,128.181657,37.946506,7121.997033600001,-0.832,26.086,358.132,1.0
8.1833,128.181655,37.946551,7123.6816632,-0.841,26.201,358.135,1.0
8.2,128.181653,37.946595,7125.376046400001,-0.85,26.317,358.137,1.0
8.2166,128.181651,37.94664,7127.079878400001,-0.86,26.432,358.14,1.0
8.2333,128.181649,37.946685,7128.793464,-0.87,26.547,358.142,1.0
8.25,128.181647,37.946729,7130.5164984,-0.88,26.662,358.145,1.0
8.2666,128.181645,37.946773,7132.2492864000005,-0.89,26.777,358.147,1.0
8.2833,128.181643,37.946818,7133.9912184,-0.901,26.892,358.149,1.0
8.3,128.181641,37.946862,7135.7432088000005,-0.912,27.007,358.151,1.0
8.3166,128.181639,37.946907,7137.5043432,-0.922,27.122,358.153,1.0
8.3333,128.181636,37.946951,7139.2752312,-0.934,27.237,358.155,1.0
8.35,128.181634,37.946995,7141.0552632,-0.945,27.352,358.157,1.0
8.3666,128.181632,37.947039,7142.8450488,-0.956,27.467,358.158,1.0
8.3833,128.18163,37.947083,7144.6442832,-0.968,27.581,358.16,1.0
8.4,128.181628,37.947128,7146.4526616,-0.98,27.696,358.162,1.0
8.4166,128.181626,37.947172,7148.2707936,-0.993,27.81,358.163,1.0
8.4333,128.181624,37.947216,7150.098069600001,-1.005,27.925,358.164,1.0
8.45,128.181622,37.94726,7151.9347944,-1.018,28.039,358.166,1.0
8.4666,128.18162,37.947304,7153.780968,-1.031,28.154,358.167,1.0
8.4833,128.181618,37.947347,7155.6362856000005,-1.044,28.268,358.168,1.0
8.5,128.181616,37.947391,7157.5010520000005,-1.057,28.383,358.169,1.0
8.5166,128.181614,37.947435,7159.3752672,-1.071,28.497,358.17,1.0
8.5333,128.181612,37.947479,7161.2586264,-1.085,28.611,358.17,1.0
8.55,128.18161,37.947523,7163.1511296,-1.099,28.725,358.171,1.0
8.5666,128.181608,37.947566,7165.0530816,-1.113,28.839,358.172,1.0
8.5833,128.181606,37.94761,7166.964177600001,-1.127,28.953,358.172,1.0
8.6,128.181604,37.947653,7168.8844176,-1.142,29.067,358.173,1.0
8.6166,128.181602,37.947697,7170.813801600001,-1.157,29.181,358.173,1.0
8.6333,128.1816,37.947741,7172.7526344,-1.172,29.295,358.173,1.0
8.65,128.181598,37.947784,7174.700306400001,-1.187,29.409,358.173,1.0
8.6666,128.181596,37.947827,7176.6571224,-1.203,29.522,358.173,1.0
8.6833,128.181594,37.947871,7178.6233872,-1.219,29.636,358.173,1.0
8.7,128.181592,37.947914,7180.5984912,-1.235,29.75,358.173,1.0
8.7166,128.18159,37.947957,7182.5827392,-1.251,29.863,358.173,1.0
8.7333,128.181588,37.948001,7184.5761312,-1.267,29.977,358.173,1.0
8.75,128.181586,37.948044,7186.5783624000005,-1.283,30.09,358.172,1.0
8.7666,128.181584,37.948087,7188.5897376,-1.3,30.203,358.172,1.0
8.7833,128.181582,37.94813,7190.610256800001,-1.317,30.317,358.171,1.0
8.8,128.18158,37.948173,7192.639615200001,-1.334,30.43,358.171,1.0
8.8166,128.181578,37.948216,7194.6778128000005,-1.351,30.543,358.17,1.0
8.8333,128.181576,37.948259,7196.7251544,-1.369,30.656,358.169,1.0
8.85,128.181574,37.948302,7198.7813352,-1.386,30.769,358.168,1.0
8.8666,128.181572,37.948345,7200.84666,-1.404,30.882,358.167,1.0
8.8833,128.18157,37.948388,7202.920519200001,-1.422,30.995,358.166,1.0
8.9,128.181568,37.94843,7205.0035224,-1.44,31.108,358.165,1.0
8.9166,128.181566,37.948473,7207.0953648,-1.458,31.221,358.164,1.0
8.9333,128.181564,37.948516,7209.1957416000005,-1.476,31.334,358.163,1.0
8.95,128.181562,37.948558,7211.3052624,-1.494,31.447,358.161,1.0
8.9666,128.18156,37.948601,7213.423622400001,-1.513,31.559,358.16,1.0
8.9833,128.181558,37.948643,7215.5505168,-1.532,31.672,358.158,1.0
9.0,128.181556,37.948686,7217.6862504,-1.551,31.786,358.156,1.0
9.0166,128.181554,37.948728,7219.830823200001,-1.57,31.899,358.154,1.0
9.0333,128.181552,37.948771,7221.9839304,-1.589,32.013,358.153,1.0
9.05,128.18155,37.948813,7224.1458768,-1.608,32.127,358.151,1.0
9.0666,128.181548,37.948855,7226.3163576,-1.627,32.242,358.148,1.0
9.0833,128.181546,37.948898,7228.495677600001,-1.647,32.357,358.146,1.0
9.1,128.181544,37.94894,7230.683836800001,-1.666,32.473,358.144,1.0
9.1166,128.181542,37.948982,7232.8802256,-1.686,32.588,358.142,1.0
9.1333,128.18154,37.949024,7235.0854536,-1.706,32.704,358.139,1.0
9.15,128.181538,37.949066,7237.299215999999,-1.726,32.821,358.136,1.0
9.1666,128.181536,37.949108,7239.5218176,-1.745,32.938,358.134,1.0
9.1833,128.181534,37.94915,7241.7526488,-1.765,33.054,358.131,1.0
9.2,128.181532,37.949192,7243.992319200001,-1.786,33.172,358.128,1.0
9.2166,128.18153,37.949234,7246.240524000001,-1.806,33.289,358.125,1.0
9.2333,128.181528,37.949275,7248.4972632,-1.826,33.407,358.122,1.0
9.25,128.181526,37.949317,7250.762232,-1.846,33.525,358.119,1.0
9.2666,128.181524,37.949359,7253.03604,-1.866,33.643,358.116,1.0
9.2833,128.181522,37.949401,7255.318077600001,-1.887,33.761,358.112,1.0
9.3,128.18152,37.949442,7257.608954400001,-1.907,33.879,358.109,1.0
9.3166,128.181517,37.949484,7259.9080608,-1.928,33.997,358.105,1.0
9.3333,128.181515,37.949525,7262.215701600001,-1.948,34.116,358.101,1.0
9.35,128.181513,37.949567,7264.531572,-1.969,34.235,358.098,1.0
9.3666,128.181511,37.949608,7266.8562816,-1.989,34.353,358.094,1.0
9.3833,128.181509,37.949649,7269.188916,-2.01,34.472,358.09,1.0
9.4,128.181507,37.949691,7271.5303896000005,-2.03,34.591,358.086,1.0
9.4166,128.181505,37.949732,7273.879788000001,-2.051,34.71,358.082,1.0
9.4333,128.181503,37.949773,7276.2380256,-2.071,34.829,358.078,1.0
9.45,128.181501,37.949814,7278.604492800001,-2.092,34.948,358.073,1.0
9.4666,128.181499,37.949855,7280.9791896,-2.112,35.068,358.069,1.0
9.4833,128.181497,37.949896,7283.362116,-2.133,35.187,358.065,1.0
9.5,128.181495,37.949937,7285.753576800001,-2.154,35.306,358.06,1.0
9.5166,128.181493,37.949978,7288.1532672,-2.174,35.426,358.055,1.0
9.5333,128.181491,37.950019,7290.561187200001,-2.195,35.545,358.051,1.0
9.55,128.181489,37.95006,7292.977336800001,-2.215,35.665,358.046,1.0
9.5666,128.181487,37.9501,7295.401715999999,-2.236,35.784,358.041,1.0
9.5833,128.181485,37.950141,7297.8346296,-2.256,35.904,358.036,1.0
9.6,128.181483,37.950182,7300.275468000001,-2.276,36.024,358.031,1.0
9.6166,128.181481,37.950222,7302.724536000001,-2.297,36.143,358.026,1.0
9.6333,128.181479,37.950263,7305.1821384,-2.317,36.263,358.02,1.0
9.65,128.181477,37.950303,7307.6476656,-2.337,36.383,358.015,1.0
9.6666,128.181475,37.950344,7310.1214224000005,-2.358,36.503,358.01,1.0
9.6833,128.181472,37.950384,7312.603104,-2.378,36.623,358.004,1.0
9.7,128.18147,37.950424,7315.093320000001,-2.398,36.743,357.998,1.0
9.7166,128.181468,37.950465,7317.591460800001,-2.418,36.863,357.993,1.0
9.7333,128.181466,37.950505,7320.0975264,-2.438,36.983,357.987,1.0
9.75,128.181464,37.950545,7322.6118216,-2.458,37.103,357.981,1.0
9.7666,128.181462,37.950585,7325.134346400001,-2.478,37.223,357.975,1.0
9.7833,128.18146,37.950625,7327.664796000001,-2.498,37.343,357.969,1.0
9.8,128.181458,37.950665,7330.2034752,-2.517,37.464,357.963,1.0
9.8166,128.181456,37.950705,7332.750079200001,-2.537,37.584,357.957,1.0
9.8333,128.181454,37.950745,7335.304608,-2.557,37.704,357.95,1.0
9.85,128.181452,37.950785,7337.8673664,-2.576,37.825,357.944,1.0
9.8666,128.18145,37.950825,7340.4380496,-2.596,37.945,357.938,1.0
9.8833,128.181448,37.950864,7343.0166576,-2.615,38.066,357.931,1.0
9.9,128.181446,37.950904,7345.6031904,-2.634,38.187,357.924,1.0
9.9166,128.181443,37.950943,7348.197648,-2.653,38.307,357.918,1.0
9.9333,128.181441,37.950983,7350.8000304,-2.672,38.428,357.911,1.0
9.95,128.181439,37.951022,7353.4103376,-2.691,38.549,357.904,1.0
9.9666,128.181437,37.951062,7356.028874400001,-2.71,38.669,357.897,1.0
9.9833,128.181435,37.951101,7358.6550312,-2.729,38.79,357.89,1.0
10.0,128.181433,37.95114,7361.2891128,-2.747,38.911,357.883,1.0
10.0166,128.181431,37.95118,7363.930814400001,-2.766,39.032,357.876,1.0
10.0333,128.181429,37.951219,7366.5807456,-2.784,39.153,357.868,1.0
10.05,128.181427,37.951258,7369.238296800001,-2.803,39.274,357.861,1.0
10.0666,128.181425,37.951297,7371.9037728,-2.821,39.395,357.854,1.0
10.0833,128.181422,37.951336,7374.576868800001,-2.839,39.517,357.846,1.0
10.1,128.18142,37.951375,7377.2578896,-2.857,39.638,357.839,1.0
10.1166,128.181418,37.951414,7379.9465304,-2.875,39.759,357.831,1.0
10.1333,128.181416,37.951453,7382.643096000001,-2.892,39.881,357.823,1.0
10.15,128.181414,37.951491,7385.3472816,-2.91,40.002,357.815,1.0
10.1666,128.181412,37.95153,7388.059392000001,-2.927,40.123,357.807,1.0
10.1833,128.18141,37.951569,7390.7791224,-2.945,40.245,357.799,1.0
10.2,128.181408,37.951607,7393.506472800001,-2.962,40.366,357.791,1.0
10.2166,128.181405,37.951646,7396.2414432,-2.979,40.488,357.783,1.0
10.2333,128.181403,37.951684,7398.984033600001,-2.996,40.61,357.775,1.0
10.25,128.181401,37.951723,7401.7345488,-3.012,40.732,357.767,1.0
10.2666,128.181399,37.951761,7404.492379200001,-3.029,40.853,357.758,1.0
10.2833,128.181397,37.951799,7407.2581344,-3.046,40.975,357.75,1.0
10.3,128.181395,37.951838,7410.0312048000005,-3.062,41.097,357.742,1.0
10.3166,128.181393,37.951876,7412.8118952,-3.078,41.219,357.733,1.0
10.3333,128.18139,37.951914,7415.600205600001,-3.094,41.341,357.724,1.0
10.35,128.181388,37.951952,7418.396136,-3.11,41.463,357.716,1.0
10.3666,128.181386,37.95199,7421.1996864,-3.126,41.585,357.707,1.0
10.3833,128.181384,37.952028,7424.010552000001,-3.141,41.708,357.698,1.0
10.4,128.181382,37.952066,7426.8290376,-3.157,41.83,357.689,1.0
10.4166,128.18138,37.952103,7429.654838400001,-3.172,41.952,357.68,1.0
10.4333,128.181378,37.952141,7432.4882592,-3.187,42.075,357.671,1.0
10.45,128.181375,37.952179,7435.3293,-3.202,42.197,357.662,1.0
10.4666,128.181373,37.952216,7438.177656000001,-3.217,42.32,357.653,1.0
10.4833,128.181371,37.952254,7441.033327200001,-3.232,42.442,357.643,1.0
10.5,128.181369,37.952291,7443.8963136,-3.247,42.565,357.634,1.0
10.5166,128.181367,37.952329,7446.766920000001,-3.261,42.687,357.624,1.0
10.5333,128.181364,37.952366,7449.6448416,-3.275,42.81,357.615,1.0
10.55,128.181362,37.952403,7452.530078400001,-3.289,42.933,357.605,1.0
10.5666,128.18136,37.952441,7455.4226304,-3.303,43.056,357.596,1.0
10.5833,128.181358,37.952478,7458.322497600001,-3.317,43.179,357.586,1.0
10.6,128.181356,37.952515,7461.2299848,-3.331,43.302,357.576,1.0
10.6166,128.181354,37.952552,7464.144482400001,-3.344,43.425,357.567,1.0
10.6333,128.181351,37.952589,7467.0662952,-3.357,43.548,357.557,1.0
10.65,128.181349,37.952626,7469.995423200001,-3.371,43.671,357.547,1.0
10.6666,128.181347,37.952663,7472.931561599999,-3.384,43.795,357.537,1.0
10.6833,128.181345,37.952699,7475.875320000001,-3.396,43.918,357.527,1.0
10.7,128.181342,37.952736,7478.8260887999995,-3.409,44.041,357.516,1.0
10.7166,128.18134,37.952773,7481.783868,-3.422,44.165,357.506,1.0
10.7333,128.181338,37.952809,7484.7489624,-3.434,44.288,357.496,1.0
10.75,128.181336,37.952846,7487.721372,-3.446,44.412,357.486,1.0
10.7666,128.181334,37.952882,7490.700792000001,-3.458,44.536,357.475,1.0
10.7833,128.181331,37.952919,7493.687527200001,-3.47,44.659,357.465,1.0
10.8,128.181329,37.952955,7496.6812728,-3.482,44.783,357.454,1.0
10.8166,128.181327,37.952991,7499.682028800001,-3.493,44.907,357.444,1.0
10.8333,128.181325,37.953027,7502.6897952,-3.505,45.031,357.433,1.0
10.85,128.181322,37.953063,7505.7048768,-3.516,45.155,357.422,1.0
10.8666,128.18132,37.953099,7508.726664000001,-3.527,45.279,357.412,1.0
10.8833,128.181318,37.953135,7511.7557664,-3.538,45.403,357.401,1.0
10.9,128.181316,37.953171,7514.791879200001,-3.549,45.528,357.39,1.0
10.9166,128.181314,37.953207,7517.8350024,-3.56,45.652,357.379,1.0
10.9333,128.181311,37.953243,7520.8848312,-3.57,45.776,357.368,1.0
10.95,128.181309,37.953279,7523.941975199999,-3.581,45.901,357.357,1.0
10.9666,128.181307,37.953314,7527.0058248000005,-3.591,46.025,357.346,1.0
10.9833,128.181304,37.95335,7530.0766848,-3.601,46.15,357.335,1.0
11.0,128.181302,37.953385,7533.154555200001,-3.611,46.275,357.323,1.0
11.0166,128.1813,37.953421,7536.2391312,-3.621,46.399,357.312,1.0
11.0333,128.181298,37.953456,7539.3307176,-3.63,46.524,357.301,1.0
11.05,128.181295,37.953491,7542.4293144,-3.64,46.649,357.289,1.0
11.0666,128.181293,37.953527,7545.534312,-3.649,46.774,357.278,1.0
11.0833,128.181291,37.953562,7548.646624800001,-3.658,46.899,357.266,1.0
11.1,128.181289,37.953597,7551.7653384000005,-3.667,47.024,357.255,1.0
11.1166,128.181286,37.953632,7554.8910624,-3.676,47.149,357.243,1.0
11.1333,128.181284,37.953667,7558.023796800001,-3.685,47.275,357.232,1.0
11.15,128.181282,37.953702,7561.162932,-3.693,47.4,357.22,1.0
11.1666,128.181279,37.953737,7564.3087728,-3.702,47.525,357.208,1.0
11.1833,128.181277,37.953771,7567.4616240000005,-3.71,47.651,357.196,1.0
11.2,128.181275,37.953806,7570.6211808,-3.718,47.777,357.184,1.0
11.2166,128.181273,37.953841,7573.787138400001,-3.726,47.902,357.172,1.0
11.2333,128.18127,37.953875,7576.960106400001,-3.734,48.028,357.16,1.0
11.25,128.181268,37.95391,7580.1394752,-3.742,48.154,357.148,1.0
11.2666,128.181266,37.953944,7583.3255496,-3.749,48.28,357.136,1.0
11.2833,128.181263,37.953979,7586.5183296,-3.757,48.406,357.124,1.0
11.3,128.181261,37.954013,7589.717510400001,-3.764,48.532,357.112,1.0
11.3166,128.181259,37.954047,7592.923396800001,-3.771,48.658,357.1,1.0
11.3333,128.181256,37.954081,7596.1359888,-3.779,48.784,357.087,1.0
11.35,128.181254,37.954115,7599.3549816,-3.786,48.911,357.075,1.0
11.3666,128.181252,37.954149,7602.58068,-3.792,49.037,357.063,1.0
11.3833,128.181249,37.954183,7605.8127792000005,-3.799,49.163,357.05,1.0
11.4,128.181247,37.954217,7609.051279200001,-3.806,49.29,357.038,1.0
11.4166,128.181245,37.954251,7612.2964848,-3.812,49.417,357.025,1.0
11.4333,128.181242,37.954284,7615.5477864,-3.818,49.543,357.013,1.0
11.45,128.18124,37.954318,7618.8057936,-3.825,49.67,357.0,1.0
11.4666,128.181238,37.954352,7622.0702016000005,-3.831,49.797,356.987,1.0
11.4833,128.181235,37.954385,7625.3410104,-3.837,49.924,356.975,1.0
11.5,128.181233,37.954418,7628.618524800001,-3.843,50.051,356.962,1.0
11.5166,128.181231,37.954452,7631.9021352,-3.848,50.178,356.949,1.0
11.5333,128.181228,37.954485,7635.191841600001,-3.854,50.306,356.936,1.0
11.55,128.181226,37.954518,7638.4882536000005,-3.859,50.433,356.923,1.0
11.5666,128.181224,37.954551,7641.7910664,-3.865,50.561,356.91,1.0
11.5833,128.181221,37.954584,7645.0999752,-3.87,50.688,356.897,1.0
11.6,128.181219,37.954617,7648.41498,-3.875,50.816,356.884,1.0
11.6166,128.181217,37.95465,7651.7366904,-3.88,50.943,356.871,1.0
11.6333,128.181214,37.954683,7655.064496800001,-3.885,51.071,356.858,1.0
11.65,128.181212,37.954716,7658.3983992,-3.89,51.199,356.845,1.0
11.6666,128.181209,37.954748,7661.738397600001,-3.895,51.327,356.831,1.0
11.6833,128.181207,37.954781,7665.085101600001,-3.9,51.455,356.818,1.0
11.7,128.181205,37.954814,7668.4375968,-3.904,51.583,356.805,1.0
11.7166,128.181202,37.954846,7671.796188000001,-3.909,51.712,356.791,1.0
11.7333,128.1812,37.954878,7675.16118,-3.913,51.84,356.778,1.0
11.75,128.181198,37.954911,7678.532268,-3.917,51.969,356.764,1.0
11.7666,128.181195,37.954943,7681.909452000001,-3.921,52.097,356.751,1.0
11.7833,128.181193,37.954975,7685.2924272,-3.925,52.226,356.737,1.0
11.8,128.18119,37.955007,7688.6818032,-3.929,52.354,356.723,1.0
11.8166,128.181188,37.955039,7692.0772752,-3.933,52.483,356.71,1.0
11.8333,128.181186,37.955071,7695.478538400001,-3.937,52.612,356.696,1.0
11.85,128.181183,37.955103,7698.885897600001,-3.941,52.741,356.682,1.0
11.8666,128.181181,37.955135,7702.2993528,-3.944,52.87,356.668,1.0
11.8833,128.181178,37.955167,7705.7185992,-3.948,52.999,356.655,1.0
11.9,128.181176,37.955198,7709.1439416,-3.951,53.128,356.641,1.0
11.9166,128.181174,37.95523,7712.575075199999,-3.954,53.257,356.627,1.0
11.9333,128.181171,37.955261,7716.0123048000005,-3.958,53.386,356.613,1.0
11.95,128.181169,37.955293,7719.4553256,-3.961,53.515,356.599,1.0
11.9666,128.181166,37.955324,7722.9041376000005,-3.964,53.645,356.585,1.0
11.9833,128.181164,37.955355,7726.3590456,-3.967,53.774,356.571,1.0
12.0,128.181161,37.955386,7729.8197448,-3.97,53.903,356.557,1.0
12.0166,128.181159,37.955418,7733.2862352,-3.973,54.033,356.542,1.0
12.0333,128.181157,37.955449,7736.7585168000005,-3.975,54.162,356.528,1.0
12.05,128.181154,37.95548,7740.2362848,-3.978,54.292,356.514,1.0
12.0666,128.181152,37.95551,7743.7201488,-3.981,54.422,356.5,1.0
12.0833,128.181149,37.955541,7747.209804,-3.983,54.552,356.485,1.0
12.1,128.181147,37.955572,7750.7049456,-3.986,54.682,356.471,1.0
12.1166,128.181145,37.955603,7754.205878400001,-3.988,54.812,356.456,1.0
12.1333,128.181142,37.955633,7757.710468800001,-3.927,54.942,356.452,1.0
12.15,128.18114,37.955664,7761.222984000001,-3.932,55.072,356.429,1.0
12.1666,128.181137,37.955694,7764.740376,-4.007,55.202,356.386,1.0
12.1833,128.181135,37.955724,7768.2644736,-4.148,55.331,356.328,1.0
12.2,128.181132,37.955755,7771.7946672,-4.35,55.46,356.258,1.0
12.2166,128.18113,37.955785,7775.3312616,-4.606,55.588,356.181,1.0
12.2333,128.181128,37.955815,7778.8745616,-4.913,55.717,356.099,1.0
12.25,128.181125,37.955845,7782.4245672,-5.262,55.847,356.014,1.0
12.2666,128.181123,37.955874,7785.980668800001,-5.65,55.977,355.926,1.0
12.2833,128.18112,37.955904,7789.5425616,-6.069,56.107,355.837,1.0
12.3,128.181118,37.955934,7793.1108552000005,-6.515,56.239,355.747,1.0
12.3166,128.181115,37.955964,7796.68494,-6.982,56.371,355.656,1.0
12.3333,128.181113,37.955993,7800.264511200001,-7.466,56.503,355.563,1.0
12.35,128.18111,37.956022,7803.849873600001,-7.962,56.637,355.469,1.0
12.3666,128.181108,37.956052,7807.4410272000005,-8.466,56.771,355.374,1.0
12.3833,128.181105,37.956081,7811.0373624,-8.975,56.905,355.277,1.0
12.4,128.181103,37.95611,7814.638879200001,-9.486,57.04,355.179,1.0
12.4166,128.1811,37.956139,7818.2458824000005,-9.997,57.175,355.079,1.0
12.4333,128.181098,37.956168,7821.858372000001,-10.504,57.31,354.976,1.0
12.45,128.181095,37.956197,7825.475738400001,-11.007,57.445,354.872,1.0
12.4666,128.181093,37.956226,7829.098286400001,-11.503,57.579,354.765,1.0
12.4833,128.18109,37.956255,7832.725711200001,-11.991,57.713,354.655,1.0
12.5,128.181087,37.956284,7836.3583176,-12.471,57.847,354.543,1.0
12.5166,128.181085,37.956312,7839.9958008,-12.941,57.98,354.427,1.0
12.5333,128.181082,37.956341,7843.638160800001,-13.402,58.113,354.309,1.0
12.55,128.18108,37.956369,7847.285397600001,-13.852,58.245,354.189,1.0
12.5666,128.181077,37.956398,7850.937511200001,-14.292,58.376,354.065,1.0
12.5833,128.181074,37.956426,7854.5945016000005,-14.722,58.506,353.938,1.0
12.6,128.181072,37.956454,7858.256064,-15.141,58.636,353.808,1.0
12.6166,128.181069,37.956482,7861.922808,-15.55,58.765,353.676,1.0
12.6333,128.181066,37.95651,7865.5938192,-15.95,58.893,353.541,1.0
12.65,128.181063,37.956538,7869.2697072,-16.34,59.021,353.403,1.0
12.6666,128.181061,37.956566,7872.950167200001,-16.722,59.148,353.263,1.0
12.6833,128.181058,37.956594,7876.635504,-17.094,59.274,353.121,1.0
12.7,128.181055,37.956622,7880.3254128,-17.458,59.399,352.977,1.0
12.7166,128.181052,37.95665,7884.0195888,-17.814,59.524,352.831,1.0
12.7333,128.181049,37.956677,7887.7186416,-18.162,59.648,352.682,1.0
12.75,128.181046,37.956705,7891.4222664,-18.503,59.771,352.532,1.0
12.7666,128.181043,37.956732,7895.1301584,-18.837,59.894,352.38,1.0
12.7833,128.18104,37.95676,7898.8429272,-19.165,60.016,352.226,1.0
12.8,128.181037,37.956787,7902.5599632,-19.487,60.138,352.07,1.0
12.8166,128.181034,37.956814,7906.2815712,-19.803,60.259,351.912,1.0
12.8333,128.181031,37.956841,7910.007446400001,-20.114,60.379,351.752,1.0
12.85,128.181028,37.956868,7913.7378936,-20.42,60.499,351.591,1.0
12.8666,128.181025,37.956895,7917.472608,-20.722,60.619,351.428,1.0
12.8833,128.181022,37.956922,7921.2115896000005,-21.019,60.737,351.263,1.0
12.9,128.181019,37.956949,7924.9551432,-21.314,60.856,351.097,1.0
12.9166,128.181016,37.956976,7928.702964,-21.604,60.974,350.929,1.0
12.9333,128.181012,37.957002,7932.455052000001,-21.892,61.092,350.759,1.0
12.95,128.181009,37.957029,7936.211712,-22.178,61.209,350.588,1.0
12.9666,128.181006,37.957055,7939.9723344,-22.461,61.326,350.414,1.0
12.9833,128.181003,37.957082,7943.737224,-22.743,61.442,350.24,1.0
13.0,128.180999,37.957108,7947.5063808,-23.023,61.558,350.063,1.0
13.0166,128.180996,37.957134,7951.2798048,-23.301,61.674,349.885,1.0
13.0333,128.180992,37.957161,7955.0571912000005,-23.579,61.789,349.705,1.0
13.0499,128.180989,37.957187,7958.8391496,-23.857,61.904,349.523,1.0
13.0666,128.180986,37.957213,7962.6247656000005,-24.134,62.019,349.339,1.0
13.0833,128.180982,37.957239,7966.4146488,-24.411,62.133,349.154,1.0
13.1,128.180978,37.957264,7970.208799200001,-24.688,62.247,348.967,1.0
13.1166,128.180975,37.95729,7974.006912,-24.965,62.361,348.778,1.0
13.1333,128.180971,37.957316,7977.808987200001,-25.243,62.474,348.587,1.0
13.15,128.180968,37.957341,7981.615024800001,-25.521,62.587,348.395,1.0
13.1666,128.180964,37.957367,7985.4253296,-25.8,62.7,348.2,1.0
13.1833,128.18096,37.957392,7989.239292000001,-26.08,62.813,348.004,1.0
13.2,128.180957,37.957418,7993.0572168,-26.362,62.925,347.806,1.0
13.2166,128.180953,37.957443,7996.8794088,-26.644,63.037,347.606,1.0
13.2333,128.180949,37.957468,8000.7049536,-26.928,63.149,347.404,1.0
13.25,128.180945,37.957493,8004.534765600001,-27.213,63.26,347.2,1.0
13.2666,128.180941,37.957518,8008.3682352000005,-27.499,63.371,346.994,1.0
13.2833,128.180937,37.957543,8012.2056672,-27.787,63.482,346.786,1.0
13.3,128.180933,37.957568,8016.0464520000005,-28.076,63.593,346.576,1.0
13.3166,128.180929,37.957593,8019.891504,-28.367,63.703,346.364,1.0
13.3333,128.180925,37.957617,8023.7399088,-28.658,63.813,346.151,1.0
13.35,128.180921,37.957642,8027.592276,-28.951,63.923,345.935,1.0
13.3666,128.180917,37.957666,8031.447996000001,-29.245,64.033,345.717,1.0
13.3833,128.180913,37.957691,8035.3076784,-29.541,64.142,345.497,1.0
13.4,128.180909,37.957715,8039.1707136,-29.838,64.251,345.275,1.0
13.4166,128.180905,37.957739,8043.037406400001,-30.135,64.36,345.051,1.0
13.4333,128.1809,37.957763,8046.907756800001,-30.434,64.468,344.824,1.0
13.45,128.180896,37.957788,8050.781460000001,-30.735,64.577,344.596,1.0
13.4666,128.180892,37.957812,8054.6588208,-31.036,64.685,344.365,1.0
13.4833,128.180887,37.957835,8058.5395344,-31.338,64.793,344.132,1.0
13.5,128.180883,37.957859,8062.423600800001,-31.641,64.901,343.897,1.0
13.5166,128.180879,37.957883,8066.311324800001,-31.945,65.009,343.659,1.0
13.5333,128.180874,37.957907,8070.2024016000005,-32.25,65.117,343.419,1.0
13.55,128.18087,37.95793,8074.096526400001,-32.556,65.224,343.177,1.0
13.5666,128.180865,37.957954,8077.9943088,-32.862,65.332,342.932,1.0
13.5833,128.18086,37.957977,8081.8951392,-33.169,65.439,342.685,1.0
13.6,128.180856,37.958,8085.7993224,-33.477,65.546,342.436,1.0
13.6166,128.180851,37.958024,8089.7068584,-33.785,65.653,342.184,1.0
13.6333,128.180846,37.958047,8093.617442400001,-34.093,65.759,341.93,1.0
13.65,128.180842,37.95807,8097.531074400001,-34.402,65.866,341.674,1.0
13.6666,128.180837,37.958093,8101.4480592,-34.712,65.972,341.416,1.0
13.6833,128.180832,37.958116,8105.368092000001,-35.022,66.078,341.154,1.0
13.7,128.180827,37.958138,8109.291477600001,-35.332,66.183,340.891,1.0
13.7166,128.180822,37.958161,8113.2176064000005,-35.643,66.289,340.625,1.0
13.7333,128.180817,37.958184,8117.147088000001,-35.955,66.394,340.357,1.0
13.75,128.180812,37.958206,8121.0793128000005,-36.268,66.499,340.086,1.0
13.7666,128.180807,37.958229,8125.0145856,-36.581,66.604,339.812,1.0
13.7833,128.180802,37.958251,8128.952906400001,-36.896,66.708,339.536,1.0
13.8,128.180797,37.958273,8132.8942752,-37.212,66.813,339.257,1.0
13.8166,128.180792,37.958296,8136.8383872,-37.528,66.916,338.976,1.0
13.8333,128.180786,37.958318,8140.785547200001,-37.846,67.02,338.692,1.0
13.85,128.180781,37.95834,8144.7354504,-38.165,67.123,338.405,1.0
13.8666,128.180776,37.958362,8148.6884016,-38.486,67.226,338.116,1.0
13.8833,128.180771,37.958384,8152.644096000001,-38.808,67.329,337.824,1.0
13.9,128.180765,37.958405,8156.6022288,-39.132,67.432,337.529,1.0
13.9166,128.18076,37.958427,8160.5634096,-39.457,67.534,337.231,1.0
13.9333,128.180754,37.958449,8164.527333600001,-39.784,67.635,336.93,1.0
13.95,128.180749,37.95847,8168.4940008,-40.113,67.737,336.627,1.0
13.9666,128.180743,37.958492,8172.463411200001,-40.444,67.838,336.32,1.0
13.9833,128.180738,37.958513,8176.43526,-40.777,67.939,336.011,1.0
14.0,128.180732,37.958534,8180.409852000001,-41.112,68.039,335.698,1.0
14.0166,128.180726,37.958555,8184.387187200001,-41.448,68.139,335.383,1.0
14.0333,128.180721,37.958576,8188.366960800001,-41.787,68.239,335.066,1.0
14.05,128.180715,37.958597,8192.3491728,-42.129,68.339,334.746,1.0
14.0666,128.180709,37.958618,8196.334128,-42.472,68.439,334.424,1.0
14.0833,128.180703,37.958639,8200.3215216,-42.817,68.539,334.099,1.0
14.1,128.180697,37.95866,8204.3113536,-43.165,68.638,333.772,1.0
14.1166,128.180691,37.95868,8208.303624,-43.515,68.738,333.443,1.0
14.1333,128.180685,37.958701,8212.298332800001,-43.867,68.837,333.111,1.0
14.15,128.180679,37.958721,8216.29548,-44.221,68.936,332.776,1.0
14.1666,128.180673,37.958742,8220.294760800001,-44.578,69.036,332.439,1.0
14.1833,128.180667,37.958762,8224.2967848,-44.937,69.135,332.099,1.0
14.2,128.180661,37.958782,8228.300637600001,-45.299,69.233,331.757,1.0
14.2166,128.180654,37.958802,8232.3072336,-45.663,69.332,331.411,1.0
14.2333,128.180648,37.958822,8236.3156584,-46.029,69.43,331.063,1.0
14.25,128.180642,37.958842,8240.3265216,-46.399,69.529,330.712,1.0
14.2666,128.180636,37.958862,8244.3398232,-46.771,69.627,330.357,1.0
14.2833,128.180629,37.958882,8248.354953600001,-47.145,69.724,330.0,1.0
14.3,128.180623,37.958901,8252.372217600001,-47.523,69.822,329.64,1.0
14.3166,128.180616,37.958921,8256.39192,-47.903,69.919,329.276,1.0
14.3333,128.18061,37.95894,8260.4134512,-48.286,70.016,328.909,1.0
14.35,128.180603,37.95896,8264.437116,-48.671,70.112,328.54,1.0
14.3666,128.180596,37.958979,8268.462914400001,-49.059,70.208,328.167,1.0
14.3833,128.18059,37.958998,8272.4905416,-49.45,70.304,327.792,1.0
14.4,128.180583,37.959017,8276.5203024,-49.843,70.399,327.413,1.0
14.4166,128.180576,37.959036,8280.551892000001,-50.239,70.493,327.032,1.0
14.4333,128.18057,37.959055,8284.585615200001,-50.637,70.587,326.648,1.0
14.45,128.180563,37.959074,8288.6211672,-51.038,70.681,326.261,1.0
14.4666,128.180556,37.959092,8292.658548,-51.441,70.774,325.871,1.0
14.4833,128.180549,37.959111,8296.6977576,-51.848,70.866,325.477,1.0
14.5,128.180542,37.95913,8300.738796000001,-52.257,70.958,325.081,1.0
14.5166,128.180535,37.959148,8304.7813584,-52.669,71.049,324.681,1.0
14.5333,128.180528,37.959166,8308.8260544,-53.083,71.139,324.278,1.0
14.55,128.180521,37.959185,8312.8722744,-53.501,71.229,323.871,1.0
14.5666,128.180513,37.959203,8316.9203232,-53.922,71.317,323.46,1.0
14.5833,128.180506,37.959221,8320.9702008,-54.345,71.405,323.045,1.0
14.6,128.180499,37.959239,8325.0216024,-54.772,71.492,322.626,1.0
14.6166,128.180492,37.959257,8329.074528000001,-55.202,71.578,322.203,1.0
14.6333,128.180484,37.959275,8333.128977600001,-55.636,71.663,321.776,1.0
14.65,128.180477,37.959292,8337.185256,-56.073,71.746,321.345,1.0
14.6666,128.180469,37.95931,8341.2427536,-56.513,71.829,320.909,1.0
14.6833,128.180462,37.959327,8345.30208,-56.957,71.911,320.469,1.0
14.7,128.180454,37.959345,8349.3626256,-57.405,71.992,320.025,1.0
14.7166,128.180447,37.959362,8353.424695200001,-57.856,72.072,319.577,1.0
14.7333,128.180439,37.959379,8357.4882888,-58.311,72.15,319.124,1.0
14.75,128.180431,37.959397,8361.5534064,-58.769,72.228,318.666,1.0
14.7666,128.180424,37.959414,8365.619743199999,-59.232,72.304,318.205,1.0
14.7833,128.180416,37.959431,8369.6872992,-59.698,72.379,317.738,1.0
