Time,Longitude,Latitude,Altitude,Roll (deg),Pitch (deg),Yaw (deg),Health
0.0,128.181881,37.968463,7002.830292000001,0.0,-0.003,179.999,1.0
0.0166,128.181881,37.968418,7002.8116992000005,0.0,-0.012,180.0,1.0
0.0333,128.181881,37.968374,7002.7912776,0.087,-0.026,180.011,1.0
0.05,128.181881,37.968329,7002.771160800001,0.084,-0.042,180.011,1.0
0.0666,128.181881,37.968284,7002.7504344,0.0,-0.06,179.995,1.0
0.0833,128.181881,37.968239,7002.7281840000005,0.004,-0.08,179.992,1.0
0.1,128.181881,37.968194,7002.7041048,0.088,-0.1,180.005,1.0
0.1166,128.181881,37.968149,7002.6803304000005,0.082,-0.12,180.007,1.0
0.1333,128.181881,37.968104,7002.656251200001,-0.004,-0.141,179.993,1.0
0.15,128.181881,37.968059,7002.630038400001,-0.001,-0.161,179.991,1.0
0.1666,128.181881,37.968014,7002.602301600001,0.082,-0.181,180.005,1.0
0.1833,128.181881,37.967969,7002.574869600001,0.075,-0.202,180.007,1.0
0.2,128.181881,37.967924,7002.5468280000005,-0.011,-0.221,179.993,1.0
0.2166,128.181881,37.967879,7002.5166528,-0.007,-0.241,179.991,1.0
0.2333,128.181881,37.967834,7002.4852584,0.076,-0.26,180.005,1.0
0.25,128.181881,37.967788,7002.4535592,0.07,-0.279,180.007,1.0
0.2666,128.181881,37.967743,7002.42186,-0.016,-0.298,179.993,1.0
0.2833,128.181881,37.967698,7002.387722400001,-0.012,-0.316,179.991,1.0
0.3,128.181881,37.967653,7002.352060800001,0.072,-0.334,180.005,1.0
0.3166,128.181881,37.967608,7002.3163992,0.066,-0.353,180.007,1.0
0.3333,128.181881,37.967563,7002.2804328,-0.02,-0.37,179.993,1.0
0.35,128.181881,37.967518,7002.2423328,-0.016,-0.388,179.991,1.0
0.3666,128.181881,37.967473,7002.202404000001,0.068,-0.405,180.005,1.0
0.3833,128.181881,37.967428,7002.1624752,0.062,-0.422,180.007,1.0
0.4,128.181881,37.967382,7002.122241600001,-0.023,-0.439,179.994,1.0
0.4166,128.181881,37.967337,7002.0798744,-0.018,-0.456,179.991,1.0
0.4333,128.181881,37.967292,7002.0356784000005,0.066,-0.473,180.005,1.0
0.45,128.181881,37.967247,7001.991482400001,0.06,-0.489,180.008,1.0
0.4666,128.181881,37.967202,7001.9469816,-0.025,-0.505,179.994,1.0
0.4833,128.181881,37.967157,7001.9003472,-0.02,-0.521,179.992,1.0
0.5,128.181881,37.967111,7001.851884000001,0.064,-0.537,180.006,1.0
0.5166,128.181881,37.967066,7001.8034208,0.059,-0.553,180.008,1.0
0.5333,128.181881,37.967021,7001.7543479999995,-0.026,-0.569,179.994,1.0
0.55,128.181881,37.966976,7001.703141600001,-0.021,-0.584,179.992,1.0
0.5666,128.181881,37.966931,7001.6501064,0.064,-0.6,180.006,1.0
0.5833,128.181881,37.966885,7001.597376,0.058,-0.615,180.008,1.0
0.6,128.181881,37.96684,7001.5437312,-0.027,-0.63,179.994,1.0
0.6166,128.181881,37.966795,7001.4882576,-0.022,-0.645,179.992,1.0
0.6333,128.181881,37.96675,7001.4330887999995,-0.112,-0.66,179.983,1.0
0.65,128.181881,37.966704,7001.3754816,-0.111,-0.675,179.986,1.0
0.6666,128.181881,37.966659,7001.318484000001,-0.204,-0.69,179.98,1.0
0.6833,128.181881,37.966614,7001.2608768,-0.379,-0.704,179.962,1.0
0.7,128.181881,37.966568,7001.203879200001,-0.641,-0.718,179.935,1.0
0.7166,128.181881,37.966523,7001.1453576,-0.814,-0.731,179.927,1.0
0.7333,128.181881,37.966478,7001.0859216,-0.904,-0.744,179.938,1.0
0.75,128.181881,37.966432,7001.0249616,-0.905,-0.757,179.964,1.0
0.7666,128.181881,37.966387,7000.961868,-0.81,-0.771,179.996,1.0
0.7833,128.181881,37.966342,7000.896640800001,-0.617,-0.784,180.033,1.0
0.8,128.181881,37.966296,7000.828670400001,-0.325,-0.798,180.07,1.0
0.8166,128.181881,37.966251,7000.757652000001,0.062,-0.812,180.106,1.0
0.8333,128.181881,37.966206,7000.6835856,0.543,-0.827,180.142,1.0
0.85,128.181881,37.96616,7000.6058616,1.113,-0.842,180.177,1.0
0.8666,128.181881,37.966115,7000.5241752,1.768,-0.858,180.21,1.0
0.8833,128.181881,37.966069,7000.4379168,2.504,-0.876,180.243,1.0
0.9,128.181881,37.966024,7000.347391200001,3.319,-0.895,180.273,1.0
0.9166,128.181881,37.965978,7000.2529032,4.207,-0.915,180.303,1.0
0.9333,128.181881,37.965933,7000.154148,5.167,-0.936,180.332,1.0
0.95,128.181881,37.965887,7000.0514304,6.194,-0.959,180.359,1.0
0.9666,128.181881,37.965842,6999.9444456,7.286,-0.983,180.385,1.0
0.9833,128.181881,37.965796,6999.8334984,8.441,-1.009,180.409,1.0
1.0,128.181881,37.965751,6999.718588799999,9.654,-1.036,180.433,1.0
1.0166,128.181881,37.965705,6999.6000216,10.924,-1.065,180.455,1.0
1.0333,128.181881,37.96566,6999.4771872,12.249,-1.095,180.475,1.0
1.05,128.181881,37.965614,6999.350695200001,13.626,-1.127,180.494,1.0
1.0666,128.181881,37.965568,6999.2205456,15.052,-1.161,180.512,1.0
1.0833,128.181881,37.965523,6999.0864336,16.527,-1.195,180.528,1.0
1.1,128.181881,37.965477,6998.948359200001,18.047,-1.232,180.542,1.0
1.1166,128.181881,37.965432,6998.806932,19.612,-1.269,180.555,1.0
1.1333,128.181881,37.965386,6998.661847200001,21.219,-1.308,180.567,1.0
1.15,128.181881,37.96534,6998.5128,22.866,-1.348,180.576,1.0
1.1666,128.181881,37.965295,6998.3604000000005,24.553,-1.388,180.584,1.0
1.1833,128.181881,37.965249,6998.204647200001,26.277,-1.43,180.59,1.0
1.2,128.181881,37.965203,6998.045236800001,28.038,-1.473,180.594,1.0
1.2166,128.181881,37.965157,6997.882168800001,29.833,-1.517,180.597,1.0
1.2333,128.181881,37.965112,6997.715748,31.662,-1.561,180.597,1.0
1.25,128.181881,37.965066,6997.545974400001,33.524,-1.606,180.596,1.0
1.2666,128.181881,37.96502,6997.3725432,35.417,-1.651,180.593,1.0
1.2833,128.181881,37.964974,6997.196064000001,37.341,-1.697,180.588,1.0
1.3,128.181881,37.964928,6997.016232,39.294,-1.743,180.582,1.0
1.3166,128.181882,37.964882,6996.833047200001,41.275,-1.789,180.573,1.0
1.3333,128.181882,37.964837,6996.6465096,43.284,-1.835,180.563,1.0
1.35,128.181882,37.964791,6996.4566192,45.32,-1.882,180.55,1.0
1.3666,128.181882,37.964745,6996.2636808,47.382,-1.928,180.536,1.0
1.3833,128.181882,37.964699,6996.0673896,49.469,-1.973,180.521,1.0
1.4,128.181882,37.964653,6995.8680504,51.58,-2.019,180.503,1.0
1.4166,128.181882,37.964607,6995.6656632,53.715,-2.064,180.484,1.0
1.4333,128.181882,37.964561,6995.4599232,55.873,-2.108,180.463,1.0
1.45,128.181882,37.964515,6995.2511352,58.054,-2.151,180.441,1.0
1.4666,128.181882,37.964469,6995.0392992,60.257,-2.194,180.417,1.0
1.4833,128.181883,37.964423,6994.824415200001,62.481,-2.236,180.392,1.0
1.5,128.181883,37.964377,6994.606483200001,64.726,-2.277,180.365,1.0
1.5166,128.181883,37.964331,6994.385808,66.991,-2.317,180.338,1.0
1.5333,128.181883,37.964285,6994.1620848,69.276,-2.356,180.309,1.0
1.55,128.181883,37.964239,6993.9353136,71.58,-2.394,180.278,1.0
1.5666,128.181883,37.964193,6993.7054944,73.904,-2.43,180.247,1.0
1.5833,128.181884,37.964147,6993.472932000001,76.245,-2.465,180.215,1.0
1.6,128.181884,37.964101,6993.2376264,78.605,-2.499,180.182,1.0
1.6166,128.181884,37.964055,6992.9995776000005,80.982,-2.531,180.149,1.0
1.6333,128.181884,37.964009,6992.7584808,83.376,-2.562,180.115,1.0
1.65,128.181884,37.963962,6992.514945600001,85.787,-2.592,180.08,1.0
1.6666,128.181885,37.963916,6992.2686672,88.214,-2.62,180.045,1.0
1.6833,128.181885,37.96387,6992.0196456,90.656,-2.647,180.009,1.0
1.7,128.181885,37.963824,6991.7681856,93.115,-2.672,179.974,1.0
1.7166,128.181885,37.963778,6991.513982400001,95.588,-2.696,179.938,1.0
1.7333,128.181886,37.963731,6991.257340800001,98.075,-2.718,179.902,1.0
1.75,128.181886,37.963685,6990.997956000001,100.577,-2.739,179.866,1.0
1.7666,128.181886,37.963639,6990.7364376000005,103.092,-2.758,179.83,1.0
1.7833,128.181887,37.963593,6990.4724808,105.621,-2.776,179.795,1.0
1.8,128.181887,37.963546,6990.206390400001,108.162,-2.793,179.76,1.0
1.8166,128.181887,37.9635,6989.937861599999,110.716,-2.808,179.725,1.0
1.8333,128.181887,37.963454,6989.6668944,113.282,-2.822,179.69,1.0
1.85,128.181888,37.963407,6989.3940984,115.859,-2.835,179.656,1.0
1.8666,128.181888,37.963361,6989.119168800001,118.447,-2.847,179.623,1.0
1.8833,128.181889,37.963315,6988.842105600001,121.046,-2.857,179.59,1.0
1.9,128.181889,37.963268,6988.5629088000005,123.656,-2.867,179.558,1.0
1.9166,128.181889,37.963222,6988.282188000001,126.275,-2.875,179.526,1.0
1.9333,128.18189,37.963176,6987.999333600001,128.904,-2.882,179.495,1.0
1.95,128.18189,37.963129,6987.7143456,131.542,-2.889,179.464,1.0
1.9666,128.181891,37.963083,6987.4281384000005,134.19,-2.894,179.435,1.0
1.9833,128.181891,37.963036,6987.139797600001,136.846,-2.899,179.405,1.0
2.0,128.181891,37.96299,6986.849932800001,139.51,-2.902,179.377,1.0
2.0166,128.181892,37.962943,6986.558544,142.182,-2.905,179.349,1.0
2.0333,128.181892,37.962897,6986.2653264,144.862,-2.907,179.322,1.0
2.05,128.181893,37.96285,6985.9708896,147.549,-2.909,179.296,1.0
2.0666,128.181893,37.962804,6985.674624,150.242,-2.909,179.27,1.0
2.0833,128.181894,37.962757,6985.3771392,152.942,-2.909,179.245,1.0
2.1,128.181894,37.96271,6985.0781304,155.648,-2.908,179.221,1.0
2.1166,128.181895,37.962664,6984.777597600001,158.359,-2.907,179.198,1.0
2.1333,128.181895,37.962617,6984.4758456,161.074,-2.905,179.175,1.0
2.15,128.181896,37.962571,6984.172874400001,163.795,-2.902,179.153,1.0
2.1666,128.181896,37.962524,6983.868379200001,166.519,-2.898,179.132,1.0
2.1833,128.181897,37.962477,6983.562664800001,169.246,-2.894,179.112,1.0
2.2,128.181897,37.962431,6983.2554264,171.977,-2.889,179.092,1.0
2.2166,128.181898,37.962384,6982.947273600001,174.709,-2.883,179.073,1.0
2.2333,128.181898,37.962337,6982.637596800001,177.444,-2.877,179.056,1.0
2.25,128.181899,37.962291,6982.326396,-179.819,-2.87,179.039,1.0
2.2666,128.181899,37.962244,6982.0142808,-177.082,-2.863,179.023,1.0
2.2833,128.1819,37.962197,6981.7006416,-174.345,-2.854,179.007,1.0
2.3,128.1819,37.96215,6981.3854784000005,-171.608,-2.845,178.993,1.0
2.3166,128.1819,37.962103,6981.069096,-168.872,-2.835,178.98,1.0
2.3333,128.181901,37.962057,6980.7514944,-166.137,-2.825,178.968,1.0
2.35,128.181901,37.96201,6980.4323688,-163.404,-2.813,178.957,1.0
2.3666,128.181902,37.961963,6980.1117192,-160.672,-2.801,178.947,1.0
2.3833,128.181902,37.961916,6979.789545600001,-157.944,-2.789,178.938,1.0
2.4,128.181903,37.961869,6979.465848,-155.218,-2.775,178.93,1.0
2.4166,128.181903,37.961822,6979.1406264,-152.495,-2.761,178.924,1.0
2.4333,128.181904,37.961775,6978.8135760000005,-149.97,-2.757,178.939,1.0
2.45,128.181904,37.961728,6978.484392,-147.635,-2.765,178.973,1.0
2.4666,128.181905,37.961682,6978.1524648,-145.497,-2.78,179.019,1.0
2.4833,128.181905,37.961635,6977.8171848,-143.559,-2.798,179.071,1.0
2.5,128.181906,37.961588,6977.478856800001,-141.819,-2.82,179.123,1.0
2.5166,128.181906,37.961541,6977.1368712,-140.273,-2.842,179.175,1.0
2.5333,128.181907,37.961494,6976.791228000001,-138.915,-2.866,179.225,1.0
2.55,128.181907,37.961447,6976.4419272000005,-137.737,-2.891,179.272,1.0
2.5666,128.181908,37.9614,6976.0880544,-136.731,-2.917,179.316,1.0
2.5833,128.181908,37.961353,6975.730219200001,-135.891,-2.945,179.357,1.0
2.6,128.181909,37.961306,6975.3678119999995,-135.21,-2.974,179.395,1.0
2.6166,128.181909,37.961259,6975.0008328,-134.681,-3.005,179.431,1.0
2.6333,128.18191,37.961212,6974.628976800001,-134.299,-3.037,179.464,1.0
2.65,128.181911,37.961165,6974.2525488,-134.056,-3.071,179.495,1.0
2.6666,128.181911,37.961118,6973.8706344,-133.948,-3.106,179.522,1.0
2.6833,128.181912,37.961071,6973.4838432,-133.969,-3.142,179.548,1.0
2.7,128.181913,37.961024,6973.091565600001,-134.114,-3.179,179.571,1.0
2.7166,128.181913,37.960977,6972.6934968000005,-134.378,-3.217,179.591,1.0
2.7333,128.181914,37.96093,6972.290551200001,-134.756,-3.257,179.609,1.0
2.75,128.181915,37.960882,6971.8821192000005,-135.243,-3.297,179.625,1.0
2.7666,128.181916,37.960835,6971.468200800001,-135.836,-3.338,179.64,1.0
2.7833,128.181917,37.960788,6971.049405600001,-136.53,-3.38,179.652,1.0
2.8,128.181918,37.960741,6970.625124000001,-137.321,-3.423,179.663,1.0
2.8166,128.181918,37.960694,6970.195965600001,-138.204,-3.466,179.673,1.0
2.8333,128.181919,37.960647,6969.7613208,-139.176,-3.51,179.681,1.0
2.85,128.18192,37.9606,6969.3214944,-140.233,-3.554,179.688,1.0
2.8666,128.181921,37.960553,6968.876181600001,-141.371,-3.6,179.694,1.0
2.8833,128.181922,37.960506,6968.425992,-142.587,-3.645,179.7,1.0
2.9,128.181924,37.960459,6967.970316,-143.877,-3.691,179.704,1.0
2.9166,128.181925,37.960412,6967.5094584,-145.239,-3.738,179.708,1.0
2.9333,128.181926,37.960365,6967.0431144,-146.668,-3.784,179.712,1.0
2.95,128.181927,37.960318,6966.5715887999995,-148.161,-3.831,179.716,1.0
2.9666,128.181928,37.960271,6966.0948816,-149.716,-3.878,179.719,1.0
2.9833,128.181929,37.960224,6965.612688000001,-151.329,-3.925,179.722,1.0
3.0,128.18193,37.960177,6965.1247032,-152.998,-3.973,179.726,1.0
3.0166,128.181932,37.96013,6964.6315368000005,-154.719,-4.02,179.729,1.0
3.0333,128.181933,37.960083,6964.132884000001,-156.49,-4.067,179.733,1.0
3.05,128.181934,37.960036,6963.6287448,-158.309,-4.115,179.737,1.0
3.0666,128.181935,37.959989,6963.119119200001,-160.171,-4.162,179.742,1.0
3.0833,128.181936,37.959942,6962.6037024,-162.076,-4.208,179.747,1.0
3.1,128.181938,37.959895,6962.0827992,-164.02,-4.255,179.752,1.0
3.1166,128.181939,37.959848,6961.556104800001,-166.001,-4.301,179.758,1.0
3.1333,128.18194,37.9598,6961.023924000001,-168.017,-4.346,179.765,1.0
3.15,128.181942,37.959753,6960.485952000001,-170.065,-4.391,179.772,1.0
3.1666,128.181943,37.959706,6959.941884000001,-172.144,-4.435,179.78,1.0
3.1833,128.181944,37.959659,6959.392329599999,-174.25,-4.479,179.789,1.0
3.2,128.181946,37.959612,6958.8369840000005,-176.383,-4.521,179.798,1.0
3.2166,128.181947,37.959565,6958.275542400001,-178.539,-4.563,179.808,1.0
3.2333,128.181948,37.959518,6957.7086144,179.281,-4.604,179.819,1.0
3.25,128.181949,37.959471,6957.1352856,177.082,-4.643,179.83,1.0
3.2666,128.181951,37.959424,6956.556470400001,174.865,-4.682,179.842,1.0
3.2833,128.181952,37.959377,6955.9715592,172.63,-4.719,179.854,1.0
3.3,128.181953,37.95933,6955.3805520000005,170.381,-4.756,179.866,1.0
3.3166,128.181955,37.959283,6954.7837536,168.119,-4.79,179.879,1.0
3.3333,128.181956,37.959236,6954.1811640000005,165.844,-4.824,179.892,1.0
3.35,128.181957,37.959189,6953.5721736000005,163.56,-4.856,179.906,1.0
3.3666,128.181958,37.959142,6952.957696800001,161.266,-4.887,179.919,1.0
3.3833,128.18196,37.959095,6952.337124000001,158.964,-4.916,179.933,1.0
3.4,128.181961,37.959048,6951.7104552,156.656,-4.944,179.947,1.0
3.4166,128.181962,37.959001,6951.0783,154.343,-4.97,179.96,1.0
3.4333,128.181963,37.958954,6950.4400488,152.026,-4.995,179.973,1.0
3.45,128.181964,37.958907,6949.796006400001,149.706,-5.019,179.986,1.0
3.4666,128.181965,37.95886,6949.1461728,147.384,-5.041,179.999,1.0
3.4833,128.181967,37.958812,6948.490548,145.061,-5.061,180.011,1.0
3.5,128.181968,37.958765,6947.829436800001,142.738,-5.08,180.022,1.0
3.5166,128.181969,37.958718,6947.164668,140.615,-5.113,180.014,1.0
3.5333,128.18197,37.958671,6946.4950224,138.685,-5.16,179.986,1.0
3.55,128.181971,37.958624,6945.8211096,136.955,-5.216,179.947,1.0
3.5666,128.181972,37.958577,6945.142624800001,135.429,-5.275,179.903,1.0
3.5833,128.181973,37.95853,6944.460482400001,134.108,-5.334,179.858,1.0
3.6,128.181973,37.958483,6943.774377600001,132.985,-5.393,179.814,1.0
3.6166,128.181974,37.958436,6943.084920000001,132.055,-5.451,179.772,1.0
3.6333,128.181975,37.958389,6942.3924144,131.308,-5.508,179.732,1.0
3.65,128.181976,37.958342,6941.696556000001,130.738,-5.564,179.694,1.0
3.6666,128.181977,37.958295,6940.997954400001,130.337,-5.62,179.659,1.0
3.6833,128.181978,37.958247,6940.296914400001,130.096,-5.675,179.625,1.0
3.7,128.181979,37.9582,6939.5931312,130.01,-5.729,179.592,1.0
3.7166,128.18198,37.958153,6938.8875192000005,130.071,-5.783,179.561,1.0
3.7333,128.181981,37.958106,6938.180078400001,130.274,-5.836,179.531,1.0
3.75,128.181982,37.958059,6937.470808800001,130.612,-5.888,179.502,1.0
3.7666,128.181982,37.958011,6936.759710400001,131.079,-5.939,179.473,1.0
3.7833,128.181983,37.957964,6936.047697600001,131.669,-5.989,179.446,1.0
3.8,128.181984,37.957917,6935.334465600001,132.378,-6.038,179.418,1.0
3.8166,128.181985,37.95787,6934.6200144,133.2,-6.086,179.391,1.0
3.8333,128.181986,37.957822,6933.9040392,134.13,-6.132,179.365,1.0
3.85,128.181987,37.957775,6933.1871496,135.163,-6.178,179.338,1.0
3.8666,128.181988,37.957728,6932.469040800001,136.294,-6.222,179.312,1.0
3.8833,128.181989,37.95768,6931.7497128,137.519,-6.266,179.286,1.0
3.9,128.18199,37.957633,6931.029165600001,138.834,-6.308,179.26,1.0
3.9166,128.181991,37.957586,6930.307704,140.234,-6.349,179.234,1.0
3.9333,128.181992,37.957538,6929.585328,141.716,-6.388,179.208,1.0
3.95,128.181994,37.957491,6928.861732800001,143.275,-6.427,179.183,1.0
3.9666,128.181995,37.957443,6928.1369184000005,144.909,-6.464,179.157,1.0
3.9833,128.181996,37.957396,6927.4114944,146.613,-6.501,179.131,1.0
4.0,128.181997,37.957348,6926.6851560000005,148.384,-6.536,179.105,1.0
4.0166,128.181998,37.957301,6925.9579032,150.218,-6.57,179.079,1.0
4.0333,128.181999,37.957253,6925.229736,152.114,-6.602,179.053,1.0
4.05,128.182,37.957206,6924.500959200001,154.066,-6.634,179.027,1.0
4.0666,128.182001,37.957158,6923.771268,156.073,-6.664,179.001,1.0
4.0833,128.182003,37.957111,6923.0406624,158.132,-6.693,178.975,1.0
4.1,128.182004,37.957063,6922.309447200001,160.239,-6.72,178.949,1.0
4.1166,128.182005,37.957015,6921.5776224,162.393,-6.746,178.922,1.0
4.1333,128.182006,37.956968,6920.845188000001,164.59,-6.771,178.896,1.0
4.15,128.182007,37.95692,6920.1118392,166.828,-6.795,178.87,1.0
4.1666,128.182009,37.956872,6919.3778808,169.104,-6.817,178.844,1.0
4.1833,128.18201,37.956825,6918.6433128,171.417,-6.837,178.818,1.0
4.2,128.182011,37.956777,6917.9078304,173.764,-6.856,178.792,1.0
4.2166,128.182012,37.956729,6917.171738400001,176.142,-6.874,178.767,1.0
4.2333,128.182013,37.956682,6916.4350368000005,178.55,-6.89,178.741,1.0
4.25,128.182014,37.956634,6915.6977256,-179.014,-6.904,178.716,1.0
4.2666,128.182016,37.956586,6914.9595,-176.553,-6.916,178.691,1.0
4.2833,128.182017,37.956538,6914.22036,-174.068,-6.927,178.667,1.0
4.3,128.182018,37.95649,6913.480610400001,-171.562,-6.936,178.643,1.0
4.3166,128.182019,37.956442,6912.7396416,-169.036,-6.944,178.62,1.0
4.3333,128.18202,37.956395,6911.9974536,-166.701,-6.955,178.623,1.0
4.35,128.182022,37.956347,6911.253132000001,-164.552,-6.971,178.651,1.0
4.3666,128.182023,37.956299,6910.5069816000005,-162.598,-6.991,178.693,1.0
4.3833,128.182024,37.956251,6909.757783200001,-160.843,-7.013,178.741,1.0
4.4,128.182025,37.956203,6909.0055368,-159.288,-7.035,178.79,1.0
4.4166,128.182026,37.956155,6908.2502424,-157.928,-7.057,178.837,1.0
4.4333,128.182028,37.956107,6907.4912904,-156.755,-7.08,178.881,1.0
4.45,128.182029,37.956059,6906.728376,-155.762,-7.105,178.922,1.0
4.4666,128.18203,37.956011,6905.9614992,-154.94,-7.131,178.961,1.0
4.4833,128.182031,37.955963,6905.1900504000005,-154.283,-7.159,178.998,1.0
4.5,128.182032,37.955915,6904.4140296,-153.782,-7.188,179.032,1.0
4.5166,128.182034,37.955867,6903.633132000001,-153.432,-7.219,179.065,1.0
4.5333,128.182035,37.955819,6902.8473576,-153.226,-7.251,179.096,1.0
4.55,128.182036,37.955771,6902.055792000001,-153.159,-7.285,179.125,1.0
4.5666,128.182037,37.955723,6901.25874,-153.224,-7.32,179.152,1.0
4.5833,128.182039,37.955675,6900.455896800001,-153.415,-7.356,179.178,1.0
4.6,128.18204,37.955627,6899.6469576,-153.729,-7.393,179.202,1.0
4.6166,128.182041,37.955579,6898.8313128,-154.159,-7.432,179.225,1.0
4.6333,128.182043,37.955531,6898.010181600001,-154.701,-7.472,179.246,1.0
4.65,128.182044,37.955483,6897.1829544,-155.349,-7.513,179.266,1.0
4.6666,128.182045,37.955435,6896.3496312,-156.1,-7.554,179.285,1.0
4.6833,128.182047,37.955387,6895.510212,-156.948,-7.596,179.303,1.0
4.7,128.182048,37.955339,6894.6650016,-157.89,-7.639,179.32,1.0
4.7166,128.18205,37.955291,6893.814,-158.921,-7.683,179.336,1.0
4.7333,128.182051,37.955243,6892.9569024,-160.037,-7.727,179.352,1.0
4.75,128.182053,37.955195,6892.0940136,-161.234,-7.771,179.368,1.0
4.7666,128.182054,37.955147,6891.2250288000005,-162.509,-7.816,179.383,1.0
4.7833,128.182056,37.955099,6890.3502528,-163.857,-7.861,179.398,1.0
4.8,128.182057,37.955051,6889.4693808,-165.275,-7.905,179.412,1.0
4.8166,128.182059,37.955003,6888.5827176,-166.759,-7.95,179.427,1.0
4.8333,128.18206,37.954955,6887.6902632,-168.307,-7.995,179.442,1.0
4.85,128.182062,37.954907,6886.7917128,-169.914,-8.04,179.457,1.0
4.8666,128.182063,37.954859,6885.8873712,-171.579,-8.084,179.472,1.0
4.8833,128.182065,37.954811,6884.976933600001,-173.296,-8.127,179.487,1.0
4.9,128.182066,37.954763,6884.0604,-175.064,-8.171,179.503,1.0
4.9166,128.182068,37.954715,6883.1380752,-176.88,-8.213,179.518,1.0
4.9333,128.182069,37.954667,6882.2096544000005,-178.74,-8.255,179.535,1.0
4.95,128.182071,37.954619,6881.2754424,179.356,-8.296,179.551,1.0
4.9666,128.182072,37.954571,6880.3348295999995,177.414,-8.337,179.568,1.0
4.9833,128.182074,37.954524,6879.3884256,175.436,-8.376,179.585,1.0
5.0,128.182075,37.954476,6878.4359256,173.423,-8.414,179.603,1.0
5.0166,128.182077,37.954428,6877.477329599999,171.378,-8.451,179.621,1.0
5.0333,128.182078,37.95438,6876.512637600001,169.303,-8.487,179.639,1.0
5.05,128.18208,37.954332,6875.5433736,167.418,-8.527,179.63,1.0
5.0666,128.182081,37.954284,6874.568928000001,165.716,-8.572,179.595,1.0
5.0833,128.182083,37.954236,6873.589605600001,164.208,-8.62,179.545,1.0
5.1,128.182084,37.954188,6872.606016,162.9,-8.668,179.489,1.0
5.1166,128.182086,37.95414,6871.6181592,161.792,-8.716,179.434,1.0
5.1333,128.182087,37.954092,6870.626644800001,160.878,-8.764,179.382,1.0
5.15,128.182088,37.954044,6869.631472800001,160.152,-8.811,179.332,1.0
5.1666,128.18209,37.953996,6868.6332528,159.605,-8.857,179.286,1.0
5.1833,128.182091,37.953948,6867.6319848,159.229,-8.904,179.242,1.0
5.2,128.182093,37.9539,6866.6285832,159.016,-8.951,179.2,1.0
5.2166,128.182094,37.953852,6865.622438400001,158.958,-8.997,179.159,1.0
5.2333,128.182096,37.953804,6864.614769600001,159.048,-9.043,179.119,1.0
5.25,128.182097,37.953756,6863.605272,159.281,-9.089,179.081,1.0
5.2666,128.182098,37.953707,6862.5945552,159.649,-9.133,179.044,1.0
5.2833,128.1821,37.953659,6861.5826192,160.146,-9.177,179.007,1.0
5.3,128.182101,37.953611,6860.570073600001,160.767,-9.219,178.971,1.0
5.3166,128.182103,37.953563,6859.5572232,161.506,-9.26,178.936,1.0
5.3333,128.182104,37.953515,6858.5443728,162.358,-9.3,178.901,1.0
5.35,128.182106,37.953467,6857.530608,163.316,-9.338,178.867,1.0
5.3666,128.182107,37.953418,6856.516538400001,164.377,-9.375,178.833,1.0
5.3833,128.182109,37.95337,6855.501859200001,165.534,-9.41,178.8,1.0
5.4,128.18211,37.953322,6854.486570400001,166.783,-9.444,178.766,1.0
5.4166,128.182112,37.953274,6853.4709768,168.12,-9.476,178.734,1.0
5.4333,128.182113,37.953225,6852.4550784,169.541,-9.506,178.701,1.0
5.45,128.182115,37.953177,6851.438265600001,171.04,-9.535,178.668,1.0
5.4666,128.182116,37.953129,6850.421147999999,172.615,-9.562,178.636,1.0
5.4833,128.182118,37.95308,6849.4034208,174.26,-9.587,178.604,1.0
5.5,128.182119,37.953032,6848.3850840000005,175.973,-9.61,178.573,1.0
5.5166,128.182121,37.952983,6847.366137600001,177.75,-9.631,178.542,1.0
5.5333,128.182122,37.952935,6846.346581600001,179.586,-9.651,178.511,1.0
5.55,128.182124,37.952887,6845.326416,-178.519,-9.669,178.48,1.0
5.5666,128.182125,37.952838,6844.305336,-176.572,-9.685,178.45,1.0
5.5833,128.182127,37.95279,6843.2836464,-174.574,-9.699,178.421,1.0
5.6,128.182128,37.952741,6842.261347200001,-172.528,-9.711,178.392,1.0
5.6166,128.18213,37.952693,6841.238133600001,-170.438,-9.722,178.364,1.0
5.6333,128.182131,37.952644,6840.214310400001,-168.306,-9.73,178.337,1.0
5.65,128.182133,37.952595,6839.189268,-166.135,-9.737,178.31,1.0
5.6666,128.182134,37.952547,6838.163616,-163.926,-9.742,178.284,1.0
5.6833,128.182136,37.952498,6837.1367448,-161.684,-9.745,178.26,1.0
5.7,128.182137,37.952449,6836.1086544,-159.633,-9.756,178.263,1.0
5.7166,128.182139,37.952401,6835.0784304,-157.768,-9.776,178.293,1.0
5.7333,128.18214,37.952352,6834.045768,-156.099,-9.801,178.339,1.0
5.75,128.182142,37.952303,6833.0103624,-154.632,-9.828,178.39,1.0
5.7666,128.182144,37.952255,6831.9719088,-153.367,-9.855,178.44,1.0
5.7833,128.182145,37.952206,6830.929797600001,-152.299,-9.882,178.488,1.0
5.8,128.182147,37.952157,6829.884333600001,-151.42,-9.909,178.532,1.0
5.8166,128.182148,37.952109,6828.8346024,-150.72,-9.937,178.574,1.0
5.8333,128.18215,37.95206,6827.7809088,-150.192,-9.965,178.613,1.0
5.85,128.182151,37.952011,6826.7226432,-149.827,-9.995,178.649,1.0
5.8666,128.182153,37.951962,6825.6595008,-149.617,-10.026,178.684,1.0
5.8833,128.182154,37.951914,6824.5914816,-149.557,-10.058,178.717,1.0
5.9,128.182156,37.951865,6823.5185856,-149.639,-10.092,178.748,1.0
5.9166,128.182157,37.951816,6822.4398984,-149.857,-10.126,178.778,1.0
5.9333,128.182159,37.951768,6821.355724800001,-150.206,-10.162,178.806,1.0
5.95,128.182161,37.951719,6820.2654552,-150.68,-10.198,178.832,1.0
5.9666,128.182162,37.95167,6819.1690896,-151.274,-10.236,178.857,1.0
5.9833,128.182164,37.951621,6818.066323200001,-151.981,-10.275,178.88,1.0
6.0,128.182166,37.951573,6816.957765600001,-152.798,-10.314,178.902,1.0
6.0166,128.182167,37.951524,6815.8428072,-153.719,-10.354,178.923,1.0
6.0333,128.182169,37.951475,6814.7220576,-154.74,-10.395,178.943,1.0
6.05,128.182171,37.951427,6813.595212,-155.855,-10.437,178.962,1.0
6.0666,128.182173,37.951378,6812.462270400001,-157.061,-10.479,178.98,1.0
6.0833,128.182174,37.951329,6811.3232328,-158.353,-10.522,178.997,1.0
6.1,128.182176,37.951281,6810.178404,-159.727,-10.565,179.015,1.0
6.1166,128.182178,37.951232,6809.027479200001,-161.18,-10.608,179.031,1.0
6.1333,128.18218,37.951183,6807.8704584,-162.706,-10.652,179.048,1.0
6.15,128.182182,37.951135,6806.7076464,-164.302,-10.696,179.065,1.0
6.1666,128.182184,37.951086,6805.5387384000005,-165.966,-10.739,179.081,1.0
6.1833,128.182186,37.951038,6804.3640392,-167.692,-10.783,179.098,1.0
6.2,128.182187,37.950989,6803.183244,-169.478,-10.826,179.114,1.0
6.2166,128.182189,37.95094,6801.9963528,-171.32,-10.869,179.131,1.0
6.2333,128.182191,37.950892,6800.803365600001,-173.215,-10.912,179.148,1.0
6.25,128.182193,37.950843,6799.604282400001,-175.16,-10.954,179.166,1.0
6.2666,128.182195,37.950795,6798.399408,-177.151,-10.995,179.184,1.0
6.2833,128.182197,37.950746,6797.188437600001,-179.187,-11.036,179.202,1.0
6.3,128.182199,37.950698,6795.9722856,178.967,-11.075,179.19,1.0
6.3166,128.182201,37.950649,6794.750952000001,177.305,-11.115,179.149,1.0
6.3333,128.182202,37.9506,6793.525046400001,175.84,-11.154,179.091,1.0
6.35,128.182204,37.950552,6792.294873600001,174.577,-11.194,179.029,1.0
6.3666,128.182206,37.950503,6791.060433600001,173.519,-11.233,178.969,1.0
6.3833,128.182208,37.950455,6789.8226408,172.658,-11.273,178.912,1.0
6.4,128.18221,37.950406,6788.5814952,171.987,-11.313,178.859,1.0
6.4166,128.182212,37.950358,6787.3373016000005,171.496,-11.353,178.81,1.0
6.4333,128.182214,37.950309,6786.0903648,171.176,-11.394,178.763,1.0
6.45,128.182215,37.950261,6784.8412944,171.019,-11.435,178.717,1.0
6.4666,128.182217,37.950212,6783.5900904,171.018,-11.476,178.673,1.0
6.4833,128.182219,37.950164,6782.3373624,171.164,-11.517,178.63,1.0
6.5,128.182221,37.950115,6781.083415200001,171.453,-11.557,178.588,1.0
6.5166,128.182223,37.950066,6779.8282488,171.876,-11.597,178.547,1.0
6.5333,128.182225,37.950018,6778.5724728000005,172.429,-11.635,178.508,1.0
6.55,128.182227,37.949969,6777.316392000001,173.104,-11.673,178.468,1.0
6.5666,128.182228,37.949921,6776.060311200001,173.895,-11.709,178.43,1.0
6.5833,128.18223,37.949872,6774.8045352,174.798,-11.743,178.392,1.0
6.6,128.182232,37.949823,6773.5481496,175.806,-11.776,178.355,1.0
6.6166,128.182234,37.949775,6772.2917640000005,176.915,-11.807,178.319,1.0
6.6333,128.182236,37.949726,6771.033549600001,177.87,-11.852,178.303,1.0
6.65,128.182238,37.949677,6769.773506400001,178.677,-11.928,178.308,1.0
6.6666,128.18224,37.949628,6768.510720000001,179.336,-12.051,178.33,1.0
6.6833,128.182242,37.94958,6767.244276,179.847,-12.238,178.363,1.0
6.7,128.182244,37.949531,6765.972955200001,-179.791,-12.502,178.402,1.0
6.7166,128.182245,37.949482,6764.6958432,-179.578,-12.853,178.441,1.0
6.7333,128.182247,37.949434,6763.4117208,-179.51,-13.291,178.478,1.0
6.75,128.182249,37.949385,6762.120283200001,-179.579,-13.799,178.514,1.0
6.7666,128.182251,37.949336,6760.8197016,-179.78,-14.361,178.548,1.0
6.7833,128.182253,37.949288,6759.5096712,179.894,-14.952,178.583,1.0
6.8,128.182255,37.949239,6758.188972800001,179.45,-15.551,178.619,1.0
6.8166,128.182257,37.949191,6756.856692,178.896,-16.136,178.656,1.0
6.8333,128.182259,37.949142,6755.512219200001,178.236,-16.685,178.697,1.0
6.85,128.18226,37.949094,6754.1549448000005,177.478,-17.182,178.741,1.0
6.8666,128.182262,37.949045,6752.7836496,176.627,-17.631,178.788,1.0
6.8833,128.182264,37.948997,6751.397724,175.688,-18.043,178.839,1.0
6.9,128.182266,37.948948,6749.9965584,174.664,-18.427,178.896,1.0
6.9166,128.182268,37.9489,6748.579238400001,173.559,-18.791,178.958,1.0
6.9333,128.18227,37.948851,6747.1463736000005,172.376,-19.14,179.026,1.0
6.95,128.182271,37.948803,6745.6973544,171.117,-19.477,179.101,1.0
6.9666,128.182273,37.948755,6744.231876,169.786,-19.804,179.184,1.0
6.9833,128.182275,37.948707,6742.7502432,168.384,-20.124,179.274,1.0
7.0,128.182277,37.948659,6741.2518464,166.913,-20.437,179.373,1.0
7.0166,128.182278,37.94861,6739.7366856,165.375,-20.746,179.481,1.0
7.0333,128.18228,37.948562,6738.205065600001,163.774,-21.047,179.597,1.0
7.05,128.182281,37.948514,6736.6563768000005,162.11,-21.339,179.722,1.0
7.0666,128.182283,37.948466,6735.0921432,160.399,-21.62,179.854,1.0
7.0833,128.182284,37.948419,6733.5117552,158.671,-21.891,179.99,1.0
7.1,128.182286,37.948371,6731.9161272,156.954,-22.151,180.13,1.0
7.1166,128.182287,37.948323,6730.305564,155.271,-22.402,180.272,1.0
7.1333,128.182288,37.948275,6728.6800656000005,153.642,-22.643,180.417,1.0
7.15,128.18229,37.948227,6727.0405464000005,152.082,-22.876,180.565,1.0
7.1666,128.182291,37.94818,6725.387006400001,150.599,-23.1,180.716,1.0
7.1833,128.182292,37.948132,6723.7197504000005,149.2,-23.316,180.872,1.0
7.2,128.182293,37.948084,6722.039388000001,147.885,-23.523,181.032,1.0
7.2166,128.182294,37.948037,6720.346224000001,146.654,-23.723,181.196,1.0
7.2333,128.182295,37.947989,6718.6405632000005,145.504,-23.915,181.365,1.0
7.25,128.182295,37.947942,6716.9224056,144.43,-24.099,181.537,1.0
7.2666,128.182296,37.947894,6715.191751200001,143.425,-24.276,181.713,1.0
7.2833,128.182297,37.947847,6713.4489048000005,142.483,-24.446,181.892,1.0
7.3,128.182297,37.9478,6711.693256800001,141.598,-24.609,182.074,1.0
7.3166,128.182298,37.947752,6709.925112,140.764,-24.766,182.258,1.0
7.3333,128.182298,37.947705,6708.1466040000005,140.054,-24.912,182.418,1.0
7.35,128.182299,37.947658,6706.3546848,139.327,-25.024,182.558,1.0
7.3666,128.182299,37.94761,6704.5505736000005,138.53,-25.082,182.673,1.0
7.3833,128.182299,37.947563,6702.7345752,137.666,-25.077,182.748,1.0
7.4,128.182299,37.947516,6700.907604,136.738,-25.001,182.764,1.0
7.4166,128.182299,37.947469,6699.0690504,135.738,-24.875,182.734,1.0
7.4333,128.182299,37.947422,6697.2192192,134.657,-24.716,182.668,1.0
7.45,128.182299,37.947375,6695.358720000001,133.489,-24.541,182.583,1.0
7.4666,128.182298,37.947328,6693.4875528,132.228,-24.366,182.494,1.0
7.4833,128.182298,37.947281,6691.6057176,130.868,-24.204,182.417,1.0
7.5,128.182297,37.947234,6689.713824,129.403,-24.069,182.368,1.0
7.5166,128.182297,37.947187,6687.8115672,127.831,-23.969,182.361,1.0
7.5333,128.182296,37.94714,6685.899556800001,126.154,-23.903,182.396,1.0
7.55,128.182295,37.947094,6683.9784024,124.376,-23.863,182.466,1.0
7.5666,128.182294,37.947047,6682.0484088,122.505,-23.842,182.564,1.0
7.5833,128.182293,37.947,6680.109576,120.548,-23.833,182.684,1.0
7.6,128.182292,37.946953,6678.1625136,118.51,-23.832,182.817,1.0
7.6166,128.182291,37.946907,6676.2075264000005,116.397,-23.833,182.962,1.0
7.6333,128.18229,37.94686,6674.245224,114.214,-23.835,183.114,1.0
7.65,128.182288,37.946814,6672.275301600001,111.966,-23.834,183.272,1.0
7.6666,128.182286,37.946767,6670.298978400001,109.655,-23.831,183.436,1.0
7.6833,128.182285,37.946721,6668.3159496,107.285,-23.824,183.603,1.0
7.7,128.182283,37.946674,6666.327129599999,104.859,-23.811,183.772,1.0
7.7166,128.182281,37.946628,6664.3328232,102.386,-23.79,183.927,1.0
7.7333,128.182279,37.946581,6662.3330304,99.876,-23.757,184.048,1.0
7.75,128.182277,37.946535,6660.328970400001,97.337,-23.711,184.119,1.0
7.7666,128.182275,37.946488,6658.3206432,94.777,-23.655,184.126,1.0
7.7833,128.182272,37.946442,6656.3083536,92.19,-23.593,184.085,1.0
7.8,128.18227,37.946396,6654.292711200001,89.568,-23.529,184.018,1.0
7.8166,128.182267,37.946349,6652.2740208,86.905,-23.466,183.938,1.0
7.8333,128.182265,37.946303,6650.252587200001,84.196,-23.405,183.855,1.0
7.85,128.182262,37.946257,6648.229020000001,81.44,-23.348,183.772,1.0
7.8666,128.182259,37.94621,6646.203319200001,78.637,-23.294,183.692,1.0
7.8833,128.182257,37.946164,6644.1757896,75.788,-23.244,183.617,1.0
7.9,128.182254,37.946118,6642.1464312,72.893,-23.198,183.548,1.0
7.9166,128.182251,37.946072,6640.1161584,69.956,-23.155,183.486,1.0
7.9333,128.182248,37.946025,6638.0843616,66.978,-23.114,183.431,1.0
7.95,128.182245,37.945979,6636.0519552000005,63.963,-23.074,183.383,1.0
7.9666,128.182241,37.945933,6634.018634399999,60.911,-23.035,183.341,1.0
7.9833,128.182238,37.945887,6631.985923200001,58.047,-23.022,183.32,1.0
8.0,128.182235,37.94584,6629.951992800001,55.363,-23.032,183.32,1.0
8.0166,128.182232,37.945794,6627.9168432,52.875,-23.055,183.334,1.0
8.0333,128.182228,37.945748,6625.8798648,50.595,-23.081,183.356,1.0
8.05,128.182225,37.945702,6623.8410576,48.525,-23.105,183.381,1.0
8.0666,128.182222,37.945656,6621.799812,46.68,-23.104,183.412,1.0
8.0833,128.182218,37.945609,6619.756737600001,45.046,-23.066,183.462,1.0
8.1,128.182215,37.945563,6617.7121392,43.599,-22.983,183.546,1.0
8.1166,128.182212,37.945517,6615.6660168,42.318,-22.844,183.677,1.0
8.1333,128.182208,37.945471,6613.61898,41.19,-22.643,183.866,1.0
8.15,128.182205,37.945424,6611.571333600001,40.204,-22.37,184.119,1.0
8.1666,128.182201,37.945378,6609.523382400001,39.34,-22.02,184.433,1.0
8.1833,128.182198,37.945332,6607.4748216,38.581,-21.606,184.797,1.0
8.2,128.182194,37.945286,6605.426260800001,37.913,-21.138,185.196,1.0
8.2166,128.182191,37.94524,6603.379528800001,37.325,-20.633,185.612,1.0
8.2333,128.182187,37.945193,6601.3346255999995,36.808,-20.109,186.03,1.0
8.25,128.182183,37.945147,6599.292770400001,36.351,-19.584,186.434,1.0
8.2666,128.18218,37.945101,6597.254268000001,35.947,-19.079,186.812,1.0
8.2833,128.182176,37.945054,6595.220337600001,35.586,-18.612,187.149,1.0
8.3,128.182172,37.945008,6593.190979200001,35.261,-18.196,187.44,1.0
8.3166,128.182168,37.944962,6591.167412,34.96,-17.826,187.69,1.0
8.3333,128.182164,37.944915,6589.1499408,34.672,-17.49,187.909,1.0
8.35,128.182159,37.944869,6587.1391752,34.39,-17.181,188.103,1.0
8.3666,128.182155,37.944823,6585.1354200000005,34.105,-16.892,188.279,1.0
8.3833,128.182151,37.944776,6583.1395896,33.812,-16.62,188.439,1.0
8.4,128.182146,37.94473,6581.151684000001,33.506,-16.361,188.587,1.0
8.4166,128.182142,37.944683,6579.1720080000005,33.184,-16.113,188.723,1.0
8.4333,128.182137,37.944637,6577.2008663999995,32.842,-15.876,188.85,1.0
8.45,128.182132,37.94459,6575.2388688,32.478,-15.647,188.968,1.0
8.4666,128.182128,37.944544,6573.2857104,32.09,-15.427,189.078,1.0
8.4833,128.182123,37.944497,6571.3420008,31.677,-15.213,189.181,1.0
8.5,128.182118,37.944451,6569.4080448,31.237,-15.005,189.278,1.0
8.5166,128.182112,37.944404,6567.483842400001,30.771,-14.802,189.368,1.0
8.5333,128.182107,37.944358,6565.5690888,30.28,-14.605,189.453,1.0
8.55,128.182102,37.944311,6563.6646984,29.765,-14.412,189.534,1.0
8.5666,128.182096,37.944264,6561.7706712,29.225,-14.222,189.609,1.0
8.5833,128.182091,37.944218,6559.886397600001,28.665,-14.036,189.68,1.0
8.6,128.182085,37.944171,6558.012792,28.084,-13.853,189.747,1.0
8.6166,128.182079,37.944124,6556.149549600001,27.487,-13.673,189.81,1.0
8.6333,128.182074,37.944077,6554.296365600001,26.993,-13.516,189.882,1.0
8.65,128.182068,37.944031,6552.4529352,26.599,-13.384,189.962,1.0
8.6666,128.182062,37.943984,6550.6183439999995,26.315,-13.268,190.046,1.0
8.6833,128.182056,37.943937,6548.792592000001,26.147,-13.163,190.129,1.0
8.7,128.18205,37.94389,6546.975374400001,26.097,-13.062,190.209,1.0
8.7166,128.182043,37.943843,6545.1663864,26.163,-12.964,190.286,1.0
8.7333,128.182037,37.943796,6543.365018400001,26.339,-12.868,190.361,1.0
8.75,128.182031,37.943749,6541.571270400001,26.622,-12.771,190.434,1.0
8.7666,128.182024,37.943703,6539.7845328,27.005,-12.675,190.508,1.0
8.7833,128.182018,37.943656,6538.0048056000005,27.484,-12.579,190.582,1.0
8.8,128.182011,37.943609,6536.231479200001,28.049,-12.481,190.657,1.0
8.8166,128.182005,37.943562,6534.466382400001,28.68,-12.383,190.733,1.0
8.8333,128.181998,37.943515,6532.7089056,29.361,-12.282,190.81,1.0
8.85,128.181991,37.943468,6530.9599632,30.077,-12.178,190.888,1.0
8.8666,128.181984,37.94342,6529.21986,30.815,-12.072,190.968,1.0
8.8833,128.181977,37.943373,6527.4882912,31.562,-11.961,191.051,1.0
8.9,128.18197,37.943326,6525.7661712,32.31,-11.848,191.138,1.0
8.9166,128.181963,37.943279,6524.0531952,33.049,-11.731,191.228,1.0
8.9333,128.181956,37.943232,6522.3493632,33.773,-11.613,191.322,1.0
8.95,128.181949,37.943185,6520.65498,34.479,-11.496,191.418,1.0
8.9666,128.181941,37.943138,6518.9700456,35.162,-11.379,191.515,1.0
8.9833,128.181933,37.943091,6517.29456,35.728,-11.255,191.6,1.0
9.0,128.181926,37.943044,6515.628828000001,36.181,-11.124,191.67,1.0
9.0166,128.181918,37.942996,6513.9734592,36.518,-10.992,191.73,1.0
9.0333,128.18191,37.942949,6512.3287584,36.733,-10.863,191.782,1.0
9.05,128.181902,37.942902,6510.6950304,36.826,-10.739,191.831,1.0
9.0666,128.181894,37.942855,6509.0722752,36.798,-10.621,191.877,1.0
9.0833,128.181885,37.942807,6507.4614071999995,36.653,-10.508,191.923,1.0
9.1,128.181877,37.94276,6505.8621216,36.396,-10.398,191.968,1.0
9.1166,128.181868,37.942713,6504.275028000001,36.033,-10.29,192.012,1.0
9.1333,128.18186,37.942666,6502.6998216,35.569,-10.183,192.057,1.0
9.15,128.181851,37.942618,6501.1368072,35.008,-10.075,192.101,1.0
9.1666,128.181842,37.942571,6499.58568,34.353,-9.966,192.146,1.0
9.1833,128.181833,37.942524,6498.0467448,33.609,-9.854,192.191,1.0
9.2,128.181824,37.942476,6496.520001600001,32.78,-9.739,192.236,1.0
9.2166,128.181814,37.942429,6495.0054504,31.867,-9.619,192.281,1.0
9.2333,128.181805,37.942382,6493.503396,30.875,-9.495,192.326,1.0
9.25,128.181796,37.942334,6492.0141432,29.806,-9.366,192.371,1.0
9.2666,128.181786,37.942287,6490.537387200001,28.663,-9.231,192.416,1.0
9.2833,128.181776,37.94224,6489.073432800001,27.448,-9.089,192.46,1.0
9.3,128.181766,37.942192,6487.6225848,26.164,-8.94,192.504,1.0
9.3166,128.181756,37.942145,6486.184233600001,25.01,-8.808,192.565,1.0
9.3333,128.181746,37.942097,6484.757769600001,23.983,-8.71,192.635,1.0
9.35,128.181736,37.94205,6483.341668800001,23.096,-8.657,192.698,1.0
9.3666,128.181726,37.942002,6481.935931200001,22.359,-8.66,192.74,1.0
9.3833,128.181716,37.941955,6480.5390328,21.775,-8.732,192.751,1.0
9.4,128.181706,37.941907,6479.1500592,21.341,-8.887,192.725,1.0
9.4166,128.181695,37.94186,6477.7687056,21.051,-9.108,192.669,1.0
9.4333,128.181685,37.941812,6476.3940575999995,20.897,-9.375,192.594,1.0
9.45,128.181675,37.941765,6475.025200800001,20.872,-9.668,192.507,1.0
9.4666,128.181664,37.941717,6473.6615256,20.969,-9.966,192.417,1.0
9.4833,128.181654,37.94167,6472.3024224,21.181,-10.25,192.332,1.0
9.5,128.181643,37.941622,6470.9469768,21.504,-10.507,192.257,1.0
9.5166,128.181632,37.941574,6469.5939696000005,21.934,-10.738,192.193,1.0
9.5333,128.181622,37.941527,6468.243400800001,22.468,-10.947,192.135,1.0
9.55,128.181611,37.941479,6466.893746400001,23.102,-11.139,192.084,1.0
9.5666,128.181601,37.941431,6465.544701600001,23.834,-11.319,192.036,1.0
9.5833,128.18159,37.941384,6464.1956568000005,24.66,-11.488,191.99,1.0
9.6,128.181579,37.941336,6462.8460024,25.577,-11.647,191.947,1.0
9.6166,128.181568,37.941288,6461.495738400001,26.583,-11.799,191.904,1.0
9.6333,128.181558,37.94124,6460.1448648000005,27.673,-11.943,191.863,1.0
9.65,128.181547,37.941193,6458.792772,28.846,-12.08,191.823,1.0
9.6666,128.181536,37.941145,6457.4397648,30.098,-12.211,191.784,1.0
9.6833,128.181525,37.941097,6456.085233600001,31.427,-12.335,191.745,1.0
9.7,128.181514,37.941049,6454.729178400001,32.829,-12.455,191.706,1.0
9.7166,128.181503,37.941001,6453.3712944,34.304,-12.569,191.667,1.0
9.7333,128.181492,37.940954,6452.011581600001,35.847,-12.678,191.629,1.0
9.75,128.181482,37.940906,6450.65004,37.457,-12.783,191.59,1.0
9.7666,128.181471,37.940858,6449.2863648,39.131,-12.883,191.551,1.0
9.7833,128.18146,37.94081,6447.920556000001,40.867,-12.98,191.512,1.0
9.8,128.181449,37.940762,6446.5523088,42.664,-13.072,191.473,1.0
9.8166,128.181438,37.940714,6445.1816232,44.519,-13.161,191.433,1.0
9.8333,128.181427,37.940666,6443.8084992,46.429,-13.246,191.393,1.0
9.85,128.181416,37.940618,6442.432632,48.394,-13.328,191.353,1.0
9.8666,128.181405,37.94057,6441.0543264,50.412,-13.406,191.312,1.0
9.8833,128.181394,37.940522,6439.6729728,52.48,-13.481,191.272,1.0
9.9,128.181383,37.940474,6438.288876,54.596,-13.554,191.23,1.0
9.9166,128.181372,37.940426,6436.902036,56.76,-13.623,191.189,1.0
9.9333,128.181361,37.940378,6435.512148,58.969,-13.689,191.147,1.0
9.95,128.18135,37.94033,6434.1195168,61.223,-13.753,191.105,1.0
9.9666,128.181339,37.940282,6432.7238376000005,63.518,-13.812,191.065,1.0
9.9833,128.181328,37.940234,6431.325110400001,65.852,-13.864,191.035,1.0
10.0,128.181317,37.940186,6429.92364,68.222,-13.909,191.017,1.0
10.0166,128.181306,37.940138,6428.5191216,70.627,-13.946,191.015,1.0
10.0333,128.181294,37.94009,6427.111860000001,73.063,-13.976,191.031,1.0
10.05,128.181283,37.940041,6425.701855200001,75.53,-13.999,191.067,1.0
10.0666,128.181272,37.939993,6424.2891072,78.025,-14.018,191.122,1.0
10.0833,128.181261,37.939945,6422.873311200001,80.546,-14.035,191.197,1.0
10.1,128.18125,37.939897,6421.4550768,83.091,-14.05,191.293,1.0
10.1166,128.181239,37.939849,6420.0340992,85.659,-14.066,191.411,1.0
10.1333,128.181228,37.9398,6418.610378400001,88.236,-14.085,191.549,1.0
10.15,128.181217,37.939752,6417.1842192,90.801,-14.106,191.71,1.0
10.1666,128.181205,37.939704,6415.755012,93.333,-14.13,191.891,1.0
10.1833,128.181194,37.939656,6414.3230616,95.815,-14.16,192.095,1.0
10.2,128.181183,37.939608,6412.8880632,98.228,-14.197,192.319,1.0
10.2166,128.181171,37.939559,6411.449712,100.556,-14.243,192.564,1.0
10.2333,128.18116,37.939511,6410.0077032,102.787,-14.301,192.828,1.0
10.25,128.181148,37.939463,6408.561732,104.909,-14.371,193.111,1.0
10.2666,128.181137,37.939415,6407.111493599999,106.916,-14.455,193.41,1.0
10.2833,128.181125,37.939366,6405.656683200001,108.802,-14.554,193.724,1.0
10.3,128.181113,37.939318,6404.1963864,110.564,-14.668,194.051,1.0
10.3166,128.181101,37.93927,6402.7306032,112.202,-14.798,194.389,1.0
10.3333,128.181089,37.939222,6401.2584192,113.718,-14.943,194.736,1.0
10.35,128.181077,37.939174,6399.7801392,115.115,-15.103,195.088,1.0
10.3666,128.181064,37.939126,6398.2948488,116.398,-15.276,195.445,1.0
10.3833,128.181052,37.939078,6396.801938400001,117.573,-15.462,195.805,1.0
10.4,128.181039,37.93903,6395.3017128,118.646,-15.66,196.165,1.0
10.4166,128.181026,37.938982,6393.7935624,119.627,-15.867,196.519,1.0
10.4333,128.181014,37.938934,6392.2768776,120.522,-16.077,196.862,1.0
10.45,128.181001,37.938886,6390.7516584,121.342,-16.289,197.19,1.0
10.4666,128.180988,37.938838,6389.2176,122.094,-16.501,197.503,1.0
10.4833,128.180974,37.93879,6387.674397600001,122.784,-16.712,197.799,1.0
10.5,128.180961,37.938742,6386.1217464,123.419,-16.922,198.081,1.0
10.5166,128.180948,37.938695,6384.559646400001,124.005,-17.13,198.349,1.0
10.5333,128.180934,37.938647,6382.987488000001,124.549,-17.336,198.604,1.0
10.55,128.18092,37.938599,6381.405576,125.055,-17.54,198.847,1.0
10.5666,128.180907,37.938552,6379.8133008,125.527,-17.741,199.079,1.0
10.5833,128.180893,37.938504,6378.2106624,125.969,-17.941,199.302,1.0
10.6,128.180879,37.938456,6376.598270400001,126.477,-18.144,199.511,1.0
10.6166,128.180864,37.938409,6374.975820000001,127.045,-18.35,199.707,1.0
10.6333,128.18085,37.938361,6373.343311200001,127.663,-18.557,199.893,1.0
10.65,128.180836,37.938314,6371.700744,128.318,-18.761,200.072,1.0
10.6666,128.180821,37.938267,6370.047204,128.996,-18.961,200.246,1.0
10.6833,128.180806,37.938219,6368.3823864000005,129.685,-19.158,200.415,1.0
10.7,128.180792,37.938172,6366.7062912,130.373,-19.352,200.58,1.0
10.7166,128.180777,37.938125,6365.0186136,131.049,-19.544,200.74,1.0
10.7333,128.180762,37.938077,6363.318744,131.706,-19.734,200.896,1.0
10.75,128.180747,37.93803,6361.606987200001,132.337,-19.923,201.048,1.0
10.7666,128.180731,37.937983,6359.883038400001,132.94,-20.112,201.196,1.0
10.7833,128.180716,37.937936,6358.146288000001,133.511,-20.301,201.339,1.0
10.8,128.1807,37.937889,6356.3970408000005,134.051,-20.49,201.48,1.0
10.8166,128.180685,37.937842,6354.635296800001,134.559,-20.679,201.616,1.0
10.8333,128.180669,37.937795,6352.860446400001,135.036,-20.869,201.75,1.0
10.85,128.180653,37.937749,6351.0727944,135.483,-21.059,201.881,1.0
10.8666,128.180637,37.937702,6349.272036,135.903,-21.25,202.009,1.0
10.8833,128.180621,37.937655,6347.4581712,136.299,-21.44,202.135,1.0
10.9,128.180605,37.937609,6345.6308952,136.673,-21.629,202.261,1.0
10.9166,128.180589,37.937562,6343.7905128,137.027,-21.817,202.385,1.0
10.9333,128.180572,37.937516,6341.937024000001,137.359,-22.006,202.507,1.0
10.95,128.180556,37.937469,6340.069819200001,137.673,-22.194,202.628,1.0
10.9666,128.180539,37.937423,6338.1892032,137.969,-22.382,202.746,1.0
10.9833,128.180522,37.937377,6336.2954808,138.249,-22.571,202.863,1.0
11.0,128.180506,37.93733,6334.387737600001,138.515,-22.759,202.978,1.0
11.0166,128.180489,37.937284,6332.466888000001,138.767,-22.947,203.091,1.0
11.0333,128.180472,37.937238,6330.5320176000005,139.008,-23.135,203.203,1.0
11.05,128.180454,37.937192,6328.5837360000005,139.238,-23.323,203.313,1.0
11.0666,128.180437,37.937146,6326.621738400001,139.459,-23.51,203.422,1.0
11.0833,128.18042,37.9371,6324.646024800001,139.671,-23.698,203.53,1.0
11.1,128.180402,37.937054,6322.6562904,139.875,-23.885,203.637,1.0
11.1166,128.180385,37.937009,6320.6531448000005,140.072,-24.071,203.742,1.0
11.1333,128.180367,37.936963,6318.635978400001,140.262,-24.258,203.846,1.0
11.15,128.180349,37.936917,6316.6047912,140.446,-24.444,203.95,1.0
11.1666,128.180331,37.936872,6314.559888000001,140.625,-24.629,204.052,1.0
11.1833,128.180314,37.936826,6312.500964000001,140.799,-24.815,204.154,1.0
11.2,128.180296,37.936781,6310.428019200001,140.968,-25.0,204.255,1.0
11.2166,128.180277,37.936735,6308.3410536,141.132,-25.184,204.355,1.0
11.2333,128.180259,37.93669,6306.2400672,141.293,-25.369,204.455,1.0
11.25,128.180241,37.936645,6304.12506,141.449,-25.553,204.554,1.0
11.2666,128.180222,37.9366,6301.996032,141.602,-25.737,204.652,1.0
11.2833,128.180204,37.936555,6299.8526784000005,141.751,-25.92,204.75,1.0
11.3,128.180185,37.93651,6297.695304,141.896,-26.104,204.847,1.0
11.3166,128.180167,37.936465,6295.5239088,142.039,-26.287,204.944,1.0
11.3333,128.180148,37.93642,6293.338188000001,142.178,-26.469,205.041,1.0
11.35,128.180129,37.936375,6291.1381416,142.315,-26.652,205.137,1.0
11.3666,128.18011,37.936331,6288.924074400001,142.448,-26.834,205.232,1.0
11.3833,128.180091,37.936286,6286.6956816,142.579,-27.017,205.328,1.0
11.4,128.180072,37.936241,6284.4529632,142.707,-27.198,205.423,1.0
11.4166,128.180053,37.936197,6282.1959192,142.833,-27.38,205.517,1.0
11.4333,128.180033,37.936153,6279.9248544,142.956,-27.562,205.612,1.0
11.45,128.180014,37.936108,6277.6391592,143.076,-27.743,205.706,1.0
11.4666,128.179994,37.936064,6275.3394432,143.194,-27.924,205.8,1.0
11.4833,128.179975,37.93602,6273.025096800001,143.31,-28.105,205.894,1.0
11.5,128.179955,37.935976,6270.696729599999,143.424,-28.286,205.987,1.0
11.5166,128.179935,37.935932,6268.3537320000005,143.535,-28.467,206.081,1.0
11.5333,128.179916,37.935888,6265.996408800001,143.644,-28.648,206.174,1.0
11.55,128.179896,37.935844,6263.624760000001,143.751,-28.828,206.267,1.0
11.5666,128.179876,37.9358,6261.2384808,143.856,-29.008,206.36,1.0
11.5833,128.179856,37.935757,6258.8381808,143.958,-29.188,206.453,1.0
11.6,128.179836,37.935713,6256.4232504,144.059,-29.368,206.546,1.0
11.6166,128.179815,37.935669,6253.9936896,144.158,-29.548,206.639,1.0
11.6333,128.179795,37.935626,6251.550108,144.255,-29.728,206.732,1.0
11.65,128.179775,37.935583,6249.0915912,144.349,-29.908,206.825,1.0
11.6666,128.179754,37.935539,6246.6190536,144.442,-30.087,206.917,1.0
11.6833,128.179734,37.935496,6244.1318856,144.533,-30.267,207.01,1.0
11.7,128.179713,37.935453,6241.6300872,144.622,-30.446,207.103,1.0
11.7166,128.179693,37.93541,6239.1139632,144.71,-30.625,207.195,1.0
11.7333,128.179672,37.935367,6236.5835136000005,144.795,-30.804,207.288,1.0
11.75,128.179651,37.935324,6234.038433600001,144.879,-30.984,207.381,1.0
11.7666,128.17963,37.935281,6231.478723200001,144.961,-31.162,207.473,1.0
11.7833,128.179609,37.935239,6228.904687200001,145.041,-31.341,207.566,1.0
11.8,128.179588,37.935196,6226.3163256,145.12,-31.52,207.659,1.0
11.8166,128.179567,37.935154,6223.713333600001,145.197,-31.699,207.752,1.0
11.8333,128.179546,37.935111,6221.095711200001,145.272,-31.877,207.845,1.0
11.85,128.179525,37.935069,6218.4637632,145.345,-32.055,207.938,1.0
11.8666,128.179503,37.935027,6215.8171848,145.417,-32.234,208.031,1.0
11.8833,128.179482,37.934984,6213.155976,145.488,-32.412,208.124,1.0
11.9,128.17946,37.934942,6210.480441600001,145.556,-32.59,208.218,1.0
11.9166,128.179439,37.9349,6207.7905816,145.623,-32.768,208.311,1.0
11.9333,128.179417,37.934858,6205.0857864,145.689,-32.946,208.405,1.0
11.95,128.179396,37.934817,6202.366970400001,145.753,-33.124,208.498,1.0
11.9666,128.179374,37.934775,6199.633219200001,145.815,-33.302,208.592,1.0
11.9833,128.179352,37.934733,6196.8851424,145.876,-33.479,208.686,1.0
12.0,128.17933,37.934692,6194.12274,145.935,-33.657,208.78,1.0
12.0166,128.179308,37.93465,6191.3457072,145.993,-33.834,208.875,1.0
12.0333,128.179286,37.934609,6188.5543488,146.049,-34.012,208.969,1.0
12.05,128.179264,37.934568,6185.748055200001,146.104,-34.189,209.064,1.0
12.0666,128.179242,37.934526,6182.927740800001,146.157,-34.366,209.159,1.0
12.0833,128.17922,37.934485,6180.092796000001,146.209,-34.544,209.254,1.0
12.1,128.179198,37.934444,6177.2432208,146.26,-34.721,209.349,1.0
12.1166,128.179176,37.934403,6174.379320000001,146.309,-34.898,209.444,1.0
12.1333,128.179153,37.934363,6171.5010936,146.357,-35.074,209.54,1.0
12.15,128.179131,37.934322,6168.608236800001,146.403,-35.251,209.636,1.0
12.1666,128.179108,37.934281,6165.7010544,146.448,-35.428,209.732,1.0
12.1833,128.179086,37.934241,6162.7792416,146.491,-35.605,209.828,1.0
12.2,128.179063,37.9342,6159.8431032,146.533,-35.781,209.925,1.0
12.2166,128.179041,37.93416,6156.8923343999995,146.574,-35.958,210.021,1.0
12.2333,128.179018,37.93412,6153.9275448,146.613,-36.134,210.118,1.0
12.25,128.178995,37.934079,6150.94782,146.651,-36.31,210.216,1.0
12.2666,128.178972,37.934039,6147.9540744000005,146.688,-36.486,210.313,1.0
12.2833,128.17895,37.933999,6144.9456984,146.723,-36.663,210.411,1.0
12.3,128.178927,37.93396,6141.923301600001,146.757,-36.839,210.509,1.0
12.3166,128.178904,37.93392,6138.886274400001,146.79,-37.015,210.608,1.0
12.3333,128.178881,37.93388,6135.8346168,146.821,-37.19,210.706,1.0
12.35,128.178858,37.933841,6132.7689384000005,146.851,-37.366,210.805,1.0
12.3666,128.178835,37.933801,6129.6889344,146.88,-37.542,210.904,1.0
12.3833,128.178811,37.933762,6126.594300000001,146.907,-37.717,211.004,1.0
12.4,128.178788,37.933723,6123.4856448,146.933,-37.893,211.104,1.0
12.4166,128.178765,37.933683,6120.3623592,146.958,-38.068,211.204,1.0
12.4333,128.178742,37.933644,6117.2250527999995,146.982,-38.244,211.305,1.0
12.45,128.178718,37.933605,6114.073116,147.004,-38.419,211.406,1.0
12.4666,128.178695,37.933567,6110.9071584,147.025,-38.594,211.507,1.0
12.4833,128.178671,37.933528,6107.7268752,147.045,-38.769,211.608,1.0
12.5,128.178648,37.933489,6104.5322664,147.063,-38.944,211.71,1.0
12.5166,128.178624,37.933451,6101.323332,147.081,-39.119,211.813,1.0
12.5333,128.178601,37.933412,6098.1003768,147.097,-39.294,211.915,1.0
12.55,128.178577,37.933374,6094.863096,147.112,-39.469,212.018,1.0
12.5666,128.178553,37.933336,6091.6114896,147.125,-39.644,212.122,1.0
12.5833,128.178529,37.933297,6088.3458624,147.138,-39.818,212.226,1.0
12.6,128.178506,37.933259,6085.065909600001,147.149,-39.993,212.33,1.0
12.6166,128.178482,37.933222,6081.771936,147.159,-40.167,212.435,1.0
12.6333,128.178458,37.933184,6078.4636368,147.168,-40.342,212.54,1.0
12.65,128.178434,37.933146,6075.1413168,147.175,-40.516,212.645,1.0
12.6666,128.17841,37.933108,6071.8046712,147.181,-40.69,212.751,1.0
12.6833,128.178386,37.933071,6068.454004800001,147.187,-40.864,212.857,1.0
12.7,128.178362,37.933033,6065.0893176,147.19,-41.038,212.964,1.0
12.7166,128.178338,37.932996,6061.710609600001,147.193,-41.212,213.071,1.0
12.7333,128.178314,37.932959,6058.3178808,147.195,-41.386,213.179,1.0
12.75,128.17829,37.932922,6054.9108264,147.195,-41.56,213.287,1.0
12.7666,128.178265,37.932885,6051.489751200001,147.194,-41.733,213.396,1.0
12.7833,128.178241,37.932848,6048.05496,147.192,-41.907,213.505,1.0
12.8,128.178217,37.932811,6044.6058432,147.189,-42.08,213.614,1.0
12.8166,128.178192,37.932775,6041.143010400001,147.185,-42.254,213.724,1.0
12.8333,128.178168,37.932738,6037.666156800001,147.179,-42.427,213.835,1.0
12.85,128.178144,37.932702,6034.1752824000005,147.172,-42.6,213.946,1.0
12.8666,128.178119,37.932666,6030.670387200001,147.164,-42.773,214.057,1.0
12.8833,128.178095,37.932629,6027.151776,147.155,-42.946,214.169,1.0
12.9,128.17807,37.932593,6023.619144,147.145,-43.119,214.282,1.0
12.9166,128.178046,37.932557,6020.072796,147.134,-43.292,214.395,1.0
12.9333,128.178021,37.932521,6016.5124272,147.121,-43.465,214.509,1.0
12.95,128.177996,37.932486,6012.938342400001,147.107,-43.637,214.623,1.0
12.9666,128.177972,37.93245,6009.350541600001,147.092,-43.81,214.738,1.0
12.9833,128.177947,37.932415,6005.7487200000005,147.076,-43.982,214.853,1.0
13.0,128.177922,37.932379,6002.133182400001,147.059,-44.155,214.969,1.0
13.0166,128.177898,37.932344,5998.503928800001,147.04,-44.327,215.085,1.0
13.0333,128.177873,37.932309,5994.8609592,147.021,-44.499,215.203,1.0
13.0499,128.177848,37.932274,5991.2042736,147.0,-44.671,215.32,1.0
13.0666,128.177823,37.932239,5987.533872,146.978,-44.843,215.438,1.0
13.0833,128.177798,37.932204,5983.8497544,146.954,-45.015,215.557,1.0
13.1,128.177773,37.932169,5980.1522256,146.93,-45.187,215.677,1.0
13.1166,128.177748,37.932135,5976.440676,146.904,-45.359,215.797,1.0
13.1333,128.177723,37.9321,5972.716020000001,146.878,-45.53,215.918,1.0
13.15,128.177698,37.932066,5968.9773432,146.85,-45.702,216.039,1.0
13.1666,128.177673,37.932031,5965.225255200001,146.821,-45.873,216.161,1.0
13.1833,128.177648,37.931997,5961.459756000001,146.79,-46.044,216.284,1.0
13.2,128.177623,37.931963,5957.6805408,146.759,-46.216,216.408,1.0
13.2166,128.177598,37.931929,5953.8879144,146.726,-46.387,216.532,1.0
13.2333,128.177573,37.931896,5950.0818768,146.692,-46.558,216.656,1.0
13.25,128.177548,37.931862,5946.262428000001,146.657,-46.729,216.782,1.0
13.2666,128.177523,37.931829,5942.429263200001,146.621,-46.899,216.908,1.0
13.2833,128.177497,37.931795,5938.582992000001,146.583,-47.07,217.035,1.0
13.3,128.177472,37.931762,5934.7233096,146.545,-47.241,217.163,1.0
13.3166,128.177447,37.931729,5930.850216,146.505,-47.411,217.291,1.0
13.3333,128.177422,37.931696,5926.964016,146.464,-47.581,217.42,1.0
13.35,128.177396,37.931663,5923.0644048,146.421,-47.752,217.55,1.0
13.3666,128.177371,37.93163,5919.1513824,146.378,-47.922,217.681,1.0
13.3833,128.177346,37.931597,5915.2252536,146.333,-48.092,217.813,1.0
13.4,128.17732,37.931565,5911.2857136,146.287,-48.261,217.945,1.0
13.4166,128.177295,37.931532,5907.3330672,146.24,-48.431,218.078,1.0
13.4333,128.177269,37.9315,5903.3673144,146.191,-48.601,218.212,1.0
13.45,128.177244,37.931468,5899.388455200001,146.142,-48.77,218.347,1.0
13.4666,128.177219,37.931436,5895.3964896,146.091,-48.94,218.482,1.0
13.4833,128.177193,37.931404,5891.3914176,146.038,-49.109,218.619,1.0
13.5,128.177168,37.931372,5887.3732392,145.985,-49.278,218.756,1.0
13.5166,128.177142,37.93134,5883.3419544,145.93,-49.447,218.894,1.0
13.5333,128.177116,37.931309,5879.297868000001,145.874,-49.616,219.033,1.0
13.55,128.177091,37.931277,5875.2406752,145.817,-49.785,219.173,1.0
13.5666,128.177065,37.931246,5871.1706808,145.758,-49.954,219.314,1.0
13.5833,128.17704,37.931215,5867.087579999999,145.698,-50.122,219.455,1.0
13.6,128.177014,37.931184,5862.9916776,145.637,-50.29,219.598,1.0
13.6166,128.176989,37.931153,5858.882668800001,145.574,-50.459,219.742,1.0
13.6333,128.176963,37.931122,5854.7611632,145.51,-50.627,219.886,1.0
13.65,128.176937,37.931091,5850.626551200001,145.445,-50.795,220.032,1.0
13.6666,128.176912,37.931061,5846.479442400001,145.379,-50.963,220.178,1.0
13.6833,128.176886,37.93103,5842.319532,145.311,-51.13,220.326,1.0
13.7,128.17686,37.931,5838.146820000001,145.242,-51.298,220.474,1.0
13.7166,128.176835,37.93097,5833.9613064000005,145.171,-51.465,220.624,1.0
13.7333,128.176809,37.93094,5829.763296,145.099,-51.633,220.774,1.0
13.75,128.176783,37.93091,5825.5527888,145.026,-51.8,220.926,1.0
13.7666,128.176757,37.93088,5821.329479999999,144.951,-51.967,221.078,1.0
13.7833,128.176732,37.930851,5817.093674400001,144.875,-52.134,221.232,1.0
13.8,128.176706,37.930821,5812.845372,144.798,-52.3,221.387,1.0
13.8166,128.17668,37.930792,5808.5842680000005,144.719,-52.467,221.543,1.0
13.8333,128.176654,37.930763,5804.310972,144.639,-52.633,221.7,1.0
13.85,128.176628,37.930734,5800.025179200001,144.557,-52.799,221.858,1.0
13.8666,128.176603,37.930705,5795.7268896,144.474,-52.965,222.017,1.0
13.8833,128.176577,37.930676,5791.416408,144.39,-53.131,222.177,1.0
13.9,128.176551,37.930647,5787.0934296,144.304,-53.297,222.339,1.0
13.9166,128.176525,37.930619,5782.7582592,144.216,-53.462,222.502,1.0
13.9333,128.176499,37.93059,5778.410896800001,144.127,-53.627,222.665,1.0
13.95,128.176474,37.930562,5774.0510376,144.037,-53.792,222.83,1.0
13.9666,128.176448,37.930534,5769.6789864,143.945,-53.957,222.997,1.0
13.9833,128.176422,37.930506,5765.2947432,143.852,-54.122,223.164,1.0
14.0,128.176396,37.930478,5760.8986128,143.757,-54.286,223.333,1.0
14.0166,128.17637,37.93045,5756.4899856,143.66,-54.45,223.503,1.0
14.0333,128.176344,37.930423,5752.0694711999995,143.562,-54.615,223.674,1.0
14.05,128.176318,37.930395,5747.6370696,143.463,-54.778,223.847,1.0
14.0666,128.176292,37.930368,5743.192476,143.362,-54.942,224.021,1.0
14.0833,128.176267,37.930341,5738.7356904,143.259,-55.106,224.196,1.0
14.1,128.176241,37.930313,5734.2673224,143.155,-55.269,224.373,1.0
14.1166,128.176215,37.930287,5729.7867624,143.049,-55.432,224.551,1.0
14.1333,128.176189,37.93026,5725.294620000001,142.941,-55.595,224.73,1.0
14.15,128.176163,37.930233,5720.7902856,142.832,-55.757,224.911,1.0
14.1666,128.176137,37.930207,5716.2743688,142.721,-55.92,225.093,1.0
14.1833,128.176111,37.93018,5711.7468696000005,142.609,-56.082,225.277,1.0
14.2,128.176085,37.930154,5707.207178400001,142.494,-56.244,225.462,1.0
14.2166,128.176059,37.930128,5702.656209600001,142.378,-56.406,225.649,1.0
14.2333,128.176034,37.930102,5698.0933536,142.261,-56.567,225.837,1.0
14.25,128.176008,37.930076,5693.5189152,142.141,-56.728,226.027,1.0
14.2666,128.175982,37.930051,5688.9328944,142.02,-56.889,226.219,1.0
14.2833,128.175956,37.930025,5684.3352912,141.897,-57.05,226.411,1.0
14.3,128.17593,37.93,5679.726105600001,141.772,-57.211,226.606,1.0
14.3166,128.175904,37.929975,5675.105642400001,141.645,-57.371,226.802,1.0
14.3333,128.175878,37.929949,5670.4735968,141.517,-57.531,227.0,1.0
14.35,128.175852,37.929925,5665.8302736000005,141.387,-57.691,227.2,1.0
14.3666,128.175826,37.9299,5661.175368,141.254,-57.85,227.401,1.0
