Time,Longitude,Latitude,Altitude,Roll (deg),Pitch (deg),Yaw (deg),Health
0.0,128.176889,37.927022,8220.664788,0.0,-3.003,131.0,1.0
0.0166,128.176932,37.926993,8220.3895536,0.0,-3.011,131.0,1.0
0.0333,128.176975,37.926963,8220.1140144,-0.075,-3.022,130.99,1.0
0.05,128.177018,37.926934,8219.8381704,-0.223,-3.036,130.971,1.0
0.0666,128.177061,37.926905,8219.5623264,-0.446,-3.053,130.946,1.0
0.0833,128.177104,37.926875,8219.287092,-0.746,-3.07,130.917,1.0
0.1,128.177147,37.926846,8219.0121624,-1.122,-3.088,130.886,1.0
0.1166,128.17719,37.926816,8218.738452000001,-1.574,-3.106,130.854,1.0
0.1333,128.177233,37.926787,8218.465656,-2.101,-3.124,130.822,1.0
0.15,128.177275,37.926757,8218.194384,-2.699,-3.142,130.79,1.0
0.1666,128.177318,37.926728,8217.924636,-3.368,-3.159,130.758,1.0
0.1833,128.177361,37.926698,8217.6561072,-4.104,-3.176,130.728,1.0
0.2,128.177404,37.926669,8217.3887976,-4.906,-3.192,130.698,1.0
0.2166,128.177447,37.926639,8217.123012,-5.77,-3.208,130.669,1.0
0.2333,128.17749,37.92661,8216.8584456,-6.695,-3.224,130.641,1.0
0.25,128.177533,37.92658,8216.5950984,-7.679,-3.239,130.613,1.0
0.2666,128.177577,37.926551,8216.3329704,-8.718,-3.253,130.587,1.0
0.2833,128.17762,37.926521,8216.071756800002,-9.812,-3.267,130.561,1.0
0.3,128.177663,37.926492,8215.8120672,-10.958,-3.281,130.537,1.0
0.3166,128.177706,37.926462,8215.553292,-12.153,-3.294,130.513,1.0
0.3333,128.177749,37.926433,8215.2954312,-13.397,-3.308,130.489,1.0
0.35,128.177792,37.926404,8215.0387896,-14.687,-3.321,130.467,1.0
0.3666,128.177835,37.926374,8214.7830624,-16.021,-3.334,130.446,1.0
0.3833,128.177878,37.926345,8214.5285544,-17.398,-3.347,130.425,1.0
0.4,128.177921,37.926315,8214.274656000001,-18.816,-3.36,130.405,1.0
0.4166,128.177964,37.926286,8214.0219768,-20.273,-3.373,130.386,1.0
0.4333,128.178007,37.926256,8213.7699072,-21.769,-3.386,130.368,1.0
0.45,128.178051,37.926227,8213.518752000002,-23.3,-3.399,130.35,1.0
0.4666,128.178094,37.926197,8213.268511200002,-24.866,-3.413,130.333,1.0
0.4833,128.178137,37.926168,8213.01888,-26.466,-3.426,130.317,1.0
0.5,128.17818,37.926139,8212.7698584,-28.098,-3.44,130.302,1.0
0.5166,128.178223,37.926109,8212.5214464,-29.76,-3.454,130.288,1.0
0.5333,128.178267,37.92608,8212.2739488,-31.453,-3.461,130.27,1.0
0.55,128.17831,37.92605,8212.027060800001,-33.173,-3.462,130.249,1.0
0.5666,128.178353,37.926021,8211.780782400001,-34.92,-3.458,130.225,1.0
0.5833,128.178396,37.925992,8211.534808800001,-36.694,-3.451,130.199,1.0
0.6,128.17844,37.925962,8211.2894448,-38.492,-3.443,130.172,1.0
0.6166,128.178483,37.925933,8211.0446904,-40.315,-3.433,130.144,1.0
0.6333,128.178527,37.925904,8210.800240800001,-42.159,-3.415,130.107,1.0
0.65,128.17857,37.925874,8210.5567056,-44.024,-3.38,130.055,1.0
0.6666,128.178613,37.925845,8210.3134752,-45.909,-3.334,129.99,1.0
0.6833,128.178657,37.925816,8210.0708544,-47.813,-3.28,129.914,1.0
0.7,128.1787,37.925787,8209.828538400001,-49.734,-3.221,129.831,1.0
0.7166,128.178744,37.925758,8209.586527200001,-51.673,-3.161,129.743,1.0
0.7333,128.178787,37.925728,8209.3454304,-53.627,-3.093,129.639,1.0
0.75,128.178831,37.925699,8209.1046384,-55.595,-3.014,129.514,1.0
0.7666,128.178875,37.92567,8208.864151200001,-57.577,-2.927,129.37,1.0
0.7833,128.178918,37.925641,8208.6239688,-59.573,-2.837,129.212,1.0
0.8,128.178962,37.925612,8208.384396000001,-61.582,-2.748,129.045,1.0
0.8166,128.179006,37.925583,8208.1448232,-63.604,-2.662,128.873,1.0
0.8333,128.17905,37.925554,8207.904945600001,-65.608,-2.576,128.687,1.0
0.85,128.179093,37.925525,8207.665068,-67.592,-2.484,128.477,1.0
0.8666,128.179137,37.925496,8207.4245808,-69.559,-2.391,128.247,1.0
0.8833,128.179181,37.925467,8207.1837888,-71.51,-2.302,128.004,1.0
0.9,128.179225,37.925438,8206.9423872,-73.447,-2.219,127.754,1.0
0.9166,128.179269,37.92541,8206.7006808,-75.373,-2.145,127.5,1.0
0.9333,128.179313,37.925381,8206.457450400001,-77.22,-2.074,127.235,1.0
0.95,128.179357,37.925352,8206.2136104,-78.991,-2.004,126.947,1.0
0.9666,128.179401,37.925323,8205.9682464,-80.694,-1.939,126.642,1.0
0.9833,128.179446,37.925295,8205.7216632,-82.337,-1.882,126.326,1.0
1.0,128.17949,37.925266,8205.473556,-83.927,-1.835,126.006,1.0
1.0166,128.179534,37.925238,8205.22362,-85.473,-1.8,125.687,1.0
1.0333,128.179579,37.925209,8204.971855200001,-86.919,-1.772,125.358,1.0
1.05,128.179623,37.925181,8204.7182616,-88.274,-1.751,125.013,1.0
1.0666,128.179667,37.925152,8204.4625344,-89.547,-1.739,124.657,1.0
1.0833,128.179712,37.925124,8204.204673600001,-90.749,-1.737,124.296,1.0
1.1,128.179757,37.925095,8203.9443744,-91.889,-1.746,123.937,1.0
1.1166,128.179801,37.925067,8203.6816368,-92.976,-1.765,123.583,1.0
1.1333,128.179846,37.925039,8203.416156000001,-93.979,-1.792,123.236,1.0
1.15,128.179891,37.925011,8203.147932,-94.905,-1.827,122.9,1.0
1.1666,128.179936,37.924982,8202.876964800002,-95.764,-1.868,122.575,1.0
1.1833,128.17998,37.924954,8202.6032544,-96.564,-1.916,122.262,1.0
1.2,128.180025,37.924926,8202.3258864,-97.315,-1.97,121.963,1.0
1.2166,128.18007,37.924898,8202.0457752,-98.022,-2.03,121.677,1.0
1.2333,128.180116,37.92487,8201.7620064,-98.709,-2.097,121.403,1.0
1.25,128.180161,37.924843,8201.47458,-99.381,-2.17,121.143,1.0
1.2666,128.180206,37.924815,8201.183496,-100.042,-2.247,120.895,1.0
1.2833,128.180251,37.924787,8200.888449600001,-100.694,-2.328,120.658,1.0
1.3,128.180297,37.924759,8200.589136,-101.34,-2.413,120.431,1.0
1.3166,128.180342,37.924732,8200.28586,-101.981,-2.501,120.215,1.0
1.3333,128.180387,37.924704,8199.9783168,-102.588,-2.59,120.007,1.0
1.35,128.180433,37.924677,8199.6668112,-103.162,-2.679,119.807,1.0
1.3666,128.180479,37.92465,8199.3507336,-103.706,-2.77,119.614,1.0
1.3833,128.180524,37.924622,8199.030084000002,-104.224,-2.862,119.429,1.0
1.4,128.18057,37.924595,8198.7048624,-104.719,-2.955,119.249,1.0
1.4166,128.180616,37.924568,8198.3750688,-105.194,-3.051,119.076,1.0
1.4333,128.180662,37.924541,8198.0407032,-105.634,-3.147,118.908,1.0
1.45,128.180708,37.924514,8197.7017656,-106.043,-3.243,118.745,1.0
1.4666,128.180754,37.924487,8197.3576464,-106.424,-3.34,118.587,1.0
1.4833,128.1808,37.92446,8197.0089552,-106.78,-3.439,118.433,1.0
1.5,128.180846,37.924433,8196.6547776,-107.115,-3.538,118.284,1.0
1.5166,128.180892,37.924407,8196.296028,-107.43,-3.638,118.138,1.0
1.5333,128.180939,37.92438,8195.931792000001,-107.724,-3.739,117.996,1.0
1.55,128.180985,37.924353,8195.5623744,-108.0,-3.84,117.857,1.0
1.5666,128.181031,37.924327,8195.1877752,-108.258,-3.942,117.721,1.0
1.5833,128.181078,37.9243,8194.8079944,-108.503,-4.044,117.588,1.0
1.6,128.181124,37.924274,8194.4224224,-108.734,-4.147,117.458,1.0
1.6166,128.181171,37.924248,8194.0316688,-108.955,-4.25,117.331,1.0
1.6333,128.181218,37.924222,8193.6354288,-109.164,-4.353,117.206,1.0
1.65,128.181264,37.924195,8193.2333976,-109.364,-4.457,117.083,1.0
1.6666,128.181311,37.924169,8192.82588,-109.556,-4.561,116.962,1.0
1.6833,128.181358,37.924143,8192.4125712,-109.74,-4.665,116.842,1.0
1.7,128.181405,37.924117,8191.993776,-109.918,-4.769,116.724,1.0
1.7166,128.181452,37.924092,8191.5688848,-110.09,-4.873,116.608,1.0
1.7333,128.181499,37.924066,8191.1385072,-110.257,-4.977,116.493,1.0
1.75,128.181546,37.92404,8190.7020336000005,-110.419,-5.082,116.379,1.0
1.7666,128.181593,37.924014,8190.2600736,-110.577,-5.186,116.266,1.0
1.7833,128.18164,37.923989,8189.8117128,-110.732,-5.291,116.154,1.0
1.8,128.181688,37.923963,8189.357560800001,-110.884,-5.395,116.042,1.0
1.8166,128.181735,37.923938,8188.897617600001,-111.032,-5.5,115.932,1.0
1.8333,128.181782,37.923913,8188.431273600001,-111.178,-5.604,115.822,1.0
1.85,128.18183,37.923887,8187.9591384000005,-111.321,-5.709,115.712,1.0
1.8666,128.181877,37.923862,8187.4809072,-111.462,-5.814,115.603,1.0
1.8833,128.181925,37.923837,8186.99658,-111.601,-5.918,115.495,1.0
1.9,128.181973,37.923812,8186.505852000001,-111.737,-6.023,115.386,1.0
1.9166,128.18202,37.923787,8186.009028,-111.872,-6.127,115.278,1.0
1.9333,128.182068,37.923762,8185.5061080000005,-112.005,-6.232,115.171,1.0
1.95,128.182116,37.923738,8184.9970920000005,-112.137,-6.337,115.064,1.0
1.9666,128.182164,37.923713,8184.481370400001,-112.267,-6.441,114.956,1.0
1.9833,128.182212,37.923688,8183.9595528,-112.395,-6.546,114.85,1.0
2.0,128.18226,37.923664,8183.4316392,-112.521,-6.651,114.743,1.0
2.0166,128.182308,37.923639,8182.897020000001,-112.647,-6.755,114.636,1.0
2.0333,128.182356,37.923615,8182.3563048000005,-112.771,-6.86,114.53,1.0
2.05,128.182404,37.923591,8181.808884000001,-112.893,-6.965,114.424,1.0
2.0666,128.182452,37.923566,8181.2553672,-113.015,-7.07,114.318,1.0
2.0833,128.1825,37.923542,8180.6951448,-113.135,-7.174,114.212,1.0
2.1,128.182549,37.923518,8180.1282168,-113.254,-7.279,114.106,1.0
2.1166,128.182597,37.923494,8179.5551928,-113.372,-7.384,114.0,1.0
2.1333,128.182645,37.92347,8178.9754632,-113.489,-7.488,113.895,1.0
2.15,128.182694,37.923446,8178.3890280000005,-113.604,-7.593,113.789,1.0
2.1666,128.182742,37.923423,8177.796192000001,-113.719,-7.698,113.684,1.0
2.1833,128.182791,37.923399,8177.1966504,-113.833,-7.803,113.578,1.0
2.2,128.18284,37.923375,8176.5904032,-113.945,-7.908,113.473,1.0
2.2166,128.182888,37.923352,8175.9777552000005,-114.057,-8.012,113.368,1.0
2.2333,128.182937,37.923328,8175.358096800001,-114.168,-8.117,113.263,1.0
2.25,128.182986,37.923305,8174.732037600001,-114.277,-8.222,113.158,1.0
2.2666,128.183035,37.923282,8174.098968,-114.386,-8.327,113.053,1.0
2.2833,128.183084,37.923258,8173.459192800001,-114.494,-8.431,112.948,1.0
2.3,128.183133,37.923235,8172.812712,-114.601,-8.536,112.843,1.0
2.3166,128.183182,37.923212,8172.1592208,-114.708,-8.641,112.739,1.0
2.3333,128.183231,37.923189,8171.499024000001,-114.813,-8.746,112.634,1.0
2.35,128.18328,37.923166,8170.8321216,-114.918,-8.85,112.529,1.0
2.3666,128.183329,37.923144,8170.1582088000005,-115.022,-8.955,112.425,1.0
2.3833,128.183378,37.923121,8169.4772856,-115.126,-9.059,112.32,1.0
2.4,128.183427,37.923098,8168.789656800001,-115.228,-9.164,112.215,1.0
2.4166,128.183477,37.923076,8168.095017600001,-115.33,-9.268,112.111,1.0
2.4333,128.183526,37.923053,8167.393368,-115.431,-9.372,112.006,1.0
2.45,128.183576,37.923031,8166.684708,-115.532,-9.476,111.902,1.0
2.4666,128.183625,37.923008,8165.969037600001,-115.633,-9.579,111.797,1.0
2.4833,128.183674,37.922986,8165.246052000001,-115.733,-9.683,111.692,1.0
2.5,128.183724,37.922964,8164.516360800001,-115.832,-9.786,111.588,1.0
2.5166,128.183774,37.922942,8163.7796592,-115.93,-9.89,111.483,1.0
2.5333,128.183823,37.92292,8163.035642400001,-116.028,-9.993,111.379,1.0
2.55,128.183873,37.922898,8162.284615200001,-116.126,-10.095,111.274,1.0
2.5666,128.183923,37.922876,8161.526272800001,-116.223,-10.198,111.169,1.0
2.5833,128.183972,37.922854,8160.760920000001,-116.32,-10.3,111.064,1.0
2.6,128.184022,37.922832,8159.988556800001,-116.415,-10.403,110.959,1.0
2.6166,128.184072,37.922811,8159.208878400001,-116.51,-10.505,110.855,1.0
2.6333,128.184122,37.922789,8158.4218848,-116.605,-10.607,110.75,1.0
2.65,128.184172,37.922768,8157.6278808,-116.699,-10.709,110.645,1.0
2.6666,128.184222,37.922746,8156.826256800001,-116.792,-10.811,110.54,1.0
2.6833,128.184272,37.922725,8156.017622400001,-116.885,-10.912,110.435,1.0
2.7,128.184322,37.922704,8155.201672800001,-116.977,-11.014,110.33,1.0
2.7166,128.184372,37.922682,8154.3784080000005,-117.069,-11.115,110.225,1.0
2.7333,128.184422,37.922661,8153.547828000001,-117.16,-11.216,110.12,1.0
2.75,128.184473,37.92264,8152.7099328,-117.25,-11.317,110.015,1.0
2.7666,128.184523,37.922619,8151.864722400001,-117.34,-11.418,109.91,1.0
2.7833,128.184573,37.922599,8151.011892,-117.429,-11.519,109.805,1.0
2.8,128.184624,37.922578,8150.152051200001,-117.518,-11.62,109.7,1.0
2.8166,128.184674,37.922557,8149.2845904000005,-117.605,-11.72,109.595,1.0
2.8333,128.184724,37.922537,8148.409814400001,-117.692,-11.821,109.489,1.0
2.85,128.184775,37.922516,8147.527418400001,-117.779,-11.921,109.384,1.0
2.8666,128.184825,37.922496,8146.6377072,-117.865,-12.021,109.279,1.0
2.8833,128.184876,37.922475,8145.740376,-117.951,-12.121,109.174,1.0
2.9,128.184927,37.922455,8144.8357295999995,-118.035,-12.221,109.068,1.0
2.9166,128.184977,37.922435,8143.923463200001,-118.119,-12.321,108.963,1.0
2.9333,128.185028,37.922415,8143.003576800001,-118.202,-12.421,108.858,1.0
2.95,128.185079,37.922395,8142.0763752,-118.285,-12.521,108.753,1.0
2.9666,128.185129,37.922375,8141.1415536,-118.367,-12.621,108.647,1.0
2.9833,128.18518,37.922355,8140.199112,-118.449,-12.72,108.542,1.0
3.0,128.185231,37.922335,8139.2493552000005,-118.53,-12.82,108.436,1.0
3.0166,128.185282,37.922315,8138.291673600001,-118.609,-12.92,108.331,1.0
3.0333,128.185333,37.922296,8137.326372,-118.691,-13.018,108.225,1.0
3.05,128.185384,37.922276,8136.353450400001,-118.773,-13.115,108.119,1.0
3.0666,128.185435,37.922257,8135.3729088,-118.855,-13.212,108.012,1.0
3.0833,128.185486,37.922237,8134.384747200001,-118.937,-13.308,107.904,1.0
3.1,128.185537,37.922218,8133.388965600001,-119.019,-13.403,107.797,1.0
3.1166,128.185588,37.922199,8132.385564,-119.1,-13.498,107.689,1.0
3.1333,128.185639,37.92218,8131.374237600001,-119.181,-13.592,107.581,1.0
3.15,128.18569,37.92216,8130.354986400001,-119.264,-13.684,107.472,1.0
3.1666,128.185741,37.922141,8129.328420000001,-119.347,-13.775,107.362,1.0
3.1833,128.185792,37.922123,8128.293928800001,-119.43,-13.866,107.251,1.0
3.2,128.185844,37.922104,8127.2515128000005,-119.511,-13.956,107.141,1.0
3.2166,128.185895,37.922085,8126.201781600001,-119.591,-14.046,107.031,1.0
3.2333,128.185946,37.922066,8125.1438208,-119.671,-14.136,106.92,1.0
3.25,128.185998,37.922048,8124.078544800001,-119.749,-14.225,106.809,1.0
3.2666,128.186049,37.922029,8123.005344,-119.827,-14.313,106.697,1.0
3.2833,128.1861,37.922011,8121.9242184,-119.904,-14.401,106.586,1.0
3.3,128.186152,37.921992,8120.8354728,-119.979,-14.49,106.475,1.0
3.3166,128.186203,37.921974,8119.7388024,-120.054,-14.578,106.363,1.0
3.3333,128.186255,37.921956,8118.6342072,-120.126,-14.667,106.252,1.0
3.35,128.186306,37.921938,8117.521992000001,-120.198,-14.756,106.141,1.0
3.3666,128.186358,37.92192,8116.401852000001,-120.268,-14.845,106.03,1.0
3.3833,128.18641,37.921902,8115.274092000001,-120.337,-14.934,105.919,1.0
3.4,128.186461,37.921884,8114.1384072,-120.405,-15.023,105.808,1.0
3.4166,128.186513,37.921866,8112.994797600001,-120.472,-15.113,105.698,1.0
3.4333,128.186564,37.921849,8111.8432632,-120.538,-15.203,105.587,1.0
3.45,128.186616,37.921831,8110.683804,-120.603,-15.293,105.477,1.0
3.4666,128.186668,37.921813,8109.516724800001,-120.667,-15.383,105.366,1.0
3.4833,128.18672,37.921796,8108.3417208,-120.73,-15.473,105.256,1.0
3.5,128.186772,37.921779,8107.1584872,-120.793,-15.564,105.146,1.0
3.5166,128.186823,37.921761,8105.967633600001,-120.855,-15.655,105.036,1.0
3.5333,128.186875,37.921744,8104.768855200001,-120.916,-15.746,104.927,1.0
3.55,128.186927,37.921727,8103.562152000001,-120.977,-15.837,104.817,1.0
3.5666,128.186979,37.92171,8102.347524000001,-121.036,-15.928,104.707,1.0
3.5833,128.187031,37.921693,8101.1249712,-121.095,-16.02,104.598,1.0
3.6,128.187083,37.921676,8099.8944936,-121.154,-16.112,104.488,1.0
3.6166,128.187135,37.921659,8098.655786400001,-121.212,-16.204,104.379,1.0
3.6333,128.187187,37.921642,8097.4094592,-121.269,-16.296,104.27,1.0
3.65,128.187239,37.921626,8096.1549024,-121.325,-16.388,104.161,1.0
3.6666,128.187291,37.921609,8094.8927256,-121.381,-16.48,104.052,1.0
3.6833,128.187343,37.921593,8093.622319200001,-121.436,-16.572,103.943,1.0
3.7,128.187395,37.921576,8092.3439880000005,-121.491,-16.665,103.834,1.0
3.7166,128.187447,37.92156,8091.0574272,-121.545,-16.758,103.726,1.0
3.7333,128.1875,37.921544,8089.763246400001,-121.598,-16.851,103.617,1.0
3.75,128.187552,37.921528,8088.460836,-121.65,-16.944,103.509,1.0
3.7666,128.187604,37.921512,8087.1505008,-121.702,-17.037,103.4,1.0
3.7833,128.187656,37.921496,8085.8319360000005,-121.753,-17.13,103.292,1.0
3.8,128.187709,37.92148,8084.5054464,-121.803,-17.224,103.184,1.0
3.8166,128.187761,37.921464,8083.171032,-121.853,-17.317,103.076,1.0
3.8333,128.187813,37.921448,8081.828692800001,-121.902,-17.411,102.968,1.0
3.85,128.187865,37.921432,8080.478124000001,-121.95,-17.504,102.86,1.0
3.8666,128.187918,37.921417,8079.1193256,-121.997,-17.598,102.752,1.0
3.8833,128.18797,37.921401,8077.7526024,-122.044,-17.692,102.644,1.0
3.9,128.188023,37.921386,8076.377954400001,-122.09,-17.786,102.536,1.0
3.9166,128.188075,37.921371,8074.9950768,-122.135,-17.88,102.429,1.0
3.9333,128.188127,37.921355,8073.604274400001,-122.179,-17.974,102.321,1.0
3.95,128.18818,37.92134,8072.205242400001,-122.223,-18.068,102.214,1.0
3.9666,128.188232,37.921325,8070.7979808,-122.265,-18.163,102.106,1.0
3.9833,128.188285,37.92131,8069.3827944,-122.307,-18.257,101.999,1.0
4.0,128.188337,37.921295,8067.959683200001,-122.348,-18.352,101.892,1.0
4.0166,128.18839,37.92128,8066.528037600001,-122.389,-18.446,101.784,1.0
4.0333,128.188442,37.921266,8065.088772,-122.428,-18.541,101.677,1.0
4.05,128.188495,37.921251,8063.640972,-122.467,-18.635,101.57,1.0
4.0666,128.188547,37.921236,8062.185247200001,-122.505,-18.73,101.463,1.0
4.0833,128.1886,37.921222,8060.721292800001,-122.541,-18.825,101.356,1.0
4.1,128.188653,37.921207,8059.2494136000005,-122.577,-18.92,101.249,1.0
4.1166,128.188705,37.921193,8057.769,-122.613,-19.014,101.142,1.0
4.1333,128.188758,37.921179,8056.2809664,-122.647,-19.109,101.035,1.0
4.15,128.188811,37.921164,8054.7843984,-122.68,-19.204,100.928,1.0
4.1666,128.188863,37.92115,8053.2796008000005,-122.713,-19.299,100.822,1.0
4.1833,128.188916,37.921136,8051.766878400001,-122.745,-19.394,100.715,1.0
4.2,128.188969,37.921122,8050.2459264,-122.775,-19.489,100.608,1.0
4.2166,128.189021,37.921108,8048.7170496,-122.806,-19.584,100.501,1.0
4.2333,128.189074,37.921095,8047.179638400001,-122.835,-19.679,100.395,1.0
4.25,128.189127,37.921081,8045.6343024,-122.863,-19.774,100.288,1.0
4.2666,128.18918,37.921067,8044.080432000001,-122.89,-19.869,100.182,1.0
4.2833,128.189232,37.921054,8042.5186368,-122.917,-19.964,100.075,1.0
4.3,128.189285,37.92104,8040.948612,-122.943,-20.059,99.968,1.0
4.3166,128.189338,37.921027,8039.3706624,-122.968,-20.154,99.862,1.0
4.3333,128.189391,37.921014,8037.784178400001,-122.992,-20.249,99.755,1.0
4.35,128.189444,37.921,8036.189464800001,-123.015,-20.344,99.649,1.0
4.3666,128.189497,37.920987,8034.5868264,-123.038,-20.439,99.542,1.0
4.3833,128.189549,37.920974,8032.9756536,-123.059,-20.534,99.436,1.0
4.4,128.189602,37.920961,8031.356556000001,-123.08,-20.629,99.329,1.0
4.4166,128.189655,37.920948,8029.729228800001,-123.101,-20.724,99.223,1.0
4.4333,128.189708,37.920936,8028.093672,-123.12,-20.819,99.116,1.0
4.45,128.189761,37.920923,8026.4495808,-123.138,-20.914,99.01,1.0
4.4666,128.189814,37.92091,8024.797564800001,-123.156,-21.009,98.903,1.0
4.4833,128.189867,37.920898,8023.137319200001,-123.173,-21.104,98.797,1.0
4.5,128.18992,37.920885,8021.468844,-123.189,-21.199,98.69,1.0
4.5166,128.189973,37.920873,8019.7921392,-123.205,-21.294,98.584,1.0
4.5333,128.190025,37.92086,8018.1072048000005,-123.22,-21.389,98.477,1.0
4.55,128.190078,37.920848,8016.4140408,-123.233,-21.483,98.371,1.0
4.5666,128.190131,37.920836,8014.712647200001,-123.247,-21.578,98.264,1.0
4.5833,128.190184,37.920824,8013.003024000001,-123.259,-21.673,98.158,1.0
4.6,128.190237,37.920812,8011.2848664,-123.271,-21.767,98.051,1.0
4.6166,128.19029,37.9208,8009.558784000001,-123.282,-21.862,97.944,1.0
4.6333,128.190343,37.920788,8007.824472,-123.293,-21.957,97.838,1.0
4.65,128.190396,37.920777,8006.0819304,-123.302,-22.051,97.731,1.0
4.6666,128.190449,37.920765,8004.3311592,-123.311,-22.146,97.624,1.0
4.6833,128.190502,37.920753,8002.5718536,-123.319,-22.241,97.517,1.0
4.7,128.190555,37.920742,8000.804623200001,-123.327,-22.335,97.409,1.0
4.7166,128.190608,37.920731,7999.0291632,-123.333,-22.43,97.302,1.0
4.7333,128.190661,37.920719,7997.2451688,-123.339,-22.525,97.194,1.0
4.75,128.190714,37.920708,7995.4532496,-123.344,-22.62,97.085,1.0
4.7666,128.190767,37.920697,7993.652796,-123.349,-22.715,96.977,1.0
4.7833,128.19082,37.920686,7991.8441128,-123.352,-22.81,96.868,1.0
4.8,128.190873,37.920675,7990.0272,-123.355,-22.906,96.758,1.0
4.8166,128.190927,37.920664,7988.2023624,-123.357,-23.001,96.649,1.0
4.8333,128.19098,37.920653,7986.3689904,-123.358,-23.097,96.539,1.0
4.85,128.191033,37.920642,7984.527084000001,-123.359,-23.192,96.428,1.0
4.8666,128.191086,37.920632,7982.6772528,-123.359,-23.288,96.317,1.0
4.8833,128.191139,37.920621,7980.819192000001,-123.358,-23.384,96.207,1.0
4.9,128.191192,37.920611,7978.952596800001,-123.356,-23.48,96.095,1.0
4.9166,128.191245,37.9206,7977.0780768,-123.354,-23.576,95.984,1.0
4.9333,128.191298,37.92059,7975.1950224,-123.35,-23.671,95.872,1.0
4.95,128.191351,37.92058,7973.303738400001,-123.346,-23.767,95.76,1.0
4.9666,128.191404,37.920569,7971.4042248000005,-123.342,-23.863,95.648,1.0
4.9833,128.191457,37.920559,7969.4964816,-123.336,-23.959,95.535,1.0
5.0,128.19151,37.920549,7967.580508800001,-123.33,-24.055,95.422,1.0
5.0166,128.191563,37.920539,7965.656001600001,-123.324,-24.151,95.309,1.0
5.0333,128.191616,37.92053,7963.723569600001,-123.316,-24.247,95.196,1.0
5.05,128.191669,37.92052,7961.7826032,-123.308,-24.343,95.083,1.0
5.0666,128.191722,37.92051,7959.8334072,-123.299,-24.439,94.969,1.0
5.0833,128.191775,37.920501,7957.8756768,-123.29,-24.535,94.855,1.0
5.1,128.191829,37.920491,7955.9100216,-123.28,-24.631,94.741,1.0
5.1166,128.191882,37.920482,7953.935832,-123.269,-24.726,94.627,1.0
5.1333,128.191935,37.920472,7951.9537176,-123.257,-24.822,94.513,1.0
5.15,128.191988,37.920463,7949.963068800001,-123.246,-24.918,94.398,1.0
5.1666,128.192041,37.920454,7947.9641904,-123.233,-25.014,94.283,1.0
5.1833,128.192094,37.920445,7945.9567776,-123.22,-25.11,94.168,1.0
5.2,128.192147,37.920436,7943.9414400000005,-123.206,-25.205,94.053,1.0
5.2166,128.1922,37.920427,7941.917568000001,-123.192,-25.301,93.938,1.0
5.2333,128.192253,37.920418,7939.8854664,-123.177,-25.396,93.822,1.0
5.25,128.192306,37.92041,7937.8451352,-123.162,-25.492,93.707,1.0
5.2666,128.192359,37.920401,7935.796574400001,-123.146,-25.587,93.591,1.0
5.2833,128.192412,37.920392,7933.7394792000005,-123.129,-25.683,93.474,1.0
5.3,128.192465,37.920384,7931.674154400001,-123.112,-25.778,93.358,1.0
5.3166,128.192518,37.920376,7929.600600000001,-123.094,-25.874,93.242,1.0
5.3333,128.192571,37.920367,7927.518816,-123.076,-25.969,93.125,1.0
5.35,128.192624,37.920359,7925.4288024,-123.057,-26.064,93.008,1.0
5.3666,128.192677,37.920351,7923.330254400001,-123.038,-26.159,92.891,1.0
5.3833,128.19273,37.920343,7921.223781600001,-123.018,-26.254,92.773,1.0
5.4,128.192783,37.920335,7919.108774400001,-122.998,-26.349,92.656,1.0
5.4166,128.192836,37.920327,7916.9855376000005,-122.977,-26.444,92.538,1.0
5.4333,128.192889,37.920319,7914.8540712,-122.956,-26.539,92.42,1.0
5.45,128.192942,37.920311,7912.714070400001,-122.934,-26.634,92.302,1.0
5.4666,128.192995,37.920304,7910.5661448,-122.912,-26.729,92.184,1.0
5.4833,128.193048,37.920296,7908.4096848,-122.889,-26.824,92.065,1.0
5.5,128.193101,37.920289,7906.244995200001,-122.866,-26.918,91.947,1.0
5.5166,128.193154,37.920282,7904.072076,-122.843,-27.013,91.828,1.0
5.5333,128.193206,37.920274,7901.8906224,-122.819,-27.107,91.709,1.0
5.55,128.193259,37.920267,7899.701244,-122.794,-27.202,91.589,1.0
5.5666,128.193312,37.92026,7897.5033312000005,-122.769,-27.296,91.47,1.0
5.5833,128.193365,37.920253,7895.2974936,-122.744,-27.391,91.35,1.0
5.6,128.193418,37.920246,7893.0831216,-122.718,-27.485,91.23,1.0
5.6166,128.193471,37.920239,7890.860520000001,-122.691,-27.579,91.11,1.0
5.6333,128.193524,37.920232,7888.629384000001,-122.665,-27.673,90.989,1.0
5.65,128.193576,37.920226,7886.3903232,-122.637,-27.768,90.868,1.0
5.6666,128.193629,37.920219,7884.143032800001,-122.61,-27.862,90.748,1.0
5.6833,128.193682,37.920213,7881.887208,-122.582,-27.956,90.626,1.0
5.7,128.193735,37.920206,7879.6234584,-122.553,-28.049,90.505,1.0
5.7166,128.193788,37.9202,7877.351174400001,-122.524,-28.143,90.384,1.0
5.7333,128.19384,37.920194,7875.070660800001,-122.495,-28.237,90.262,1.0
5.75,128.193893,37.920187,7872.7819176,-122.465,-28.331,90.14,1.0
5.7666,128.193946,37.920181,7870.4849448,-122.435,-28.424,90.018,1.0
5.7833,128.193999,37.920175,7868.179742400001,-122.405,-28.518,89.895,1.0
5.8,128.194051,37.92017,7865.866310400001,-122.374,-28.611,89.772,1.0
5.8166,128.194104,37.920164,7863.5446488,-122.342,-28.705,89.649,1.0
5.8333,128.194157,37.920158,7861.2144528,-122.31,-28.798,89.526,1.0
5.85,128.194209,37.920152,7858.876332000001,-122.278,-28.891,89.403,1.0
5.8666,128.194262,37.920147,7856.529981600001,-122.245,-28.985,89.279,1.0
5.8833,128.194314,37.920141,7854.1754016,-122.212,-29.078,89.155,1.0
5.9,128.194367,37.920136,7851.8122872,-122.179,-29.171,89.031,1.0
5.9166,128.19442,37.920131,7849.441248,-122.145,-29.264,88.907,1.0
5.9333,128.194472,37.920126,7847.061979200001,-122.111,-29.357,88.782,1.0
5.95,128.194525,37.92012,7844.674176,-122.076,-29.449,88.657,1.0
5.9666,128.194577,37.920115,7842.278448,-122.041,-29.542,88.532,1.0
5.9833,128.19463,37.920111,7839.8744904000005,-122.006,-29.635,88.407,1.0
6.0,128.194682,37.920106,7837.4623032,-121.97,-29.728,88.281,1.0
6.0166,128.194735,37.920101,7835.0418864,-121.934,-29.82,88.155,1.0
6.0333,128.194787,37.920096,7832.613240000001,-121.898,-29.913,88.029,1.0
6.05,128.19484,37.920092,7830.176364000001,-121.861,-30.005,87.903,1.0
6.0666,128.194892,37.920087,7827.7312584,-121.824,-30.097,87.776,1.0
6.0833,128.194944,37.920083,7825.2779232,-121.786,-30.189,87.649,1.0
6.1,128.194997,37.920078,7822.8166632,-121.748,-30.282,87.522,1.0
6.1166,128.195049,37.920074,7820.3468688,-121.71,-30.374,87.395,1.0
6.1333,128.195101,37.92007,7817.8691496,-121.671,-30.466,87.267,1.0
6.15,128.195154,37.920066,7815.383200800001,-121.632,-30.558,87.139,1.0
6.1666,128.195206,37.920062,7812.889022400001,-121.593,-30.649,87.011,1.0
6.1833,128.195258,37.920058,7810.3866144,-121.554,-30.741,86.882,1.0
6.2,128.19531,37.920054,7807.8759768,-121.514,-30.833,86.754,1.0
6.2166,128.195363,37.920051,7805.3574144,-121.473,-30.924,86.625,1.0
6.2333,128.195415,37.920047,7802.830622400001,-121.433,-31.016,86.495,1.0
6.25,128.195467,37.920044,7800.295600800001,-121.392,-31.107,86.366,1.0
6.2666,128.195519,37.92004,7797.7523496,-121.351,-31.199,86.236,1.0
6.2833,128.195571,37.920037,7795.2011736,-121.309,-31.29,86.106,1.0
6.3,128.195623,37.920034,7792.641768,-121.267,-31.381,85.976,1.0
6.3166,128.195675,37.920031,7790.0741328,-121.224,-31.472,85.845,1.0
6.3333,128.195727,37.920027,7787.4985728,-121.182,-31.563,85.714,1.0
6.35,128.195779,37.920024,7784.914478400001,-121.139,-31.654,85.583,1.0
6.3666,128.195831,37.920022,7782.3227640000005,-121.095,-31.745,85.452,1.0
6.3833,128.195883,37.920019,7779.722515200001,-121.052,-31.836,85.32,1.0
6.4,128.195935,37.920016,7777.1143416,-121.007,-31.927,85.188,1.0
6.4166,128.195987,37.920013,7774.497938400001,-120.963,-32.017,85.056,1.0
6.4333,128.196039,37.920011,7771.873610400001,-120.918,-32.108,84.923,1.0
6.45,128.196091,37.920009,7769.2410528,-120.873,-32.198,84.79,1.0
6.4666,128.196142,37.920006,7766.600570400001,-120.828,-32.289,84.657,1.0
6.4833,128.196194,37.920004,7763.951858400001,-120.782,-32.379,84.524,1.0
6.5,128.196246,37.920002,7761.2952216,-120.736,-32.469,84.39,1.0
6.5166,128.196298,37.92,7758.630355200001,-120.69,-32.559,84.256,1.0
6.5333,128.196349,37.919998,7755.9572592,-120.643,-32.649,84.122,1.0
6.55,128.196401,37.919996,7753.276238400001,-120.596,-32.739,83.987,1.0
6.5666,128.196453,37.919994,7750.587292800001,-120.549,-32.829,83.852,1.0
6.5833,128.196504,37.919992,7747.8901176,-120.501,-32.919,83.717,1.0
6.6,128.196556,37.919991,7745.1850176,-120.453,-33.008,83.581,1.0
6.6166,128.196607,37.919989,7742.4716880000005,-120.405,-33.098,83.446,1.0
6.6333,128.196659,37.919988,7739.750738400001,-120.356,-33.187,83.31,1.0
6.65,128.19671,37.919986,7737.0212544000005,-120.308,-33.277,83.173,1.0
6.6666,128.196762,37.919985,7734.284150400001,-120.258,-33.366,83.037,1.0
6.6833,128.196813,37.919984,7731.5388168,-120.209,-33.455,82.9,1.0
6.7,128.196864,37.919983,7728.7852536,-120.159,-33.544,82.762,1.0
6.7166,128.196916,37.919982,7726.024070400001,-120.109,-33.633,82.625,1.0
6.7333,128.196967,37.919981,7723.2546576,-120.058,-33.722,82.487,1.0
6.75,128.197018,37.91998,7720.477320000001,-120.007,-33.811,82.349,1.0
6.7666,128.197069,37.919979,7717.6920576,-119.956,-33.899,82.21,1.0
6.7833,128.19712,37.919979,7714.8985656,-119.904,-33.988,82.071,1.0
6.8,128.197172,37.919978,7712.0971488000005,-119.852,-34.076,81.932,1.0
6.8166,128.197223,37.919978,7709.288112,-119.8,-34.165,81.793,1.0
6.8333,128.197274,37.919977,7706.470845600001,-119.747,-34.253,81.653,1.0
6.85,128.197325,37.919977,7703.6456544,-119.694,-34.341,81.513,1.0
6.8666,128.197376,37.919977,7700.812233600001,-119.641,-34.429,81.373,1.0
6.8833,128.197427,37.919977,7697.971192800001,-119.587,-34.517,81.232,1.0
6.9,128.197478,37.919977,7695.1222272,-119.533,-34.605,81.091,1.0
6.9166,128.197528,37.919977,7692.2653368,-119.479,-34.693,80.949,1.0
6.9333,128.197579,37.919977,7689.4002168,-119.424,-34.781,80.808,1.0
6.95,128.19763,37.919977,7686.5274768,-119.369,-34.868,80.666,1.0
6.9666,128.197681,37.919978,7683.646812,-119.314,-34.956,80.523,1.0
6.9833,128.197731,37.919978,7680.7579176,-119.258,-35.043,80.381,1.0
7.0,128.197782,37.919979,7677.8614032000005,-119.202,-35.131,80.238,1.0
7.0166,128.197833,37.919979,7674.956964000001,-119.146,-35.218,80.094,1.0
7.0333,128.197883,37.91998,7672.0446,-119.089,-35.305,79.951,1.0
7.05,128.197934,37.919981,7669.124616,-119.033,-35.392,79.807,1.0
7.0666,128.197984,37.919982,7666.1964024,-118.975,-35.479,79.663,1.0
7.0833,128.198035,37.919983,7663.2605688,-118.917,-35.565,79.518,1.0
7.1,128.198085,37.919984,7660.316810400001,-118.859,-35.652,79.373,1.0
7.1166,128.198135,37.919985,7657.365127200001,-118.801,-35.738,79.228,1.0
7.1333,128.198186,37.919986,7654.4055192000005,-118.742,-35.825,79.082,1.0
7.15,128.198236,37.919988,7651.4382912,-118.683,-35.911,78.936,1.0
7.1666,128.198286,37.919989,7648.463138400001,-118.623,-35.997,78.79,1.0
7.1833,128.198336,37.919991,7645.480365600001,-118.564,-36.083,78.643,1.0
7.2,128.198387,37.919993,7642.4893632,-118.503,-36.169,78.496,1.0
7.2166,128.198437,37.919994,7639.491045600001,-118.443,-36.255,78.348,1.0
7.2333,128.198487,37.919996,7636.4844984,-118.382,-36.341,78.201,1.0
7.25,128.198537,37.919998,7633.4703312,-118.32,-36.426,78.053,1.0
7.2666,128.198587,37.92,7630.448544,-118.259,-36.512,77.904,1.0
7.2833,128.198637,37.920002,7627.418832,-118.197,-36.597,77.755,1.0
7.3,128.198686,37.920004,7624.3815,-118.135,-36.683,77.606,1.0
7.3166,128.198736,37.920007,7621.336243199999,-118.072,-36.768,77.457,1.0
7.3333,128.198786,37.920009,7618.2833664,-118.009,-36.853,77.307,1.0
7.35,128.198836,37.920012,7615.2225648,-117.946,-36.938,77.157,1.0
7.3666,128.198885,37.920014,7612.154143199999,-117.882,-37.022,77.006,1.0
7.3833,128.198935,37.920017,7609.078101600001,-117.818,-37.107,76.855,1.0
7.4,128.198985,37.92002,7605.9941352000005,-117.754,-37.191,76.704,1.0
7.4166,128.199034,37.920022,7602.9028536000005,-117.689,-37.276,76.552,1.0
7.4333,128.199084,37.920025,7599.803647200001,-117.624,-37.36,76.4,1.0
7.45,128.199133,37.920028,7596.696516,-117.558,-37.444,76.248,1.0
7.4666,128.199182,37.920032,7593.582069600001,-117.493,-37.528,76.095,1.0
7.4833,128.199232,37.920035,7590.4596984,-117.426,-37.612,75.942,1.0
7.5,128.199281,37.920038,7587.330012,-117.36,-37.696,75.789,1.0
7.5166,128.19933,37.920042,7584.1924008000005,-117.293,-37.779,75.635,1.0
7.5333,128.199379,37.920045,7581.0471696,-117.226,-37.863,75.48,1.0
7.55,128.199428,37.920049,7577.894318400001,-117.158,-37.946,75.326,1.0
7.5666,128.199477,37.920052,7574.733847200001,-117.09,-38.029,75.171,1.0
7.5833,128.199526,37.920056,7571.565756000001,-117.022,-38.113,75.015,1.0
7.6,128.199575,37.92006,7568.3900448,-116.953,-38.195,74.86,1.0
7.6166,128.199624,37.920064,7565.2070184,-116.884,-38.278,74.704,1.0
7.6333,128.199673,37.920068,7562.0160672,-116.815,-38.361,74.547,1.0
7.65,128.199722,37.920072,7558.8178008,-116.745,-38.443,74.39,1.0
7.6666,128.19977,37.920076,7555.6116096000005,-116.675,-38.526,74.233,1.0
7.6833,128.199819,37.920081,7552.3981032,-116.604,-38.608,74.075,1.0
7.7,128.199868,37.920085,7549.1772816,-116.534,-38.69,73.917,1.0
7.7166,128.199916,37.92009,7545.9485352,-116.462,-38.772,73.759,1.0
7.7333,128.199965,37.920094,7542.7124736000005,-116.391,-38.854,73.6,1.0
7.75,128.200013,37.920099,7539.468792000001,-116.319,-38.936,73.441,1.0
7.7666,128.200061,37.920104,7536.2177952,-116.246,-39.017,73.281,1.0
7.7833,128.20011,37.920109,7532.9591784,-116.173,-39.099,73.121,1.0
7.8,128.200158,37.920114,7529.6929416,-116.1,-39.18,72.96,1.0
7.8166,128.200206,37.920119,7526.4193896,-116.027,-39.261,72.8,1.0
7.8333,128.200254,37.920124,7523.138217600001,-115.953,-39.342,72.638,1.0
7.85,128.200302,37.920129,7519.8497304,-115.879,-39.423,72.477,1.0
7.8666,128.20035,37.920135,7516.553928,-115.804,-39.504,72.315,1.0
7.8833,128.200398,37.92014,7513.250505600001,-115.729,-39.584,72.152,1.0
7.9,128.200446,37.920146,7509.939768,-115.654,-39.664,71.989,1.0
7.9166,128.200494,37.920151,7506.621410400001,-115.578,-39.745,71.826,1.0
7.9333,128.200541,37.920157,7503.2957376,-115.501,-39.825,71.662,1.0
7.95,128.200589,37.920163,7499.9627496,-115.425,-39.904,71.498,1.0
7.9666,128.200637,37.920169,7496.622446400001,-115.348,-39.984,71.334,1.0
7.9833,128.200684,37.920175,7493.2748280000005,-115.27,-40.064,71.169,1.0
8.0,128.200732,37.920181,7489.9195896,-115.192,-40.143,71.004,1.0
8.0166,128.200779,37.920187,7486.557036,-115.114,-40.222,70.838,1.0
8.0333,128.200827,37.920193,7483.1874720000005,-115.035,-40.301,70.672,1.0
8.05,128.200874,37.9202,7479.810288000001,-114.955,-40.38,70.505,1.0
8.0666,128.200921,37.920206,7476.4257888,-114.875,-40.459,70.338,1.0
8.0833,128.200968,37.920213,7473.033974400001,-114.795,-40.538,70.171,1.0
8.1,128.201015,37.92022,7469.635149600001,-114.714,-40.616,70.003,1.0
8.1166,128.201062,37.920226,7466.228704800001,-114.632,-40.694,69.835,1.0
8.1333,128.201109,37.920233,7462.8152496,-114.551,-40.772,69.666,1.0
8.15,128.201156,37.92024,7459.394479200001,-114.468,-40.85,69.497,1.0
8.1666,128.201203,37.920247,7455.9663936,-114.385,-40.928,69.327,1.0
8.1833,128.20125,37.920254,7452.5312976000005,-114.302,-41.005,69.157,1.0
8.2,128.201296,37.920262,7449.0885816,-114.218,-41.083,68.987,1.0
8.2166,128.201343,37.920269,7445.638855200001,-114.134,-41.16,68.816,1.0
8.2333,128.20139,37.920276,7442.1821184,-114.049,-41.237,68.645,1.0
8.25,128.201436,37.920284,7438.7180664,-113.964,-41.314,68.473,1.0
8.2666,128.201482,37.920291,7435.2466992,-113.878,-41.39,68.301,1.0
8.2833,128.201529,37.920299,7431.7683216000005,-113.792,-41.467,68.128,1.0
8.3,128.201575,37.920307,7428.2829336,-113.705,-41.543,67.955,1.0
8.3166,128.201621,37.920315,7424.7902304,-113.618,-41.619,67.782,1.0
8.3333,128.201667,37.920323,7421.290212,-113.531,-41.695,67.608,1.0
8.35,128.201713,37.920331,7417.783488000001,-113.443,-41.771,67.433,1.0
8.3666,128.201759,37.920339,7414.2694488,-113.355,-41.846,67.259,1.0
8.3833,128.201805,37.920347,7410.7483992,-113.266,-41.922,67.083,1.0
8.4,128.201851,37.920356,7407.2203392,-113.177,-41.997,66.908,1.0
8.4166,128.201897,37.920364,7403.684964,-113.088,-42.072,66.731,1.0
8.4333,128.201942,37.920373,7400.142883200001,-112.998,-42.146,66.555,1.0
8.45,128.201988,37.920381,7396.593487200001,-112.908,-42.221,66.378,1.0
8.4666,128.202034,37.92039,7393.037385600001,-112.817,-42.295,66.2,1.0
8.4833,128.202079,37.920399,7389.473968800001,-112.726,-42.369,66.022,1.0
8.5,128.202124,37.920408,7385.903541600001,-112.634,-42.443,65.844,1.0
8.5166,128.20217,37.920417,7382.3264088000005,-112.542,-42.517,65.665,1.0
8.5333,128.202215,37.920426,7378.742265600001,-112.45,-42.591,65.486,1.0
8.55,128.20226,37.920435,7375.151112,-112.357,-42.664,65.306,1.0
8.5666,128.202305,37.920444,7371.552948,-112.264,-42.737,65.126,1.0
8.5833,128.20235,37.920454,7367.947773600001,-112.17,-42.81,64.945,1.0
8.6,128.202395,37.920463,7364.3358935999995,-112.077,-42.883,64.764,1.0
8.6166,128.20244,37.920473,7360.7170032,-111.982,-42.955,64.582,1.0
8.6333,128.202484,37.920482,7357.0914072,-111.888,-43.028,64.4,1.0
8.65,128.202529,37.920492,7353.458800800001,-111.793,-43.1,64.217,1.0
8.6666,128.202574,37.920502,7349.8194888,-111.697,-43.172,64.034,1.0
8.6833,128.202618,37.920512,7346.1731664,-111.602,-43.243,63.851,1.0
8.7,128.202662,37.920522,7342.520138400001,-111.506,-43.315,63.667,1.0
8.7166,128.202707,37.920532,7338.860100000001,-111.409,-43.386,63.482,1.0
8.7333,128.202751,37.920542,7335.193356000001,-111.313,-43.457,63.297,1.0
8.75,128.202795,37.920553,7331.519906400001,-111.216,-43.528,63.112,1.0
8.7666,128.202839,37.920563,7327.839751200001,-111.119,-43.599,62.926,1.0
8.7833,128.202883,37.920574,7324.152890400001,-111.021,-43.669,62.739,1.0
8.8,128.202927,37.920584,7320.4590192000005,-110.923,-43.74,62.552,1.0
8.8166,128.202971,37.920595,7316.758442400001,-110.825,-43.81,62.365,1.0
8.8333,128.203015,37.920606,7313.051464800001,-110.726,-43.879,62.177,1.0
8.85,128.203058,37.920617,7309.3374768,-110.627,-43.949,61.989,1.0
8.8666,128.203102,37.920628,7305.617088000001,-110.528,-44.018,61.8,1.0
8.8833,128.203145,37.920639,7301.8896888,-110.429,-44.087,61.611,1.0
8.9,128.203189,37.92065,7298.1558888,-110.329,-44.156,61.421,1.0
8.9166,128.203232,37.920661,7294.415383200001,-110.228,-44.225,61.231,1.0
8.9333,128.203275,37.920672,7290.668172000001,-110.128,-44.294,61.04,1.0
8.95,128.203318,37.920684,7286.91456,-110.027,-44.362,60.849,1.0
8.9666,128.203361,37.920695,7283.154242400001,-109.926,-44.43,60.657,1.0
8.9833,128.203404,37.920707,7279.387524000001,-109.824,-44.498,60.465,1.0
9.0,128.203447,37.920719,7275.614100000001,-109.722,-44.565,60.272,1.0
9.0166,128.20349,37.92073,7271.833970400001,-109.62,-44.633,60.079,1.0
9.0333,128.203533,37.920742,7268.04744,-109.517,-44.7,59.885,1.0
9.05,128.203575,37.920754,7264.254508800001,-109.415,-44.767,59.691,1.0
9.0666,128.203618,37.920766,7260.454872,-109.311,-44.833,59.496,1.0
9.0833,128.20366,37.920779,7256.6488344,-109.208,-44.9,59.301,1.0
9.1,128.203702,37.920791,7252.836396000001,-109.104,-44.966,59.105,1.0
9.1166,128.203745,37.920803,7249.017556800001,-108.999,-45.032,58.909,1.0
9.1333,128.203787,37.920816,7245.1923168,-108.895,-45.098,58.712,1.0
9.15,128.203829,37.920828,7241.3603712,-108.79,-45.163,58.515,1.0
9.1666,128.203871,37.920841,7237.5223295999995,-108.684,-45.228,58.318,1.0
9.1833,128.203913,37.920854,7233.677582400001,-108.579,-45.293,58.119,1.0
9.2,128.203954,37.920866,7229.8267392,-108.473,-45.358,57.921,1.0
9.2166,128.203996,37.920879,7225.9694952,-108.366,-45.423,57.722,1.0
9.2333,128.204038,37.920892,7222.1058504,-108.259,-45.487,57.522,1.0
9.25,128.204079,37.920905,7218.235804800001,-108.152,-45.551,57.322,1.0
9.2666,128.20412,37.920919,7214.3596632,-108.045,-45.615,57.121,1.0
9.2833,128.204162,37.920932,7210.4771208,-107.937,-45.678,56.92,1.0
9.3,128.204203,37.920945,7206.588177600001,-107.829,-45.742,56.718,1.0
9.3166,128.204244,37.920959,7202.693138400001,-107.72,-45.805,56.516,1.0
9.3333,128.204285,37.920972,7198.7920032,-107.611,-45.867,56.313,1.0
9.35,128.204326,37.920986,7194.8844672000005,-107.502,-45.93,56.11,1.0
9.3666,128.204366,37.921,7190.9705304,-107.392,-45.992,55.907,1.0
9.3833,128.204407,37.921013,7187.0508024,-107.282,-46.054,55.702,1.0
9.4,128.204448,37.921027,7183.1246736,-107.171,-46.116,55.498,1.0
9.4166,128.204488,37.921041,7179.192144,-107.06,-46.178,55.292,1.0
9.4333,128.204529,37.921056,7175.253823200001,-106.948,-46.239,55.087,1.0
9.45,128.204569,37.92107,7171.309406400001,-106.835,-46.3,54.88,1.0
9.4666,128.204609,37.921084,7167.3585888,-106.721,-46.36,54.674,1.0
9.4833,128.204649,37.921098,7163.40198,-106.607,-46.421,54.466,1.0
9.5,128.204689,37.921113,7159.439275199999,-106.492,-46.481,54.259,1.0
9.5166,128.204729,37.921127,7155.470474400001,-106.377,-46.54,54.05,1.0
9.5333,128.204769,37.921142,7151.495577600001,-106.26,-46.6,53.842,1.0
9.55,128.204808,37.921157,7147.5145848,-106.141,-46.659,53.632,1.0
9.5666,128.204848,37.921172,7143.5278008000005,-106.02,-46.717,53.422,1.0
9.5833,128.204887,37.921187,7139.5349208,-105.898,-46.775,53.212,1.0
9.6,128.204927,37.921202,7135.536249600001,-105.775,-46.833,53.001,1.0
9.6166,128.204966,37.921217,7131.531482400001,-105.65,-46.891,52.79,1.0
9.6333,128.205005,37.921232,7127.520924,-105.522,-46.948,52.578,1.0
9.65,128.205044,37.921247,7123.504269600001,-105.39,-47.005,52.366,1.0
9.6666,128.205083,37.921263,7119.481824,-105.255,-47.06,52.153,1.0
9.6833,128.205122,37.921278,7115.453587200001,-105.117,-47.116,51.939,1.0
9.7,128.205161,37.921294,7111.419559200001,-104.977,-47.171,51.726,1.0
9.7166,128.205199,37.921309,7107.3794352,-104.833,-47.226,51.511,1.0
9.7333,128.205238,37.921325,7103.333824800001,-104.683,-47.28,51.296,1.0
9.75,128.205276,37.921341,7099.2824232,-104.526,-47.333,51.081,1.0
9.7666,128.205314,37.921357,7095.2252304,-104.363,-47.385,50.865,1.0
9.7833,128.205352,37.921373,7091.1622464,-104.195,-47.437,50.649,1.0
9.8,128.20539,37.921389,7087.093776,-104.021,-47.488,50.433,1.0
9.8166,128.205428,37.921405,7083.019514400001,-103.844,-47.539,50.216,1.0
9.8333,128.205466,37.921421,7078.9394616,-103.654,-47.589,49.998,1.0
9.85,128.205504,37.921438,7074.8542272,-103.452,-47.637,49.78,1.0
9.8666,128.205542,37.921454,7070.763201600001,-103.239,-47.684,49.562,1.0
9.8833,128.205579,37.921471,7066.6663848,-103.016,-47.73,49.343,1.0
9.9,128.205617,37.921487,7062.5643864,-102.786,-47.776,49.125,1.0
9.9166,128.205654,37.921504,7058.4569016000005,-102.548,-47.821,48.906,1.0
9.9333,128.205691,37.921521,7054.3439304,-102.284,-47.864,48.686,1.0
9.95,128.205728,37.921538,7050.225472800001,-101.996,-47.904,48.466,1.0
9.9666,128.205765,37.921554,7046.101833600001,-101.686,-47.943,48.246,1.0
9.9833,128.205802,37.921572,7041.9730128,-101.357,-47.98,48.026,1.0
10.0,128.205839,37.921589,7037.838705600001,-101.01,-48.016,47.806,1.0
10.0166,128.205876,37.921606,7033.6995216000005,-100.649,-48.052,47.586,1.0
10.0333,128.205912,37.921623,7029.5548512000005,-100.244,-48.084,47.366,1.0
10.05,128.205949,37.921641,7025.405304,-99.798,-48.113,47.146,1.0
10.0666,128.205985,37.921658,7021.2505752,-99.316,-48.138,46.926,1.0
10.0833,128.206021,37.921676,7017.091274400001,-98.801,-48.162,46.707,1.0
10.1,128.206057,37.921693,7012.926792,-98.258,-48.185,46.488,1.0
10.1166,128.206093,37.921711,7008.757737600001,-97.692,-48.207,46.271,1.0
10.1333,128.206129,37.921729,7004.583806400001,-97.084,-48.226,46.054,1.0
10.15,128.206165,37.921747,7000.4049984,-96.438,-48.241,45.838,1.0
10.1666,128.206201,37.921765,6996.221923200001,-95.758,-48.255,45.623,1.0
10.1833,128.206237,37.921783,6992.0345808,-95.05,-48.266,45.409,1.0
10.2,128.206272,37.921801,6987.8426664,-94.318,-48.275,45.197,1.0
10.2166,128.206307,37.921819,6983.6464848,-93.566,-48.283,44.985,1.0
10.2333,128.206343,37.921838,6979.4463408,-92.8,-48.288,44.775,1.0
10.25,128.206378,37.921856,6975.2422344,-92.024,-48.292,44.566,1.0
10.2666,128.206413,37.921875,6971.034165600001,-91.24,-48.294,44.358,1.0
10.2833,128.206448,37.921893,6966.8221344,-90.45,-48.294,44.15,1.0
10.3,128.206483,37.921912,6962.6067504,-89.653,-48.29,43.943,1.0
10.3166,128.206518,37.921931,6958.387404,-88.852,-48.284,43.737,1.0
10.3333,128.206552,37.92195,6954.1650096,-88.07,-48.277,43.531,1.0
10.35,128.206587,37.921969,6949.9395672,-87.307,-48.269,43.325,1.0
10.3666,128.206621,37.921988,6945.710772,-86.56,-48.26,43.119,1.0
10.3833,128.206656,37.922007,6941.478928800001,-85.829,-48.247,42.912,1.0
10.4,128.20669,37.922027,6937.2443424,-85.111,-48.232,42.706,1.0
10.4166,128.206724,37.922046,6933.006708,-84.403,-48.213,42.499,1.0
10.4333,128.206758,37.922066,6928.76694,-83.73,-48.194,42.292,1.0
10.45,128.206792,37.922085,6924.5244288,-83.088,-48.174,42.084,1.0
10.4666,128.206826,37.922105,6920.279784000001,-82.475,-48.152,41.874,1.0
10.4833,128.206859,37.922125,6916.0327008,-81.886,-48.127,41.664,1.0
10.5,128.206893,37.922145,6911.7834840000005,-81.318,-48.1,41.454,1.0
10.5166,128.206926,37.922165,6907.531828800001,-80.766,-48.07,41.243,1.0
10.5333,128.20696,37.922186,6903.2786496,-80.247,-48.039,41.031,1.0
10.55,128.206993,37.922206,6899.023641600001,-79.756,-48.007,40.818,1.0
10.5666,128.207026,37.922226,6894.7668048000005,-79.29,-47.975,40.604,1.0
10.5833,128.207059,37.922247,6890.508444,-78.846,-47.94,40.39,1.0
10.6,128.207092,37.922268,6886.2482544,-78.42,-47.903,40.175,1.0
10.6166,128.207125,37.922288,6881.986236000001,-78.01,-47.864,39.96,1.0
10.6333,128.207157,37.922309,6877.7233032,-77.622,-47.824,39.744,1.0
10.65,128.20719,37.92233,6873.458541600001,-77.254,-47.784,39.527,1.0
10.6666,128.207222,37.922352,6869.192865600001,-76.903,-47.742,39.31,1.0
10.6833,128.207255,37.922373,6864.925665600001,-76.567,-47.699,39.093,1.0
10.7,128.207287,37.922394,6860.657246400001,-76.243,-47.655,38.876,1.0
10.7166,128.207319,37.922416,6856.387608,-75.93,-47.609,38.659,1.0
10.7333,128.207351,37.922437,6852.1170552,-75.631,-47.563,38.442,1.0
10.75,128.207383,37.922459,6847.8452832,-75.344,-47.516,38.224,1.0
10.7666,128.207415,37.922481,6843.572596800001,-75.067,-47.468,38.007,1.0
10.7833,128.207447,37.922503,6839.298996,-74.8,-47.42,37.79,1.0
10.8,128.207478,37.922525,6835.0247856000005,-74.54,-47.371,37.573,1.0
10.8166,128.20751,37.922547,6830.749356,-74.288,-47.321,37.356,1.0
10.8333,128.207541,37.922569,6826.4733168,-74.044,-47.27,37.14,1.0
10.85,128.207572,37.922591,6822.1966680000005,-73.808,-47.22,36.924,1.0
10.8666,128.207604,37.922614,6817.9194096,-73.579,-47.169,36.707,1.0
10.8833,128.207635,37.922636,6813.641541600001,-73.357,-47.117,36.492,1.0
10.9,128.207666,37.922659,6809.3627592,-73.14,-47.065,36.276,1.0
10.9166,128.207696,37.922682,6805.083672,-72.928,-47.013,36.061,1.0
10.9333,128.207727,37.922705,6800.80428,-72.722,-46.96,35.846,1.0
10.95,128.207758,37.922728,6796.5242784,-72.523,-46.907,35.631,1.0
10.9666,128.207788,37.922751,6792.243972,-72.33,-46.854,35.417,1.0
10.9833,128.207819,37.922774,6787.9633608,-72.141,-46.801,35.202,1.0
11.0,128.207849,37.922797,6783.6827496000005,-71.958,-46.748,34.988,1.0
11.0166,128.207879,37.922821,6779.401528800001,-71.778,-46.694,34.775,1.0
11.0333,128.207909,37.922845,6775.1203080000005,-71.604,-46.64,34.561,1.0
11.05,128.207939,37.922868,6770.8387824,-71.435,-46.587,34.347,1.0
11.0666,128.207969,37.922892,6766.557256800001,-71.271,-46.534,34.134,1.0
11.0833,128.207999,37.922916,6762.2757312,-71.111,-46.48,33.92,1.0
11.1,128.208029,37.92294,6757.994205600001,-70.956,-46.427,33.707,1.0
11.1166,128.208058,37.922964,6753.7123752,-70.805,-46.373,33.494,1.0
11.1333,128.208088,37.922988,6749.4308496,-70.656,-46.318,33.282,1.0
11.15,128.208117,37.923013,6745.149324000001,-70.511,-46.264,33.07,1.0
11.1666,128.208146,37.923037,6740.8681032,-70.368,-46.209,32.857,1.0
11.1833,128.208175,37.923062,6736.586882400001,-70.227,-46.154,32.646,1.0
11.2,128.208204,37.923086,6732.305661599999,-70.088,-46.099,32.434,1.0
11.2166,128.208233,37.923111,6728.024745600001,-69.95,-46.044,32.223,1.0
11.2333,128.208262,37.923136,6723.7444392,-69.814,-45.989,32.011,1.0
11.25,128.208291,37.923161,6719.464132800001,-69.679,-45.934,31.801,1.0
11.2666,128.208319,37.923186,6715.184131200001,-69.546,-45.878,31.59,1.0
11.2833,128.208348,37.923211,6710.904434399999,-69.414,-45.823,31.379,1.0
11.3,128.208376,37.923237,6706.625347200001,-69.283,-45.767,31.169,1.0
11.3166,128.208404,37.923262,6702.346564800001,-69.153,-45.711,30.959,1.0
11.3333,128.208432,37.923288,6698.068392000001,-69.024,-45.655,30.749,1.0
11.35,128.20846,37.923313,6693.790524000001,-68.896,-45.599,30.54,1.0
11.3666,128.208488,37.923339,6689.5132656000005,-68.769,-45.543,30.33,1.0
11.3833,128.208516,37.923365,6685.2366168,-68.643,-45.487,30.121,1.0
11.4,128.208543,37.923391,6680.960577600001,-68.518,-45.43,29.912,1.0
11.4166,128.208571,37.923417,6676.685148,-68.393,-45.374,29.703,1.0
11.4333,128.208598,37.923443,6672.410632800001,-68.27,-45.318,29.494,1.0
11.45,128.208626,37.92347,6668.1364224,-68.148,-45.261,29.286,1.0
11.4666,128.208653,37.923496,6663.8634312,-68.026,-45.204,29.078,1.0
11.4833,128.20868,37.923523,6659.5907448,-67.905,-45.148,28.87,1.0
11.5,128.208707,37.923549,6655.3192776000005,-67.785,-45.091,28.662,1.0
11.5166,128.208734,37.923576,6651.048420000001,-67.666,-45.034,28.454,1.0
11.5333,128.20876,37.923603,6646.7784768,-67.548,-44.976,28.247,1.0
11.55,128.208787,37.92363,6642.509448,-67.43,-44.919,28.039,1.0
11.5666,128.208813,37.923657,6638.241638400001,-67.313,-44.862,27.832,1.0
11.5833,128.20884,37.923684,6633.9744384000005,-67.198,-44.805,27.625,1.0
11.6,128.208866,37.923711,6629.7084576,-67.083,-44.747,27.418,1.0
11.6166,128.208892,37.923739,6625.443696,-66.968,-44.689,27.212,1.0
11.6333,128.208918,37.923766,6621.1798488,-66.855,-44.631,27.005,1.0
11.65,128.208944,37.923794,6616.9172208,-66.742,-44.574,26.799,1.0
11.6666,128.20897,37.923822,6612.6555072,-66.63,-44.516,26.593,1.0
11.6833,128.208995,37.923849,6608.3953176,-66.519,-44.457,26.387,1.0
11.7,128.209021,37.923877,6604.1360424,-66.408,-44.399,26.181,1.0
11.7166,128.209046,37.923905,6599.878291200001,-66.299,-44.34,25.976,1.0
11.7333,128.209072,37.923933,6595.6214544,-66.189,-44.282,25.77,1.0
11.75,128.209097,37.923962,6591.3664464,-66.081,-44.223,25.565,1.0
11.7666,128.209122,37.92399,6587.1123528,-65.973,-44.164,25.36,1.0
11.7833,128.209147,37.924018,6582.8597832000005,-65.866,-44.105,25.155,1.0
11.8,128.209171,37.924047,6578.6087376000005,-65.759,-44.046,24.951,1.0
11.8166,128.209196,37.924076,6574.359216,-65.653,-43.987,24.746,1.0
11.8333,128.209221,37.924104,6570.1109136000005,-65.548,-43.927,24.542,1.0
11.85,128.209245,37.924133,6565.8641352,-65.443,-43.868,24.338,1.0
11.8666,128.209269,37.924162,6561.6191856000005,-65.339,-43.808,24.134,1.0
11.8833,128.209294,37.924191,6557.375760000001,-65.235,-43.748,23.93,1.0
11.9,128.209318,37.92422,6553.1335536,-65.132,-43.688,23.727,1.0
11.9166,128.209342,37.92425,6548.8934808,-65.03,-43.628,23.523,1.0
11.9333,128.209365,37.924279,6544.654932,-64.928,-43.568,23.32,1.0
11.95,128.209389,37.924309,6540.4179072,-64.826,-43.507,23.117,1.0
11.9666,128.209413,37.924338,6536.182711200001,-64.725,-43.447,22.914,1.0
11.9833,128.209436,37.924368,6531.949344,-64.625,-43.386,22.711,1.0
12.0,128.209459,37.924398,6527.7178056,-64.525,-43.325,22.509,1.0
12.0166,128.209482,37.924428,6523.488096,-64.426,-43.264,22.307,1.0
12.0333,128.209505,37.924458,6519.260215200001,-64.327,-43.203,22.104,1.0
12.05,128.209528,37.924488,6515.0341632,-64.228,-43.141,21.902,1.0
12.0666,128.209551,37.924518,6510.8102448,-64.13,-43.08,21.701,1.0
12.0833,128.209574,37.924548,6506.5881552,-64.033,-43.018,21.499,1.0
12.1,128.209596,37.924578,6502.3681992,-63.936,-42.956,21.298,1.0
12.1166,128.209619,37.924609,6498.150072,-63.839,-42.895,21.096,1.0
12.1333,128.209641,37.92464,6493.9340784000005,-63.743,-42.832,20.895,1.0
12.15,128.209663,37.92467,6489.720218400001,-63.648,-42.77,20.695,1.0
12.1666,128.209685,37.924701,6485.508187200001,-63.552,-42.708,20.494,1.0
12.1833,128.209707,37.924732,6481.2985944,-63.458,-42.646,20.294,1.0
12.2,128.209729,37.924763,6477.0911352,-63.364,-42.583,20.093,1.0
12.2166,128.20975,37.924794,6472.8858096,-63.27,-42.521,19.894,1.0
12.2333,128.209772,37.924825,6468.6829224,-63.177,-42.458,19.694,1.0
12.25,128.209793,37.924857,6464.4821688,-63.084,-42.395,19.494,1.0
12.2666,128.209814,37.924888,6460.2835488,-62.991,-42.332,19.295,1.0
12.2833,128.209836,37.924919,6456.087672000001,-62.898,-42.268,19.096,1.0
12.3,128.209856,37.924951,6451.893928800001,-62.807,-42.205,18.897,1.0
12.3166,128.209877,37.924983,6447.702319200001,-62.715,-42.141,18.698,1.0
12.3333,128.209898,37.925015,6443.5134528,-62.624,-42.078,18.5,1.0
12.35,128.209919,37.925046,6439.327024800001,-62.532,-42.014,18.302,1.0
12.3666,128.209939,37.925078,6435.1430352,-62.441,-41.949,18.104,1.0
12.3833,128.209959,37.92511,6430.961484000001,-62.35,-41.885,17.906,1.0
12.4,128.209979,37.925143,6426.7823712,-62.26,-41.821,17.708,1.0
12.4166,128.209999,37.925175,6422.606001600001,-62.169,-41.756,17.511,1.0
12.4333,128.210019,37.925207,6418.4323752,-62.079,-41.691,17.314,1.0
12.45,128.210039,37.92524,6414.261187200001,-61.988,-41.626,17.117,1.0
12.4666,128.210059,37.925272,6410.092742400001,-61.897,-41.561,16.92,1.0
12.4833,128.210078,37.925305,6405.926736,-61.806,-41.495,16.724,1.0
12.5,128.210097,37.925338,6401.7637776,-61.716,-41.429,16.528,1.0
12.5166,128.210117,37.925371,6397.6032576,-61.625,-41.364,16.332,1.0
12.5333,128.210136,37.925403,6393.4457856,-61.534,-41.297,16.136,1.0
12.55,128.210155,37.925437,6389.291056800001,-61.443,-41.231,15.941,1.0
12.5666,128.210173,37.92547,6385.1390712,-61.352,-41.165,15.746,1.0
12.5833,128.210192,37.925503,6380.990133600001,-61.261,-41.098,15.551,1.0
12.6,128.210211,37.925536,6376.8439392,-61.17,-41.031,15.356,1.0
12.6166,128.210229,37.92557,6372.700792800001,-61.078,-40.964,15.162,1.0
12.6333,128.210247,37.925603,6368.5606944,-60.987,-40.896,14.968,1.0
12.65,128.210265,37.925637,6364.4233392,-60.895,-40.829,14.774,1.0
12.6666,128.210283,37.92567,6360.2893368000005,-60.802,-40.761,14.581,1.0
12.6833,128.210301,37.925704,6356.1580776,-60.71,-40.693,14.387,1.0
12.7,128.210319,37.925738,6352.0301712,-60.618,-40.624,14.194,1.0
12.7166,128.210336,37.925772,6347.9053128000005,-60.525,-40.556,14.002,1.0
12.7333,128.210354,37.925806,6343.7850264,-60.479,-40.5,13.799,1.0
12.75,128.210371,37.92584,6339.6683976,-60.479,-40.458,13.587,1.0
12.7666,128.210388,37.925875,6335.5557312,-60.528,-40.422,13.369,1.0
12.7833,128.210405,37.925909,6331.447332000001,-60.63,-40.388,13.149,1.0
12.8,128.210421,37.925943,6327.3422856,-60.782,-40.352,12.929,1.0
12.8166,128.210438,37.925978,6323.240896800001,-60.976,-40.314,12.71,1.0
12.8333,128.210454,37.926013,6319.142556000001,-61.2,-40.273,12.491,1.0
12.85,128.210471,37.926047,6315.047872800001,-61.443,-40.23,12.273,1.0
12.8666,128.210487,37.926082,6310.9562376,-61.7,-40.186,12.054,1.0
12.8833,128.210503,37.926117,6306.8679552,-61.966,-40.142,11.835,1.0
12.9,128.210519,37.926152,6302.7830256,-62.238,-40.097,11.614,1.0
12.9166,128.210534,37.926187,6298.7008392,-62.514,-40.054,11.392,1.0
12.9333,128.21055,37.926222,6294.622920000001,-62.868,-40.016,11.165,1.0
12.95,128.210565,37.926258,6290.5483536,-63.3,-39.985,10.932,1.0
12.9666,128.21058,37.926293,6286.4774448,-63.8,-39.958,10.697,1.0
12.9833,128.210595,37.926328,6282.4101936,-64.363,-39.932,10.459,1.0
13.0,128.21061,37.926364,6278.3459904,-64.979,-39.904,10.221,1.0
13.0166,128.210625,37.926399,6274.28514,-65.638,-39.877,9.983,1.0
13.0333,128.210639,37.926435,6270.226423200001,-66.28,-39.845,9.745,1.0
13.0499,128.210654,37.926471,6266.1698400000005,-66.899,-39.809,9.509,1.0
13.0666,128.210668,37.926507,6262.1156952,-67.491,-39.773,9.271,1.0
13.0833,128.210682,37.926543,6258.063684000001,-68.057,-39.739,9.032,1.0
13.1,128.210696,37.926579,6254.0135016,-68.599,-39.708,8.79,1.0
13.1166,128.210709,37.926615,6249.965148,-69.122,-39.68,8.546,1.0
13.1333,128.210723,37.926651,6245.9180136,-69.58,-39.651,8.301,1.0
13.15,128.210736,37.926687,6241.8720984,-69.978,-39.62,8.059,1.0
13.1666,128.210749,37.926723,6237.8274024,-70.325,-39.589,7.816,1.0
13.1833,128.210762,37.92676,6233.7839256,-70.627,-39.561,7.573,1.0
13.2,128.210775,37.926796,6229.7419728,-70.891,-39.536,7.329,1.0
13.2166,128.210788,37.926832,6225.7012392,-71.126,-39.514,7.085,1.0
13.2333,128.2108,37.926869,6221.66142,-71.315,-39.493,6.841,1.0
13.25,128.210813,37.926905,6217.622210400001,-71.465,-39.471,6.6,1.0
13.2666,128.210825,37.926942,6213.5845248000005,-71.582,-39.45,6.359,1.0
13.2833,128.210837,37.926979,6209.5480584,-71.672,-39.43,6.119,1.0
13.3,128.210849,37.927016,6205.512811200001,-71.74,-39.412,5.88,1.0
13.3166,128.210861,37.927052,6201.4784784,-71.79,-39.396,5.641,1.0
13.3333,128.210872,37.927089,6197.445060000001,-71.82,-39.379,5.403,1.0
13.35,128.210884,37.927126,6193.413165600001,-71.833,-39.363,5.167,1.0
13.3666,128.210895,37.927163,6189.3821856,-71.832,-39.347,4.932,1.0
13.3833,128.210906,37.9272,6185.352424800001,-71.82,-39.331,4.697,1.0
13.4,128.210917,37.927237,6181.323883200001,-71.799,-39.316,4.464,1.0
13.4166,128.210927,37.927274,6177.2965608,-71.771,-39.301,4.231,1.0
13.4333,128.210938,37.927312,6173.2704576,-71.735,-39.286,3.998,1.0
13.45,128.210948,37.927349,6169.2455736,-71.694,-39.271,3.767,1.0
13.4666,128.210958,37.927386,6165.2219088,-71.647,-39.255,3.537,1.0
13.4833,128.210968,37.927424,6161.1994632000005,-71.596,-39.24,3.307,1.0
13.5,128.210978,37.927461,6157.1782368,-71.542,-39.224,3.077,1.0
13.5166,128.210988,37.927499,6153.1585344,-71.485,-39.208,2.848,1.0
13.5333,128.210997,37.927536,6149.140051200001,-71.425,-39.191,2.62,1.0
13.55,128.211006,37.927574,6145.122787200001,-71.363,-39.175,2.392,1.0
13.5666,128.211015,37.927611,6141.107047200001,-71.299,-39.158,2.165,1.0
13.5833,128.211024,37.927649,6137.0925264,-71.233,-39.14,1.938,1.0
13.6,128.211033,37.927687,6133.0795296,-71.166,-39.122,1.712,1.0
13.6166,128.211041,37.927725,6129.067752000001,-71.097,-39.104,1.486,1.0
13.6333,128.21105,37.927763,6125.0574983999995,-71.028,-39.085,1.26,1.0
13.65,128.211058,37.9278,6121.0487688,-70.958,-39.067,1.035,1.0
13.6666,128.211066,37.927838,6117.0415632,-70.887,-39.047,0.81,1.0
13.6833,128.211074,37.927876,6113.0355768,-70.815,-39.027,0.585,1.0
13.7,128.211081,37.927914,6109.0314192000005,-70.743,-39.007,0.36,1.0
13.7166,128.211089,37.927953,6105.0284808,-70.67,-38.987,0.136,1.0
13.7333,128.211096,37.927991,6101.0270664,-70.597,-38.966,359.913,1.0
13.75,128.211103,37.928029,6097.0274808,-70.523,-38.944,359.689,1.0
13.7666,128.21111,37.928067,6093.0291144,-70.449,-38.922,359.466,1.0
13.7833,128.211116,37.928105,6089.0325768,-70.375,-38.9,359.243,1.0
13.8,128.211123,37.928144,6085.0375632000005,-70.301,-38.878,359.02,1.0
13.8166,128.211129,37.928182,6081.044378400001,-70.226,-38.854,358.797,1.0
13.8333,128.211135,37.928221,6077.0527176000005,-70.152,-38.831,358.575,1.0
13.85,128.211141,37.928259,6073.0625808,-70.077,-38.807,358.352,1.0
13.8666,128.211147,37.928298,6069.0742728000005,-70.003,-38.783,358.13,1.0
13.8833,128.211152,37.928336,6065.0874888,-69.928,-38.758,357.909,1.0
13.9,128.211158,37.928375,6061.102838400001,-69.853,-38.733,357.687,1.0
13.9166,128.211163,37.928413,6057.1194072,-69.779,-38.708,357.465,1.0
13.9333,128.211168,37.928452,6053.1381096000005,-69.704,-38.682,357.244,1.0
13.95,128.211172,37.928491,6049.1586408,-69.63,-38.656,357.023,1.0
13.9666,128.211177,37.92853,6045.180696,-69.557,-38.629,356.802,1.0
13.9833,128.211181,37.928569,6041.2048847999995,-69.484,-38.602,356.581,1.0
14.0,128.211186,37.928607,6037.230597600001,-69.411,-38.575,356.36,1.0
14.0166,128.211189,37.928646,6033.258444,-69.338,-38.547,356.14,1.0
14.0333,128.211193,37.928685,6029.2881192,-69.266,-38.519,355.919,1.0
14.05,128.211197,37.928724,6025.3196232,-69.195,-38.49,355.699,1.0
14.0666,128.2112,37.928763,6021.3532608000005,-69.124,-38.461,355.479,1.0
14.0833,128.211204,37.928802,6017.3887272,-69.053,-38.432,355.258,1.0
14.1,128.211207,37.928841,6013.4260224,-68.983,-38.403,355.039,1.0
14.1166,128.211209,37.928881,6009.465451200001,-68.914,-38.373,354.819,1.0
14.1333,128.211212,37.92892,6005.5067088000005,-68.845,-38.342,354.599,1.0
14.15,128.211214,37.928959,6001.5501,-68.777,-38.312,354.38,1.0
14.1666,128.211217,37.928998,5997.595624800001,-68.709,-38.281,354.16,1.0
14.1833,128.211219,37.929037,5993.643283200001,-68.643,-38.249,353.941,1.0
14.2,128.211221,37.929077,5989.692770400001,-68.576,-38.218,353.722,1.0
14.2166,128.211222,37.929116,5985.744696000001,-68.511,-38.186,353.503,1.0
14.2333,128.211224,37.929155,5981.798450400001,-68.446,-38.153,353.284,1.0
14.25,128.211225,37.929195,5977.854643199999,-68.382,-38.121,353.065,1.0
14.2666,128.211226,37.929234,5973.912664800001,-68.32,-38.088,352.846,1.0
14.2833,128.211227,37.929274,5969.973124800001,-68.258,-38.055,352.627,1.0
14.3,128.211228,37.929313,5966.0357184,-68.197,-38.021,352.408,1.0
