Time,Longitude,Latitude,Altitude,Roll (deg),Pitch (deg),Yaw (deg),Health
0.0,128.181881,37.923646,7000.146528,0.0,-0.003,0.0,1.0
0.0166,128.181881,37.923691,7000.1605488000005,0.0,-0.012,0.0,1.0
0.0333,128.181881,37.923736,7000.173960000001,0.0,-0.025,0.0,1.0
0.05,128.181881,37.923781,7000.186152000001,0.0,-0.039,0.0,1.0
0.0666,128.181881,37.923826,7000.1977344,0.0,-0.054,0.0,1.0
0.0833,128.181881,37.923871,7000.2084024,0.0,-0.069,359.999,1.0
0.1,128.181881,37.923916,7000.218156000001,0.0,-0.085,359.999,1.0
0.1166,128.181881,37.923961,7000.2273000000005,0.0,-0.099,359.999,1.0
0.1333,128.181881,37.924006,7000.235224800001,0.0,-0.112,359.999,1.0
0.15,128.181881,37.924051,7000.24254,0.0,-0.125,359.999,1.0
0.1666,128.181881,37.924096,7000.2489408,0.0,-0.136,359.999,1.0
0.1833,128.181881,37.924141,7000.2544272000005,0.0,-0.146,0.0,1.0
0.2,128.181881,37.924186,7000.2589992,0.0,-0.155,0.0,1.0
0.2166,128.181881,37.924231,7000.2626568000005,0.0,-0.163,0.0,1.0
0.2333,128.181881,37.924276,7000.2657048,0.0,-0.17,0.0,1.0
0.25,128.181881,37.924321,7000.267838400001,0.0,-0.176,0.0,1.0
0.2666,128.181881,37.924366,7000.2690575999995,0.0,-0.181,0.0,1.0
0.2833,128.181881,37.924411,7000.2696672,0.0,-0.186,0.0,1.0
0.3,128.181881,37.924456,7000.2690575999995,0.0,-0.19,0.0,1.0
0.3166,128.181881,37.924501,7000.267838400001,0.0,-0.195,0.0,1.0
0.3333,128.181881,37.924546,7000.266009600001,0.0,-0.199,0.0,1.0
0.35,128.181881,37.924591,7000.2632664,0.0,-0.202,0.0,1.0
0.3666,128.181881,37.924636,7000.2596088,0.001,-0.206,0.0,1.0
0.3833,128.181881,37.924682,7000.255341600001,0.001,-0.21,0.0,1.0
0.4,128.181881,37.924727,7000.2501600000005,0.001,-0.214,0.0,1.0
0.4166,128.181881,37.924772,7000.2443688,0.001,-0.217,0.0,1.0
0.4333,128.181881,37.924817,7000.2376632000005,0.001,-0.221,0.0,1.0
0.45,128.181881,37.924862,7000.2300432,0.001,-0.225,0.0,1.0
0.4666,128.181881,37.924907,7000.2218136,0.002,-0.229,0.0,1.0
0.4833,128.181881,37.924952,7000.2129744,0.002,-0.233,0.0,1.0
0.5,128.181881,37.924998,7000.2032208,0.002,-0.238,0.001,1.0
0.5166,128.181881,37.925043,7000.1928576,0.002,-0.242,0.001,1.0
0.5333,128.181881,37.925088,7000.1818848,0.002,-0.246,0.001,1.0
0.55,128.181881,37.925133,7000.169997600001,0.002,-0.251,0.001,1.0
0.5666,128.181881,37.925179,7000.157500800001,0.003,-0.255,0.001,1.0
0.5833,128.181881,37.925224,7000.1440896,0.003,-0.26,0.001,1.0
0.6,128.181881,37.925269,7000.1300688,0.003,-0.264,0.001,1.0
0.6166,128.181881,37.925314,7000.115438400001,0.003,-0.269,0.001,1.0
0.6333,128.181881,37.92536,7000.1001984,0.003,-0.273,0.001,1.0
0.65,128.181881,37.925405,7000.084044,0.003,-0.278,0.0,1.0
0.6666,128.181881,37.92545,7000.06728,0.003,-0.282,0.0,1.0
0.6833,128.181881,37.925495,7000.0499064000005,0.003,-0.287,0.001,1.0
0.7,128.181881,37.925541,7000.0316184,0.003,-0.291,0.001,1.0
0.7166,128.181881,37.925586,7000.012720799999,0.004,-0.295,0.001,1.0
0.7333,128.181881,37.925631,6999.993213600001,0.004,-0.3,0.001,1.0
0.75,128.181881,37.925677,6999.9730968,0.007,-0.305,0.002,1.0
0.7666,128.181881,37.925722,6999.9520656,0.011,-0.31,0.003,1.0
0.7833,128.181881,37.925767,6999.930120000001,0.017,-0.316,0.004,1.0
0.8,128.181881,37.925813,6999.907869600001,0.023,-0.321,0.005,1.0
0.8166,128.181881,37.925858,6999.885009600001,0.029,-0.326,0.006,1.0
0.8333,128.181881,37.925903,6999.86154,0.034,-0.33,0.006,1.0
0.85,128.181881,37.925949,6999.837765600001,0.034,-0.335,0.005,1.0
0.8666,128.181881,37.925994,6999.813991200001,0.025,-0.34,0.003,1.0
0.8833,128.181881,37.92604,6999.7902168,0.002,-0.346,0.0,1.0
0.9,128.181881,37.926085,6999.7652232,-0.025,-0.352,359.996,1.0
0.9166,128.181881,37.92613,6999.7402296,-0.059,-0.358,359.992,1.0
0.9333,128.181881,37.926176,6999.7146264,-0.099,-0.366,359.988,1.0
0.95,128.181881,37.926221,6999.6890232000005,-0.147,-0.373,359.983,1.0
0.9666,128.181881,37.926267,6999.662810400001,-0.202,-0.381,359.978,1.0
0.9833,128.181881,37.926312,6999.636292800001,-0.264,-0.389,359.972,1.0
1.0,128.181881,37.926358,6999.609470400001,-0.335,-0.396,359.966,1.0
1.0166,128.181881,37.926403,6999.5823432,-0.412,-0.404,359.96,1.0
1.0333,128.181881,37.926449,6999.554606400001,-0.496,-0.412,359.954,1.0
1.05,128.181881,37.926494,6999.5265648,-0.587,-0.42,359.947,1.0
1.0666,128.181881,37.92654,6999.496999200001,-0.575,-0.432,359.944,1.0
1.0833,128.181881,37.926585,6999.4662144,-0.462,-0.449,359.945,1.0
1.1,128.181881,37.926631,6999.433296,-0.247,-0.47,359.948,1.0
1.1166,128.181881,37.926676,6999.400377600001,-0.129,-0.492,359.938,1.0
1.1333,128.181881,37.926722,6999.3668496,-0.102,-0.515,359.916,1.0
1.15,128.181881,37.926767,6999.3330168,-0.17,-0.538,359.887,1.0
1.1666,128.181881,37.926813,6999.2994888,-0.336,-0.562,359.854,1.0
1.1833,128.181881,37.926858,6999.266570400001,-0.599,-0.584,359.82,1.0
1.2,128.181881,37.926904,6999.2345663999995,-0.958,-0.607,359.786,1.0
1.2166,128.181881,37.926949,6999.2034768,-1.409,-0.628,359.753,1.0
1.2333,128.181881,37.926995,6999.174215999999,-1.948,-0.648,359.72,1.0
1.25,128.181881,37.927041,6999.1467840000005,-2.573,-0.668,359.689,1.0
1.2666,128.181881,37.927086,6999.121485600001,-3.28,-0.687,359.659,1.0
1.2833,128.181881,37.927132,6999.0983208,-4.064,-0.704,359.629,1.0
1.3,128.181881,37.927177,6999.0772896,-4.923,-0.721,359.601,1.0
1.3166,128.181881,37.927223,6999.058392000001,-5.854,-0.737,359.574,1.0
1.3333,128.181881,37.927269,6999.0413232,-6.853,-0.753,359.547,1.0
1.35,128.181881,37.927314,6999.0260832,-7.917,-0.767,359.522,1.0
1.3666,128.181881,37.92736,6999.012976800001,-9.045,-0.781,359.497,1.0
1.3833,128.181881,37.927405,6999.0016992,-10.232,-0.795,359.474,1.0
1.4,128.181881,37.927451,6998.992250400001,-11.476,-0.808,359.451,1.0
1.4166,128.181881,37.927497,6998.9846304,-12.775,-0.821,359.428,1.0
1.4333,128.181881,37.927542,6998.9785344,-14.127,-0.833,359.407,1.0
1.45,128.181881,37.927588,6998.9742672,-15.528,-0.845,359.387,1.0
1.4666,128.181881,37.927633,6998.9715240000005,-16.977,-0.857,359.367,1.0
1.4833,128.18188,37.927679,6998.9703048,-18.472,-0.868,359.348,1.0
1.5,128.18188,37.927725,6998.970914400001,-20.01,-0.88,359.329,1.0
1.5166,128.18188,37.92777,6998.9727432,-21.59,-0.892,359.312,1.0
1.5333,128.18188,37.927816,6998.976096,-23.21,-0.903,359.295,1.0
1.55,128.18188,37.927862,6998.9809728,-24.867,-0.915,359.279,1.0
1.5666,128.18188,37.927907,6998.9870688,-26.56,-0.927,359.264,1.0
1.5833,128.181879,37.927953,6998.994079200001,-28.285,-0.939,359.249,1.0
1.6,128.181879,37.927998,6999.0013944,-30.033,-0.95,359.236,1.0
1.6166,128.181879,37.928044,6999.009624,-31.794,-0.962,359.225,1.0
1.6333,128.181878,37.92809,6999.0175488,-33.561,-0.973,359.216,1.0
1.65,128.181878,37.928135,6999.0257784000005,-35.327,-0.984,359.209,1.0
1.6666,128.181878,37.928181,6999.0340080000005,-37.088,-0.995,359.203,1.0
1.6833,128.181877,37.928227,6999.041628000001,-38.837,-1.005,359.199,1.0
1.7,128.181877,37.928272,6999.049248,-40.571,-1.015,359.196,1.0
1.7166,128.181877,37.928318,6999.0559536,-42.287,-1.025,359.194,1.0
1.7333,128.181876,37.928364,6999.0620496,-43.981,-1.035,359.194,1.0
1.75,128.181876,37.928409,6999.0675360000005,-45.652,-1.044,359.194,1.0
1.7666,128.181875,37.928455,6999.072108,-47.296,-1.054,359.196,1.0
1.7833,128.181875,37.928501,6999.0757656000005,-48.913,-1.063,359.198,1.0
1.8,128.181874,37.928547,6999.078204,-50.501,-1.073,359.201,1.0
1.8166,128.181874,37.928592,6999.079728000001,-52.058,-1.082,359.204,1.0
1.8333,128.181873,37.928638,6999.079728000001,-53.584,-1.091,359.208,1.0
1.85,128.181872,37.928684,6999.0785088,-55.076,-1.1,359.213,1.0
1.8666,128.181872,37.92873,6999.0757656000005,-56.532,-1.108,359.218,1.0
1.8833,128.181871,37.928775,6999.0714984,-57.953,-1.116,359.223,1.0
1.9,128.18187,37.928821,6999.0654024,-59.336,-1.125,359.229,1.0
1.9166,128.18187,37.928867,6999.0577824,-60.679,-1.132,359.235,1.0
1.9333,128.181869,37.928913,6999.048333600001,-61.982,-1.14,359.242,1.0
1.95,128.181868,37.928958,6999.0367512,-63.241,-1.147,359.248,1.0
1.9666,128.181867,37.929004,6999.02334,-64.457,-1.153,359.255,1.0
1.9833,128.181867,37.92905,6999.0077952,-65.626,-1.16,359.263,1.0
2.0,128.181866,37.929096,6998.9901168,-66.746,-1.166,359.27,1.0
2.0166,128.181865,37.929142,6998.97,-67.817,-1.171,359.278,1.0
2.0333,128.181864,37.929187,6998.9477496,-68.835,-1.176,359.286,1.0
2.05,128.181863,37.929233,6998.923060800001,-69.798,-1.181,359.293,1.0
2.0666,128.181863,37.929279,6998.895933600001,-70.704,-1.185,359.301,1.0
2.0833,128.181862,37.929325,6998.8660632,-71.551,-1.189,359.31,1.0
2.1,128.181861,37.929371,6998.8337544000005,-72.335,-1.193,359.318,1.0
2.1166,128.18186,37.929417,6998.7983976000005,-72.98,-1.191,359.328,1.0
2.1333,128.181859,37.929463,6998.760297600001,-73.491,-1.185,359.339,1.0
2.15,128.181858,37.929509,6998.718844800001,-73.869,-1.177,359.351,1.0
2.1666,128.181858,37.929555,6998.6746488,-74.118,-1.168,359.364,1.0
2.1833,128.181857,37.9296,6998.6274048000005,-74.242,-1.16,359.376,1.0
2.2,128.181856,37.929646,6998.576808,-74.246,-1.151,359.389,1.0
2.2166,128.181855,37.929692,6998.522858400001,-74.135,-1.142,359.403,1.0
2.2333,128.181854,37.929738,6998.465860800001,-73.916,-1.134,359.416,1.0
2.25,128.181854,37.929784,6998.405510400001,-73.592,-1.124,359.431,1.0
2.2666,128.181853,37.92983,6998.342112,-73.224,-1.113,359.446,1.0
2.2833,128.181852,37.929877,6998.275665600001,-72.811,-1.1,359.462,1.0
2.3,128.181851,37.929923,6998.2080000000005,-72.496,-1.097,359.46,1.0
2.3166,128.181851,37.929969,6998.137896,-72.268,-1.102,359.426,1.0
2.3333,128.18185,37.930015,6998.0653536,-72.139,-1.104,359.348,1.0
2.35,128.181849,37.930061,6997.990982400001,-72.114,-1.095,359.216,1.0
2.3666,128.181848,37.930107,6997.9147824,-72.193,-1.068,359.02,1.0
2.3833,128.181847,37.930153,6997.8373632,-72.376,-1.019,358.754,1.0
2.4,128.181846,37.930199,6997.758420000001,-72.66,-0.948,358.415,1.0
2.4166,128.181845,37.930245,6997.6782576,-73.04,-0.859,358.017,1.0
2.4333,128.181844,37.930291,6997.5974856,-73.515,-0.756,357.57,1.0
2.45,128.181843,37.930337,6997.516104,-74.078,-0.646,357.091,1.0
2.4666,128.181842,37.930384,6997.434112800001,-74.728,-0.535,356.597,1.0
2.4833,128.181841,37.93043,6997.3518168,-75.458,-0.428,356.105,1.0
2.5,128.181839,37.930476,6997.269216,-76.266,-0.331,355.631,1.0
2.5166,128.181838,37.930522,6997.186615200001,-77.147,-0.249,355.193,1.0
2.5333,128.181836,37.930568,6997.1034048,-78.099,-0.184,354.806,1.0
2.55,128.181834,37.930614,6997.0201944,-79.117,-0.141,354.488,1.0
2.5666,128.181832,37.93066,6996.9360696,-80.199,-0.119,354.253,1.0
2.5833,128.181831,37.930706,6996.8510304,-81.342,-0.121,354.115,1.0
2.6,128.181828,37.930752,6996.7653816,-82.546,-0.14,354.06,1.0
2.6166,128.181826,37.930798,6996.6782088,-83.81,-0.172,354.072,1.0
2.6333,128.181824,37.930845,6996.5898168,-85.132,-0.213,354.136,1.0
2.65,128.181821,37.930891,6996.499596000001,-86.513,-0.259,354.235,1.0
2.6666,128.181819,37.930937,6996.407546400001,-87.953,-0.307,354.354,1.0
2.6833,128.181816,37.930983,6996.3130584,-89.453,-0.355,354.476,1.0
2.7,128.181814,37.931029,6996.2164368,-91.012,-0.402,354.585,1.0
2.7166,128.181811,37.931075,6996.117072,-92.629,-0.448,354.665,1.0
2.7333,128.181808,37.931121,6996.014964000001,-94.305,-0.495,354.706,1.0
2.75,128.181805,37.931167,6995.909808,-96.038,-0.544,354.707,1.0
2.7666,128.181802,37.931213,6995.8012992,-97.826,-0.596,354.672,1.0
2.7833,128.181798,37.931259,6995.6891328,-99.668,-0.652,354.604,1.0
2.8,128.181795,37.931305,6995.573308800001,-101.561,-0.715,354.505,1.0
2.8166,128.181792,37.931351,6995.4535224,-103.503,-0.787,354.377,1.0
2.8333,128.181788,37.931397,6995.329164000001,-105.487,-0.867,354.224,1.0
2.85,128.181785,37.931443,6995.200538400001,-107.491,-0.957,354.047,1.0
2.8666,128.181781,37.93149,6995.0673408,-109.491,-1.058,353.847,1.0
2.8833,128.181777,37.931536,6994.9292663999995,-111.467,-1.17,353.626,1.0
2.9,128.181773,37.931582,6994.786315200001,-113.4,-1.295,353.386,1.0
2.9166,128.181769,37.931628,6994.638182400001,-115.275,-1.434,353.128,1.0
2.9333,128.181765,37.931674,6994.484563200001,-117.076,-1.587,352.854,1.0
2.95,128.181761,37.93172,6994.3254576,-118.793,-1.756,352.566,1.0
2.9666,128.181757,37.931766,6994.161170400001,-120.418,-1.942,352.266,1.0
2.9833,128.181753,37.931812,6993.9907872,-121.942,-2.145,351.956,1.0
3.0,128.181748,37.931858,6993.814308,-123.362,-2.364,351.636,1.0
3.0166,128.181744,37.931904,6993.6320376,-124.672,-2.598,351.312,1.0
3.0333,128.18174,37.93195,6993.4436712,-125.872,-2.841,350.992,1.0
3.05,128.181735,37.931996,6993.2492088,-126.961,-3.09,350.68,1.0
3.0666,128.18173,37.932042,6993.0480408,-127.94,-3.342,350.38,1.0
3.0833,128.181726,37.932088,6992.8398624,-128.862,-3.596,350.097,1.0
3.1,128.181721,37.932134,6992.6246736,-129.707,-3.85,349.83,1.0
3.1166,128.181716,37.93218,6992.402474400001,-130.458,-4.1,349.578,1.0
3.1333,128.181711,37.932226,6992.173264800001,-131.112,-4.345,349.341,1.0
3.15,128.181706,37.932272,6991.93674,-131.672,-4.585,349.118,1.0
3.1666,128.181701,37.932318,6991.693509600001,-132.132,-4.807,348.92,1.0
3.1833,128.181696,37.932365,6991.442964000001,-132.497,-5.0,348.757,1.0
3.2,128.181691,37.932411,6991.1851032,-132.781,-5.15,348.637,1.0
3.2166,128.181686,37.932457,6990.9205368,-132.988,-5.252,348.561,1.0
3.2333,128.18168,37.932503,6990.648655200001,-133.122,-5.307,348.528,1.0
3.25,128.181675,37.932549,6990.370068,-133.183,-5.319,348.538,1.0
3.2666,128.18167,37.932595,6990.0847752,-133.17,-5.295,348.584,1.0
3.2833,128.181664,37.932641,6989.794605600001,-133.259,-5.239,348.692,1.0
3.3,128.181659,37.932687,6989.4971208,-133.447,-5.16,348.851,1.0
3.3166,128.181653,37.932733,6989.1932352,-133.738,-5.065,349.044,1.0
3.3333,128.181647,37.932779,6988.8823392,-134.138,-4.961,349.256,1.0
3.35,128.181641,37.932826,6988.564737600001,-134.648,-4.857,349.472,1.0
3.3666,128.181636,37.932872,6988.2401256,-135.267,-4.754,349.686,1.0
3.3833,128.18163,37.932918,6987.908808,-135.996,-4.656,349.893,1.0
3.4,128.181624,37.932964,6987.57048,-136.831,-4.564,350.091,1.0
3.4166,128.181618,37.93301,6987.225141600001,-137.771,-4.478,350.279,1.0
3.4333,128.181612,37.933056,6986.873097600001,-138.813,-4.399,350.455,1.0
3.45,128.181606,37.933102,6986.513738400001,-139.954,-4.326,350.621,1.0
3.4666,128.1816,37.933148,6986.147368800001,-141.192,-4.261,350.776,1.0
3.4833,128.181594,37.933195,6985.7739888,-142.524,-4.202,350.92,1.0
3.5,128.181587,37.933241,6985.3929888,-143.947,-4.149,351.054,1.0
3.5166,128.181581,37.933287,6985.0049784,-145.458,-4.104,351.178,1.0
3.5333,128.181575,37.933333,6984.609348,-147.054,-4.064,351.293,1.0
3.55,128.181569,37.933379,6984.2064024,-148.734,-4.031,351.399,1.0
3.5666,128.181562,37.933425,6983.795532,-150.492,-4.004,351.497,1.0
3.5833,128.181556,37.933471,6983.3776512,-152.327,-3.982,351.587,1.0
3.6,128.181549,37.933517,6982.9524552,-154.235,-3.967,351.67,1.0
3.6166,128.181543,37.933563,6982.5205536,-156.213,-3.957,351.746,1.0
3.6333,128.181536,37.933609,6982.081336800001,-158.258,-3.96,351.813,1.0
3.65,128.18153,37.933656,6981.635414400001,-160.368,-3.982,351.869,1.0
3.6666,128.181523,37.933702,6981.1821768,-162.539,-4.026,351.916,1.0
3.6833,128.181517,37.933748,6980.7222336,-164.769,-4.094,351.954,1.0
3.7,128.18151,37.933794,6980.25528,-167.056,-4.186,351.985,1.0
3.7166,128.181503,37.93384,6979.781316,-169.396,-4.303,352.011,1.0
3.7333,128.181497,37.933886,6979.3000368,-171.785,-4.443,352.033,1.0
3.75,128.18149,37.933932,6978.8117472,-174.222,-4.606,352.055,1.0
3.7666,128.181483,37.933978,6978.316142400001,-176.701,-4.79,352.079,1.0
3.7833,128.181477,37.934024,6977.8129176,-179.218,-4.996,352.106,1.0
3.8,128.18147,37.93407,6977.3032920000005,178.245,-5.221,352.138,1.0
3.8166,128.181463,37.934116,6976.7863512,175.708,-5.463,352.176,1.0
3.8333,128.181456,37.934162,6976.2627048,173.187,-5.723,352.221,1.0
3.85,128.18145,37.934208,6975.7326576,170.695,-5.997,352.275,1.0
3.8666,128.181443,37.934255,6975.1956,168.246,-6.286,352.339,1.0
3.8833,128.181436,37.934301,6974.651836800001,165.849,-6.587,352.416,1.0
3.9,128.18143,37.934347,6974.101368000001,163.513,-6.9,352.506,1.0
3.9166,128.181423,37.934393,6973.5438888,161.243,-7.222,352.61,1.0
3.9333,128.181416,37.934439,6972.9790944,159.043,-7.551,352.73,1.0
3.95,128.18141,37.934485,6972.4069848,156.914,-7.884,352.865,1.0
3.9666,128.181403,37.934531,6971.827255200001,154.857,-8.219,353.015,1.0
3.9833,128.181396,37.934577,6971.2399056,152.871,-8.552,353.18,1.0
4.0,128.18139,37.934623,6970.6443264,150.955,-8.88,353.357,1.0
4.0166,128.181383,37.93467,6970.039908,149.101,-9.201,353.547,1.0
4.0333,128.181376,37.934716,6969.4269552000005,147.303,-9.511,353.746,1.0
4.05,128.18137,37.934762,6968.805163200001,145.553,-9.807,353.953,1.0
4.0666,128.181363,37.934808,6968.1739224,143.844,-10.089,354.166,1.0
4.0833,128.181357,37.934854,6967.5332328,142.169,-10.355,354.385,1.0
4.1,128.18135,37.9349,6966.8827896,140.522,-10.604,354.606,1.0
4.1166,128.181344,37.934946,6966.222897600001,138.896,-10.837,354.829,1.0
4.1333,128.181338,37.934993,6965.553252000001,137.287,-11.053,355.054,1.0
4.15,128.181332,37.935039,6964.8738528,135.688,-11.254,355.278,1.0
4.1666,128.181325,37.935085,6964.1843952,134.097,-11.438,355.502,1.0
4.1833,128.181319,37.935131,6963.4854888,132.51,-11.608,355.725,1.0
4.2,128.181313,37.935177,6962.776524000001,130.922,-11.764,355.946,1.0
4.2166,128.181307,37.935223,6962.0581104,129.332,-11.906,356.165,1.0
4.2333,128.181302,37.93527,6961.330248,127.737,-12.034,356.383,1.0
4.25,128.181296,37.935316,6960.592936800001,126.134,-12.151,356.598,1.0
4.2666,128.18129,37.935362,6959.846176800001,124.522,-12.255,356.81,1.0
4.2833,128.181285,37.935408,6959.090577600001,122.899,-12.349,357.02,1.0
4.3,128.181279,37.935454,6958.3273584,121.422,-12.43,357.21,1.0
4.3166,128.181274,37.9355,6957.5562144000005,120.086,-12.493,357.365,1.0
4.3333,128.181268,37.935547,6956.777755200001,118.893,-12.531,357.472,1.0
4.35,128.181263,37.935593,6955.9928952,117.843,-12.535,357.52,1.0
4.3666,128.181258,37.935639,6955.201634399999,116.932,-12.502,357.493,1.0
4.3833,128.181253,37.935685,6954.4045824,116.149,-12.445,357.405,1.0
4.4,128.181247,37.935731,6953.6017392,115.484,-12.372,357.273,1.0
4.4166,128.181242,37.935778,6952.793409600001,114.932,-12.291,357.112,1.0
4.4333,128.181237,37.935824,6951.9802032,114.486,-12.208,356.939,1.0
4.45,128.181232,37.93587,6951.162120000001,114.138,-12.131,356.771,1.0
4.4666,128.181227,37.935916,6950.33916,113.887,-12.061,356.612,1.0
4.4833,128.181222,37.935963,6949.511932800001,113.728,-11.997,356.465,1.0
4.5,128.181218,37.936009,6948.6807432,113.66,-11.939,356.327,1.0
4.5166,128.181213,37.936055,6947.8452864,113.679,-11.886,356.2,1.0
4.5333,128.181208,37.936102,6947.0058672000005,113.784,-11.838,356.081,1.0
4.55,128.181203,37.936148,6946.1624856,113.971,-11.795,355.971,1.0
4.5666,128.181198,37.936194,6945.315446400001,114.238,-11.754,355.868,1.0
4.5833,128.181193,37.936241,6944.4644448,114.583,-11.717,355.772,1.0
4.6,128.181188,37.936287,6943.609785600001,115.004,-11.682,355.682,1.0
4.6166,128.181183,37.936333,6942.751164,115.498,-11.65,355.597,1.0
4.6333,128.181178,37.93638,6941.8891896000005,116.063,-11.62,355.517,1.0
4.65,128.181173,37.936426,6941.0235576,116.698,-11.592,355.442,1.0
4.6666,128.181169,37.936473,6940.1545728,117.4,-11.565,355.371,1.0
4.6833,128.181164,37.936519,6939.2819304,118.167,-11.54,355.304,1.0
4.7,128.181159,37.936566,6938.4059352,118.997,-11.516,355.241,1.0
4.7166,128.181154,37.936612,6937.526587200001,119.889,-11.493,355.18,1.0
4.7333,128.181149,37.936659,6936.6438864,120.84,-11.471,355.122,1.0
4.75,128.181144,37.936705,6935.757832800001,121.849,-11.449,355.067,1.0
4.7666,128.181139,37.936752,6934.8687312,122.913,-11.428,355.014,1.0
4.7833,128.181134,37.936798,6933.9762768,124.033,-11.408,354.964,1.0
4.8,128.181129,37.936845,6933.0807744,125.204,-11.389,354.915,1.0
4.8166,128.181125,37.936892,6932.1819192,126.427,-11.369,354.869,1.0
4.8333,128.18112,37.936938,6931.2803208,127.7,-11.35,354.824,1.0
4.85,128.181115,37.936985,6930.3753696,129.02,-11.331,354.781,1.0
4.8666,128.18111,37.937031,6929.4676752,130.387,-11.313,354.739,1.0
4.8833,128.181105,37.937078,6928.5569328,131.8,-11.294,354.699,1.0
4.9,128.1811,37.937125,6927.643142400001,133.256,-11.276,354.659,1.0
4.9166,128.181095,37.937171,6926.726608800001,134.754,-11.257,354.622,1.0
4.9333,128.18109,37.937218,6925.807332,136.294,-11.239,354.585,1.0
4.95,128.181085,37.937265,6924.885312,137.873,-11.22,354.549,1.0
4.9666,128.18108,37.937312,6923.9605488,139.491,-11.202,354.515,1.0
4.9833,128.181075,37.937358,6923.0330424,141.147,-11.183,354.482,1.0
5.0,128.18107,37.937405,6922.1003544000005,142.631,-11.164,354.476,1.0
5.0166,128.181065,37.937452,6921.1643136,143.949,-11.157,354.507,1.0
5.0333,128.18106,37.937499,6920.223396,145.095,-11.181,354.578,1.0
5.05,128.181055,37.937546,6919.277601600001,146.067,-11.252,354.689,1.0
5.0666,128.18105,37.937592,6918.326016,146.864,-11.381,354.843,1.0
5.0833,128.181045,37.937639,6917.3680296,147.49,-11.575,355.039,1.0
5.1,128.18104,37.937686,6916.4036424000005,147.95,-11.823,355.266,1.0
5.1166,128.181035,37.937733,6915.4316352,148.253,-12.114,355.517,1.0
5.1333,128.18103,37.93778,6914.4517032,148.408,-12.432,355.78,1.0
5.15,128.181026,37.937826,6913.4632368,148.423,-12.761,356.047,1.0
5.1666,128.181021,37.937873,6912.4659312,148.307,-13.085,356.308,1.0
5.1833,128.181016,37.93792,6911.458872,148.069,-13.396,356.559,1.0
5.2,128.181012,37.937967,6910.4414496,147.716,-13.694,356.8,1.0
5.2166,128.181007,37.938014,6909.413359200001,147.254,-13.978,357.033,1.0
5.2333,128.181002,37.93806,6908.3739912,146.688,-14.249,357.258,1.0
5.25,128.180998,37.938107,6907.3230408,146.025,-14.508,357.477,1.0
5.2666,128.180994,37.938154,6906.2598984,145.269,-14.755,357.691,1.0
5.2833,128.180989,37.938201,6905.1842592,144.425,-14.992,357.902,1.0
5.3,128.180985,37.938248,6904.096428000001,143.496,-15.219,358.11,1.0
5.3166,128.180981,37.938294,6902.9967096,142.493,-15.437,358.317,1.0
5.3333,128.180977,37.938341,6901.8854088,141.433,-15.648,358.522,1.0
5.35,128.180973,37.938388,6900.7622208,140.329,-15.852,358.727,1.0
5.3666,128.180969,37.938434,6899.628060000001,139.194,-16.05,358.931,1.0
5.3833,128.180965,37.938481,6898.4826216,138.038,-16.242,359.135,1.0
5.4,128.180961,37.938528,6897.3262104000005,136.869,-16.428,359.34,1.0
5.4166,128.180958,37.938575,6896.1585216,135.693,-16.607,359.547,1.0
5.4333,128.180954,37.938621,6894.97986,134.515,-16.78,359.754,1.0
5.45,128.18095,37.938668,6893.7905304,133.339,-16.946,359.962,1.0
5.4666,128.180947,37.938714,6892.590228000001,132.166,-17.105,0.171,1.0
5.4833,128.180944,37.938761,6891.3792576,131.0,-17.257,0.381,1.0
5.5,128.180941,37.938808,6890.1576192,129.84,-17.402,0.592,1.0
5.5166,128.180937,37.938854,6888.9256176,128.687,-17.54,0.804,1.0
5.5333,128.180934,37.938901,6887.682948,127.54,-17.67,1.016,1.0
5.55,128.180932,37.938948,6886.4299152,126.4,-17.793,1.228,1.0
5.5666,128.180929,37.938994,6885.166824000001,125.266,-17.909,1.44,1.0
5.5833,128.180926,37.939041,6883.893674400001,124.137,-18.018,1.651,1.0
5.6,128.180924,37.939087,6882.6122952000005,123.136,-18.125,1.838,1.0
5.6166,128.180921,37.939134,6881.3220768,122.263,-18.222,1.986,1.0
5.6333,128.180919,37.93918,6880.023628800001,121.524,-18.298,2.082,1.0
5.65,128.180916,37.939227,6878.7166464,120.927,-18.342,2.117,1.0
5.6666,128.180914,37.939274,6877.4026536,120.474,-18.343,2.076,1.0
5.6833,128.180912,37.93932,6876.0786024,119.975,-18.279,1.968,1.0
5.7,128.18091,37.939367,6874.747236,119.425,-18.16,1.809,1.0
5.7166,128.180908,37.939413,6873.4079448,118.807,-18.005,1.612,1.0
5.7333,128.180906,37.93946,6872.061033600001,118.108,-17.83,1.391,1.0
5.75,128.180904,37.939506,6870.7074168,117.317,-17.649,1.161,1.0
5.7666,128.180903,37.939553,6869.3464848,116.427,-17.475,0.94,1.0
5.7833,128.180901,37.939599,6867.978847200001,115.434,-17.317,0.745,1.0
5.8,128.1809,37.939646,6866.604808800001,114.34,-17.176,0.575,1.0
5.8166,128.180898,37.939692,6865.224064800001,113.148,-17.05,0.426,1.0
5.8333,128.180897,37.939739,6863.8372248000005,111.864,-16.936,0.296,1.0
5.85,128.180895,37.939785,6862.444288799999,110.491,-16.833,0.179,1.0
5.8666,128.180894,37.939832,6861.0458664,109.034,-16.74,0.074,1.0
5.8833,128.180893,37.939878,6859.6419576,107.497,-16.655,359.979,1.0
5.9,128.180892,37.939925,6858.2328672,105.883,-16.577,359.894,1.0
5.9166,128.180891,37.939972,6856.8185952,104.196,-16.505,359.817,1.0
5.9333,128.18089,37.940018,6855.400056,102.44,-16.44,359.747,1.0
5.95,128.180889,37.940065,6853.976944800001,100.618,-16.381,359.684,1.0
5.9666,128.180889,37.940111,6852.5495664,98.733,-16.326,359.628,1.0
5.9833,128.180888,37.940158,6851.1182256,96.789,-16.275,359.578,1.0
6.0,128.180887,37.940204,6849.6832272,94.789,-16.229,359.534,1.0
6.0166,128.180887,37.940251,6848.2445712,92.737,-16.186,359.494,1.0
6.0333,128.180886,37.940297,6846.8025624,90.635,-16.147,359.46,1.0
6.05,128.180886,37.940344,6845.357505600001,88.486,-16.11,359.429,1.0
6.0666,128.180886,37.94039,6843.9094008,86.294,-16.076,359.403,1.0
6.0833,128.180885,37.940437,6842.4585528,84.061,-16.044,359.38,1.0
6.1,128.180885,37.940483,6841.0052663999995,81.789,-16.014,359.359,1.0
6.1166,128.180885,37.94053,6839.5495416,79.48,-15.985,359.342,1.0
6.1333,128.180885,37.940576,6838.0916832,77.138,-15.958,359.326,1.0
6.15,128.180885,37.940623,6836.6316912,74.763,-15.932,359.312,1.0
6.1666,128.180885,37.940669,6835.1701752,72.36,-15.907,359.3,1.0
6.1833,128.180885,37.940716,6833.7068304,69.929,-15.883,359.289,1.0
6.2,128.180885,37.940763,6832.2422664,67.473,-15.861,359.279,1.0
6.2166,128.180885,37.940809,6830.7761784,64.994,-15.839,359.27,1.0
6.2333,128.180885,37.940856,6829.309176,62.494,-15.819,359.262,1.0
6.25,128.180885,37.940902,6827.8412592,59.975,-15.799,359.254,1.0
6.2666,128.180885,37.940949,6826.3727328,57.44,-15.781,359.247,1.0
6.2833,128.180886,37.940996,6824.903596800001,54.889,-15.764,359.239,1.0
6.3,128.180886,37.941042,6823.434156,52.325,-15.747,359.231,1.0
6.3166,128.180886,37.941089,6821.964410400001,49.75,-15.732,359.223,1.0
6.3333,128.180887,37.941135,6820.4946648000005,47.164,-15.719,359.215,1.0
6.35,128.180887,37.941182,6819.025224000001,44.57,-15.707,359.207,1.0
6.3666,128.180888,37.941229,6817.556088000001,41.969,-15.696,359.198,1.0
6.3833,128.180888,37.941275,6816.0875616,39.362,-15.687,359.189,1.0
6.4,128.180889,37.941322,6814.6196448,36.751,-15.679,359.18,1.0
6.4166,128.180889,37.941369,6813.1523376000005,34.137,-15.673,359.17,1.0
6.4333,128.18089,37.941416,6811.6862496,31.52,-15.669,359.159,1.0
6.45,128.18089,37.941462,6810.2213808,28.902,-15.666,359.149,1.0
6.4666,128.180891,37.941509,6808.7577312,26.284,-15.666,359.138,1.0
6.4833,128.180892,37.941556,6807.2956056,23.666,-15.667,359.128,1.0
6.5,128.180892,37.941603,6805.8346992,21.049,-15.67,359.117,1.0
6.5166,128.180893,37.94165,6804.3759264,18.434,-15.675,359.106,1.0
6.5333,128.180894,37.941696,6802.918677600001,15.821,-15.682,359.096,1.0
6.55,128.180895,37.941743,6801.4632576,13.211,-15.691,359.086,1.0
6.5666,128.180895,37.94179,6800.0099712,10.604,-15.701,359.076,1.0
6.5833,128.180896,37.941837,6798.5585136,8.0,-15.714,359.067,1.0
6.6,128.180897,37.941884,6797.1094944,5.4,-15.728,359.058,1.0
6.6166,128.180898,37.941931,6795.6626088,2.804,-15.744,359.05,1.0
6.6333,128.180898,37.941978,6794.217856800001,0.212,-15.761,359.043,1.0
6.65,128.180899,37.942025,6792.775543199999,-2.375,-15.78,359.037,1.0
6.6666,128.1809,37.942072,6791.3353632,-4.959,-15.8,359.032,1.0
6.6833,128.180901,37.942119,6789.8967072,-7.333,-15.819,359.054,1.0
6.7,128.180901,37.942166,6788.458965600001,-9.507,-15.836,359.103,1.0
6.7166,128.180902,37.942213,6787.021833600001,-11.472,-15.85,359.169,1.0
6.7333,128.180903,37.94226,6785.5853112,-13.222,-15.863,359.243,1.0
6.75,128.180903,37.942307,6784.1490936,-14.754,-15.876,359.319,1.0
6.7666,128.180904,37.942354,6782.7122664,-16.074,-15.887,359.393,1.0
6.7833,128.180905,37.942401,6781.2748296,-17.189,-15.898,359.465,1.0
6.8,128.180905,37.942448,6779.8364784000005,-18.109,-15.907,359.533,1.0
6.8166,128.180906,37.942495,6778.3962984,-18.844,-15.915,359.6,1.0
6.8333,128.180907,37.942542,6776.9545944,-19.403,-15.921,359.664,1.0
6.85,128.180907,37.942589,6775.510452,-19.795,-15.927,359.726,1.0
6.8666,128.180908,37.942636,6774.0638712,-20.026,-15.932,359.787,1.0
6.8833,128.180908,37.942684,6772.614242400001,-20.106,-15.936,359.845,1.0
6.9,128.180909,37.942731,6771.1612608000005,-20.04,-15.94,359.902,1.0
6.9166,128.18091,37.942778,6769.7046216,-19.837,-15.945,359.958,1.0
6.9333,128.18091,37.942825,6768.244020000001,-19.502,-15.949,0.012,1.0
6.95,128.180911,37.942872,6766.7791512,-19.041,-15.955,0.065,1.0
6.9666,128.180912,37.94292,6765.309405600001,-18.462,-15.961,0.116,1.0
6.9833,128.180912,37.942967,6763.8356976000005,-17.768,-15.968,0.166,1.0
7.0,128.180913,37.943014,6762.3577224,-16.967,-15.976,0.215,1.0
7.0166,128.180913,37.943061,6760.8751752,-16.063,-15.986,0.262,1.0
7.0333,128.180914,37.943109,6759.388360800001,-15.062,-15.996,0.309,1.0
7.05,128.180915,37.943156,6757.8972792,-13.967,-16.008,0.354,1.0
7.0666,128.180915,37.943203,6756.4019304,-12.784,-16.022,0.398,1.0
7.0833,128.180916,37.943251,6754.9023144,-11.516,-16.037,0.441,1.0
7.1,128.180917,37.943298,6753.3984312,-10.168,-16.053,0.483,1.0
7.1166,128.180917,37.943345,6751.8902808,-8.745,-16.071,0.523,1.0
7.1333,128.180918,37.943393,6750.3778632,-7.248,-16.091,0.563,1.0
7.15,128.180919,37.94344,6748.8611784,-5.683,-16.112,0.601,1.0
7.1666,128.180919,37.943488,6747.340226400001,-4.052,-16.135,0.637,1.0
7.1833,128.18092,37.943535,6745.8150072,-2.358,-16.16,0.673,1.0
7.2,128.180921,37.943582,6744.2858256,-0.605,-16.186,0.707,1.0
7.2166,128.180921,37.94363,6742.752072,1.204,-16.213,0.739,1.0
7.2333,128.180922,37.943677,6741.214660800001,3.068,-16.243,0.77,1.0
7.25,128.180923,37.943725,6739.6726776000005,4.983,-16.274,0.8,1.0
7.2666,128.180923,37.943772,6738.1270368000005,6.948,-16.306,0.828,1.0
7.2833,128.180924,37.94382,6736.576824000001,8.959,-16.34,0.854,1.0
7.3,128.180925,37.943867,6735.0229536,11.014,-16.375,0.878,1.0
7.3166,128.180925,37.943915,6733.464816,13.113,-16.411,0.901,1.0
7.3333,128.180926,37.943963,6731.902411200001,15.251,-16.449,0.922,1.0
7.35,128.180926,37.94401,6730.3363488,17.429,-16.488,0.94,1.0
7.3666,128.180927,37.944058,6728.766324000001,19.643,-16.529,0.957,1.0
7.3833,128.180928,37.944105,6727.192032000001,21.893,-16.57,0.972,1.0
7.4,128.180928,37.944153,6725.6140824,24.178,-16.612,0.985,1.0
7.4166,128.180929,37.944201,6724.032170400001,26.494,-16.655,0.995,1.0
7.4333,128.18093,37.944248,6722.446296,28.842,-16.699,1.004,1.0
7.45,128.18093,37.944296,6720.856764,31.22,-16.743,1.01,1.0
7.4666,128.180931,37.944344,6719.263269600001,33.627,-16.788,1.014,1.0
7.4833,128.180931,37.944391,6717.6661176,36.061,-16.833,1.016,1.0
7.5,128.180932,37.944439,6716.0650032,38.522,-16.879,1.016,1.0
7.5166,128.180933,37.944487,6714.460231200001,41.008,-16.925,1.013,1.0
7.5333,128.180933,37.944535,6712.851496800001,43.519,-16.97,1.008,1.0
7.55,128.180934,37.944582,6711.239409600001,46.054,-17.016,1.001,1.0
7.5666,128.180934,37.94463,6709.6233600000005,48.612,-17.061,0.992,1.0
7.5833,128.180935,37.944678,6708.0039576,51.192,-17.106,0.98,1.0
7.6,128.180936,37.944726,6706.380592800001,53.793,-17.151,0.967,1.0
7.6166,128.180936,37.944774,6704.7538752,56.415,-17.195,0.952,1.0
7.6333,128.180937,37.944821,6703.123500000001,59.057,-17.238,0.934,1.0
7.65,128.180937,37.944869,6701.4894672,61.719,-17.281,0.915,1.0
7.6666,128.180938,37.944917,6699.8520816,64.399,-17.322,0.894,1.0
7.6833,128.180938,37.944965,6698.211038400001,67.098,-17.363,0.871,1.0
7.7,128.180939,37.945013,6696.566947200001,69.814,-17.402,0.846,1.0
7.7166,128.180939,37.945061,6694.9188936,72.547,-17.44,0.82,1.0
7.7333,128.18094,37.945109,6693.267792000001,75.296,-17.477,0.792,1.0
7.75,128.18094,37.945157,6691.613337600001,78.062,-17.513,0.764,1.0
7.7666,128.180941,37.945205,6689.9555304,80.843,-17.547,0.733,1.0
7.7833,128.180941,37.945253,6688.294370400001,83.639,-17.58,0.702,1.0
7.8,128.180942,37.945301,6686.6298576,86.449,-17.611,0.67,1.0
7.8166,128.180942,37.945349,6684.9622968,89.274,-17.64,0.637,1.0
7.8333,128.180943,37.945397,6683.291688000001,92.112,-17.669,0.603,1.0
7.85,128.180943,37.945445,6681.618031200001,94.964,-17.695,0.568,1.0
7.8666,128.180944,37.945493,6679.9410216,97.828,-17.72,0.533,1.0
7.8833,128.180944,37.945541,6678.261268800001,100.705,-17.743,0.497,1.0
7.9,128.180944,37.945589,6676.5781632,103.593,-17.765,0.461,1.0
7.9166,128.180945,37.945637,6674.892619200001,106.493,-17.785,0.425,1.0
7.9333,128.180945,37.945685,6673.2040272,109.404,-17.804,0.388,1.0
7.95,128.180946,37.945734,6671.512692,112.325,-17.821,0.351,1.0
7.9666,128.180946,37.945782,6669.8183088000005,115.257,-17.836,0.315,1.0
7.9833,128.180946,37.94583,6668.121792000001,118.198,-17.85,0.278,1.0
8.0,128.180947,37.945878,6666.4200936,120.909,-17.838,0.257,1.0
8.0166,128.180947,37.945926,6664.715956800001,123.38,-17.819,0.262,1.0
8.0333,128.180947,37.945975,6663.008772,125.597,-17.816,0.303,1.0
8.05,128.180948,37.946023,6661.2976248,127.556,-17.848,0.389,1.0
8.0666,128.180948,37.946071,6659.582210400001,129.262,-17.928,0.53,1.0
8.0833,128.180949,37.946119,6657.861614400001,130.723,-18.066,0.736,1.0
8.1,128.180949,37.946168,6656.135532,131.948,-18.271,1.012,1.0
8.1166,128.18095,37.946216,6654.402744,132.945,-18.547,1.363,1.0
8.1333,128.18095,37.946264,6652.6626408,133.727,-18.887,1.775,1.0
8.15,128.180951,37.946312,6650.9146128,134.305,-19.278,2.234,1.0
8.1666,128.180952,37.946361,6649.157440800001,134.702,-19.708,2.726,1.0
8.1833,128.180953,37.946409,6647.3908200000005,134.955,-20.161,3.233,1.0
8.2,128.180954,37.946457,6645.613836,135.101,-20.623,3.735,1.0
8.2166,128.180955,37.946505,6643.8261840000005,135.17,-21.075,4.217,1.0
8.2333,128.180956,37.946553,6642.0284736,135.195,-21.5,4.663,1.0
8.25,128.180957,37.946601,6640.2204,135.205,-21.881,5.055,1.0
8.2666,128.180959,37.946649,6638.4016584,135.222,-22.213,5.388,1.0
8.2833,128.18096,37.946697,6636.571944,135.26,-22.506,5.675,1.0
8.3,128.180962,37.946745,6634.7318663999995,135.33,-22.771,5.927,1.0
8.3166,128.180963,37.946793,6632.880816,135.442,-23.017,6.155,1.0
8.3333,128.180965,37.946841,6631.0194024,135.603,-23.252,6.366,1.0
8.35,128.180967,37.946889,6629.1473208,135.823,-23.48,6.564,1.0
8.3666,128.180969,37.946937,6627.264876,136.106,-23.702,6.749,1.0
8.3833,128.180971,37.946985,6625.3714584,136.457,-23.919,6.924,1.0
8.4,128.180973,37.947033,6623.467372800001,136.878,-24.132,7.089,1.0
8.4166,128.180975,37.947081,6621.5520096,137.367,-24.34,7.246,1.0
8.4333,128.180977,37.947128,6619.6256736000005,137.924,-24.543,7.394,1.0
8.45,128.180979,37.947176,6617.687145600001,138.453,-24.738,7.542,1.0
8.4666,128.180982,37.947224,6615.7361208,138.946,-24.925,7.689,1.0
8.4833,128.180984,37.947271,6613.772904,139.407,-25.106,7.833,1.0
8.5,128.180987,37.947319,6611.7965808,139.837,-25.284,7.972,1.0
8.5166,128.18099,37.947367,6609.807151200001,140.242,-25.46,8.105,1.0
8.5333,128.180993,37.947414,6607.804310400001,140.626,-25.636,8.233,1.0
8.55,128.180996,37.947462,6605.7877536000005,140.995,-25.812,8.355,1.0
8.5666,128.180999,37.947509,6603.758090400001,141.353,-25.987,8.473,1.0
8.5833,128.181002,37.947556,6601.715016,141.704,-26.163,8.587,1.0
8.6,128.181005,37.947604,6599.6585304,142.053,-26.338,8.697,1.0
8.6166,128.181009,37.947651,6597.5886336,142.4,-26.514,8.804,1.0
8.6333,128.181012,37.947698,6595.5050208,142.746,-26.689,8.909,1.0
8.65,128.181016,37.947746,6593.407996800001,143.093,-26.864,9.012,1.0
8.6666,128.181019,37.947793,6591.296952000001,143.442,-27.039,9.112,1.0
8.6833,128.181023,37.94784,6589.172496,143.794,-27.215,9.21,1.0
8.7,128.181027,37.947887,6587.034324,144.147,-27.39,9.306,1.0
8.7166,128.181031,37.947934,6584.8821312,144.502,-27.565,9.4,1.0
8.7333,128.181035,37.947981,6582.7162224,144.86,-27.74,9.493,1.0
8.75,128.181039,37.948028,6580.5362928,145.22,-27.916,9.583,1.0
8.7666,128.181043,37.948074,6578.342342400001,145.582,-28.092,9.672,1.0
8.7833,128.181048,37.948121,6576.1343712,145.945,-28.268,9.759,1.0
8.8,128.181052,37.948168,6573.912379200001,146.31,-28.444,9.844,1.0
8.8166,128.181057,37.948214,6571.6760616,146.677,-28.621,9.928,1.0
8.8333,128.181061,37.948261,6569.4257232,147.044,-28.798,10.01,1.0
8.85,128.181066,37.948308,6567.161059200001,147.412,-28.975,10.091,1.0
8.8666,128.181071,37.948354,6564.8820696,147.781,-29.153,10.17,1.0
8.8833,128.181075,37.9484,6562.588754400001,148.151,-29.331,10.247,1.0
8.9,128.18108,37.948447,6560.2808088,148.521,-29.51,10.323,1.0
8.9166,128.181085,37.948493,6557.9588424,148.892,-29.689,10.398,1.0
8.9333,128.181091,37.948539,6555.6222456000005,149.264,-29.869,10.471,1.0
8.95,128.181096,37.948586,6553.271018400001,149.635,-30.049,10.543,1.0
8.9666,128.181101,37.948632,6550.905465600001,150.006,-30.23,10.613,1.0
8.9833,128.181106,37.948678,6548.525282400001,150.377,-30.412,10.682,1.0
9.0,128.181112,37.948724,6546.130164,150.748,-30.594,10.749,1.0
9.0166,128.181117,37.94877,6543.720720000001,151.118,-30.777,10.815,1.0
9.0333,128.181123,37.948816,6541.2966456,151.487,-30.96,10.88,1.0
9.05,128.181129,37.948861,6538.857636000001,151.853,-31.143,10.944,1.0
9.0666,128.181134,37.948907,6536.4036912,152.218,-31.328,11.006,1.0
9.0833,128.18114,37.948953,6533.935116,152.578,-31.512,11.067,1.0
9.1,128.181146,37.948998,6531.4516056,152.935,-31.697,11.127,1.0
9.1166,128.181152,37.949044,6528.9543792,153.379,-31.886,11.178,1.0
9.1333,128.181158,37.949089,6526.443132,153.905,-32.078,11.22,1.0
9.15,128.181164,37.949135,6523.917864,154.503,-32.272,11.257,1.0
9.1666,128.18117,37.94918,6521.37888,155.157,-32.466,11.292,1.0
9.1833,128.181176,37.949226,6518.8258752,155.853,-32.66,11.328,1.0
9.2,128.181183,37.949271,6516.2579352,156.576,-32.852,11.364,1.0
9.2166,128.181189,37.949316,6513.6753648,157.311,-33.044,11.401,1.0
9.2333,128.181195,37.949361,6511.0772496,158.046,-33.236,11.438,1.0
9.25,128.181202,37.949406,6508.4641992,158.77,-33.428,11.475,1.0
9.2666,128.181208,37.949451,6505.835604,159.477,-33.62,11.51,1.0
9.2833,128.181215,37.949496,6503.191159200001,160.158,-33.813,11.543,1.0
9.3,128.181222,37.949541,6500.531169600001,160.81,-34.006,11.575,1.0
9.3166,128.181228,37.949586,6497.8550256,161.428,-34.201,11.605,1.0
9.3333,128.181235,37.94963,6495.1633368,162.013,-34.397,11.632,1.0
9.35,128.181242,37.949675,6492.4557984,162.563,-34.595,11.658,1.0
9.3666,128.181248,37.949719,6489.732105600001,163.078,-34.793,11.681,1.0
9.3833,128.181255,37.949764,6486.9925632,163.558,-34.993,11.703,1.0
9.4,128.181262,37.949808,6484.2368664,164.007,-35.195,11.722,1.0
9.4166,128.181269,37.949852,6481.465624800001,164.425,-35.397,11.738,1.0
9.4333,128.181276,37.949897,6478.678533600001,164.814,-35.6,11.753,1.0
9.45,128.181283,37.949941,6475.875288000001,165.178,-35.804,11.766,1.0
9.4666,128.18129,37.949985,6473.056192800001,165.518,-36.008,11.777,1.0
9.4833,128.181297,37.950029,6470.2215528,165.837,-36.213,11.786,1.0
9.5,128.181304,37.950072,6467.3710632,166.136,-36.418,11.793,1.0
9.5166,128.181311,37.950116,6464.5044192000005,166.418,-36.623,11.799,1.0
9.5333,128.181319,37.95016,6461.6222304,166.683,-36.827,11.804,1.0
9.55,128.181326,37.950204,6458.7244968,166.936,-37.032,11.808,1.0
9.5666,128.181333,37.950247,6455.8106088,167.175,-37.237,11.811,1.0
9.5833,128.18134,37.950291,6452.881176,167.405,-37.441,11.813,1.0
9.6,128.181348,37.950334,6449.9358936,167.624,-37.645,11.815,1.0
9.6166,128.181355,37.950377,6446.9750664,167.835,-37.848,11.815,1.0
9.6333,128.181362,37.950421,6443.9983896,168.039,-38.051,11.816,1.0
9.65,128.18137,37.950464,6441.006168,168.237,-38.253,11.815,1.0
9.6666,128.181377,37.950507,6437.997792000001,168.428,-38.455,11.814,1.0
9.6833,128.181384,37.95055,6434.974176,168.615,-38.657,11.812,1.0
9.7,128.181392,37.950593,6431.934710400001,168.797,-38.858,11.81,1.0
9.7166,128.181399,37.950635,6428.8793952000005,168.975,-39.058,11.808,1.0
9.7333,128.181407,37.950678,6425.8085352,169.15,-39.258,11.805,1.0
9.75,128.181414,37.950721,6422.7218256,169.321,-39.458,11.801,1.0
9.7666,128.181422,37.950763,6419.6195712,169.49,-39.657,11.797,1.0
9.7833,128.181429,37.950806,6416.5017720000005,169.655,-39.856,11.793,1.0
9.8,128.181437,37.950848,6413.368123200001,169.818,-40.054,11.788,1.0
9.8166,128.181445,37.95089,6410.2189296,169.978,-40.252,11.783,1.0
9.8333,128.181452,37.950933,6407.054191200001,170.135,-40.45,11.778,1.0
9.85,128.18146,37.950975,6403.8736032,170.29,-40.647,11.773,1.0
9.8666,128.181467,37.951017,6400.677470400001,170.442,-40.844,11.767,1.0
9.8833,128.181475,37.951059,6397.465792800001,170.591,-41.04,11.761,1.0
9.9,128.181483,37.951101,6394.238570400001,170.738,-41.237,11.754,1.0
9.9166,128.18149,37.951142,6390.9958032,170.882,-41.432,11.748,1.0
9.9333,128.181498,37.951184,6387.7374912000005,171.022,-41.628,11.741,1.0
9.95,128.181506,37.951226,6384.4636344,171.159,-41.823,11.735,1.0
9.9666,128.181514,37.951267,6381.173928,171.292,-42.019,11.728,1.0
9.9833,128.181521,37.951309,6377.868981600001,171.422,-42.213,11.721,1.0
10.0,128.181529,37.95135,6374.5484904,171.547,-42.408,11.714,1.0
10.0166,128.181537,37.951391,6371.2121496,171.668,-42.602,11.708,1.0
10.0333,128.181545,37.951432,6367.860568800001,171.784,-42.796,11.701,1.0
10.05,128.181552,37.951473,6364.4934432,171.896,-42.99,11.695,1.0
10.0666,128.18156,37.951514,6361.1110776000005,172.002,-43.184,11.688,1.0
10.0833,128.181568,37.951555,6357.7128624,172.103,-43.377,11.682,1.0
10.1,128.181576,37.951596,6354.2994072,172.199,-43.57,11.676,1.0
10.1166,128.181584,37.951637,6350.8704072,172.29,-43.763,11.671,1.0
10.1333,128.181591,37.951677,6347.4261672,172.377,-43.956,11.666,1.0
10.15,128.181599,37.951718,6343.966687200001,172.458,-44.149,11.661,1.0
10.1666,128.181607,37.951758,6340.4916624,172.536,-44.341,11.656,1.0
10.1833,128.181615,37.951798,6337.001397600001,172.609,-44.534,11.652,1.0
10.2,128.181623,37.951839,6333.495588000001,172.68,-44.726,11.648,1.0
10.2166,128.181631,37.951879,6329.9748432,172.747,-44.918,11.645,1.0
10.2333,128.181638,37.951919,6326.4385536,172.812,-45.109,11.643,1.0
10.25,128.181646,37.951959,6322.8873288,172.874,-45.3,11.645,1.0
10.2666,128.181654,37.951998,6319.320864,172.934,-45.491,11.651,1.0
10.2833,128.181662,37.952038,6315.7388544000005,172.991,-45.681,11.662,1.0
10.3,128.18167,37.952078,6312.141909600001,173.045,-45.871,11.678,1.0
10.3166,128.181678,37.952117,6308.529724800001,173.093,-46.06,11.698,1.0
10.3333,128.181686,37.952157,6304.9026048000005,173.135,-46.249,11.72,1.0
10.35,128.181693,37.952196,6301.25994,173.171,-46.438,11.743,1.0
10.3666,128.181701,37.952235,6297.60234,173.199,-46.626,11.767,1.0
10.3833,128.181709,37.952274,6293.9298048,173.222,-46.815,11.79,1.0
10.4,128.181717,37.952313,6290.2420296,173.238,-47.004,11.813,1.0
10.4166,128.181725,37.952352,6286.5393192,173.251,-47.192,11.836,1.0
10.4333,128.181733,37.952391,6282.8216736,173.259,-47.381,11.86,1.0
10.45,128.181741,37.95243,6279.089092800001,173.264,-47.569,11.883,1.0
10.4666,128.181749,37.952468,6275.3418816,173.265,-47.758,11.907,1.0
10.4833,128.181756,37.952507,6271.5794304,173.265,-47.946,11.931,1.0
10.5,128.181764,37.952545,6267.8023488,173.262,-48.135,11.956,1.0
10.5166,128.181772,37.952583,6264.010332000001,173.258,-48.323,11.98,1.0
10.5333,128.18178,37.952622,6260.2036848,173.253,-48.511,12.005,1.0
10.55,128.181788,37.95266,6256.3824072,173.246,-48.699,12.031,1.0
10.5666,128.181796,37.952698,6252.5461944,173.238,-48.887,12.056,1.0
10.5833,128.181804,37.952736,6248.695351200001,173.23,-49.075,12.082,1.0
10.6,128.181812,37.952773,6244.8298776,173.22,-49.263,12.108,1.0
10.6166,128.18182,37.952811,6240.9500784,173.211,-49.45,12.134,1.0
10.6333,128.181827,37.952848,6237.055344,173.2,-49.638,12.161,1.0
10.65,128.181835,37.952886,6233.146284000001,173.189,-49.826,12.188,1.0
10.6666,128.181843,37.952923,6229.2222888,173.177,-50.013,12.215,1.0
10.6833,128.181851,37.95296,6225.2842728000005,173.165,-50.201,12.243,1.0
10.7,128.181859,37.952998,6221.3316264000005,173.152,-50.388,12.271,1.0
10.7166,128.181867,37.953035,6217.3643496,173.138,-50.575,12.3,1.0
10.7333,128.181875,37.953071,6213.382747200001,173.123,-50.763,12.328,1.0
10.75,128.181883,37.953108,6209.386819200001,173.107,-50.95,12.357,1.0
10.7666,128.18189,37.953145,6205.3765656000005,173.09,-51.137,12.387,1.0
10.7833,128.181898,37.953181,6201.3519864,173.072,-51.324,12.417,1.0
10.8,128.181906,37.953218,6197.3130816,173.053,-51.511,12.447,1.0
10.8166,128.181914,37.953254,6193.2598512,173.032,-51.698,12.478,1.0
10.8333,128.181922,37.95329,6189.1926,173.01,-51.885,12.509,1.0
10.85,128.18193,37.953326,6185.1107184,172.987,-52.073,12.541,1.0
10.8666,128.181938,37.953362,6181.0151208,172.963,-52.26,12.573,1.0
10.8833,128.181945,37.953398,6176.905197600001,172.938,-52.447,12.605,1.0
10.9,128.181953,37.953434,6172.7812536,172.912,-52.634,12.638,1.0
10.9166,128.181961,37.95347,6168.642984000001,172.884,-52.821,12.671,1.0
10.9333,128.181969,37.953505,6164.4909984,172.856,-53.008,12.705,1.0
10.95,128.181977,37.953541,6160.324992000001,172.826,-53.195,12.739,1.0
10.9666,128.181985,37.953576,6156.144660000001,172.796,-53.382,12.773,1.0
10.9833,128.181992,37.953611,6151.950612,172.765,-53.569,12.808,1.0
11.0,128.182,37.953646,6147.742848,172.733,-53.756,12.844,1.0
11.0166,128.182008,37.953681,6143.5210632,172.7,-53.943,12.88,1.0
11.0333,128.182016,37.953716,6139.2855624,172.667,-54.13,12.916,1.0
11.05,128.182024,37.953751,6135.036040800001,172.632,-54.317,12.953,1.0
11.0666,128.182032,37.953785,6130.7728031999995,172.598,-54.504,12.99,1.0
11.0833,128.182039,37.95382,6126.496154400001,172.562,-54.691,13.028,1.0
11.1,128.182047,37.953854,6122.2054848,172.526,-54.878,13.066,1.0
11.1166,128.182055,37.953888,6117.9010992,172.49,-55.065,13.105,1.0
11.1333,128.182063,37.953922,6113.583302399999,172.453,-55.251,13.144,1.0
11.15,128.182071,37.953956,6109.2520944,172.416,-55.438,13.184,1.0
11.1666,128.182078,37.95399,6104.906865600001,172.378,-55.625,13.224,1.0
11.1833,128.182086,37.954024,6100.5485304,172.339,-55.812,13.265,1.0
11.2,128.182094,37.954058,6096.1764792,172.3,-55.998,13.307,1.0
11.2166,128.182102,37.954091,6091.7910168,172.26,-56.185,13.349,1.0
11.2333,128.182109,37.954125,6087.392448,172.22,-56.372,13.391,1.0
11.25,128.182117,37.954158,6082.9801632,172.18,-56.558,13.434,1.0
11.2666,128.182125,37.954191,6078.554772,172.139,-56.745,13.477,1.0
11.2833,128.182133,37.954224,6074.1159696,172.097,-56.932,13.521,1.0
11.3,128.18214,37.954257,6069.663756000001,172.056,-57.118,13.566,1.0
11.3166,128.182148,37.95429,6065.198436000001,172.013,-57.305,13.611,1.0
11.3333,128.182156,37.954322,6060.720009600001,171.97,-57.492,13.657,1.0
11.35,128.182164,37.954355,6056.2284768,171.927,-57.678,13.703,1.0
11.3666,128.182171,37.954387,6051.7238376000005,171.883,-57.865,13.75,1.0
11.3833,128.182179,37.954419,6047.206092,171.838,-58.051,13.798,1.0
11.4,128.182187,37.954451,6042.6752400000005,171.794,-58.238,13.846,1.0
11.4166,128.182195,37.954483,6038.1312816,171.748,-58.425,13.895,1.0
11.4333,128.182202,37.954515,6033.5745216000005,171.702,-58.611,13.944,1.0
11.45,128.18221,37.954547,6029.00496,171.656,-58.798,13.994,1.0
11.4666,128.182218,37.954579,6024.422292,171.609,-58.984,14.045,1.0
11.4833,128.182225,37.95461,6019.8268224,171.561,-59.171,14.096,1.0
11.5,128.182233,37.954642,6015.218856,171.513,-59.357,14.148,1.0
11.5166,128.182241,37.954673,6010.597783200001,171.464,-59.544,14.201,1.0
11.5333,128.182248,37.954704,6005.9639088,171.415,-59.731,14.254,1.0
11.55,128.182256,37.954735,6001.317537600001,171.365,-59.917,14.308,1.0
11.5666,128.182264,37.954766,5996.6586696,171.314,-60.104,14.363,1.0
11.5833,128.182271,37.954796,5991.987,171.263,-60.29,14.419,1.0
11.6,128.182279,37.954827,5987.302833600001,171.211,-60.477,14.475,1.0
11.6166,128.182286,37.954857,5982.606170400001,171.159,-60.663,14.532,1.0
11.6333,128.182294,37.954888,5977.897010400001,171.106,-60.85,14.59,1.0
11.65,128.182302,37.954918,5973.1753536,171.052,-61.037,14.648,1.0
11.6666,128.182309,37.954948,5968.4412,170.997,-61.223,14.708,1.0
11.6833,128.182317,37.954978,5963.694854400001,170.942,-61.41,14.768,1.0
11.7,128.182325,37.955008,5958.9363168,170.887,-61.596,14.829,1.0
11.7166,128.182332,37.955037,5954.1652824,170.83,-61.783,14.89,1.0
11.7333,128.18234,37.955067,5949.382056,170.773,-61.969,14.953,1.0
11.75,128.182347,37.955096,5944.5866376,170.715,-62.156,15.016,1.0
11.7666,128.182355,37.955125,5939.7790272,170.656,-62.342,15.081,1.0
11.7833,128.182362,37.955154,5934.959224800001,170.597,-62.529,15.146,1.0
11.8,128.18237,37.955183,5930.1275352,170.536,-62.716,15.212,1.0
11.8166,128.182377,37.955212,5925.2836536,170.475,-62.902,15.279,1.0
11.8333,128.182385,37.955241,5920.4278848,170.413,-63.089,15.347,1.0
11.85,128.182392,37.955269,5915.560228800001,170.351,-63.275,15.416,1.0
11.8666,128.1824,37.955298,5910.6806856,170.287,-63.462,15.485,1.0
11.8833,128.182407,37.955326,5905.7889504,170.223,-63.648,15.556,1.0
11.9,128.182415,37.955354,5900.885937600001,170.157,-63.835,15.628,1.0
11.9166,128.182422,37.955382,5895.9707328,170.091,-64.022,15.701,1.0
11.9333,128.18243,37.95541,5891.0439456,170.024,-64.208,15.775,1.0
11.95,128.182437,37.955438,5886.105576,169.956,-64.395,15.85,1.0
11.9666,128.182445,37.955465,5881.1553192,169.887,-64.581,15.926,1.0
11.9833,128.182452,37.955493,5876.1937848,169.816,-64.768,16.003,1.0
12.0,128.18246,37.95552,5871.2203632,169.745,-64.954,16.081,1.0
12.0166,128.182467,37.955547,5866.235664000001,169.673,-65.141,16.161,1.0
12.0333,128.182475,37.955574,5861.2393824,169.6,-65.327,16.242,1.0
12.05,128.182482,37.955601,5856.231823200001,169.525,-65.514,16.323,1.0
12.0666,128.182489,37.955628,5851.2129864,169.45,-65.7,16.407,1.0
12.0833,128.182497,37.955654,5846.1825672,169.373,-65.887,16.491,1.0
12.1,128.182504,37.955681,5841.1408704000005,169.295,-66.073,16.577,1.0
12.1166,128.182511,37.955707,5836.088200800001,169.216,-66.26,16.664,1.0
12.1333,128.182519,37.955733,5831.0242536,169.136,-66.446,16.752,1.0
12.15,128.182526,37.955759,5825.949028800001,169.054,-66.633,16.842,1.0
12.1666,128.182533,37.955785,5820.8628312,168.972,-66.819,16.933,1.0
12.1833,128.182541,37.955811,5815.765356000001,168.888,-67.006,17.025,1.0
12.2,128.182548,37.955836,5810.6572128,168.803,-67.192,17.119,1.0
12.2166,128.182555,37.955862,5805.537792000001,168.716,-67.378,17.215,1.0
12.2333,128.182563,37.955887,5800.4077032,168.629,-67.565,17.311,1.0
12.25,128.18257,37.955912,5795.2666416,168.541,-67.751,17.41,1.0
12.2666,128.182577,37.955937,5790.114912,168.451,-67.937,17.51,1.0
12.2833,128.182585,37.955962,5784.9522096,168.36,-68.124,17.611,1.0
12.3,128.182592,37.955986,5779.7788392,168.269,-68.31,17.714,1.0
12.3166,128.182599,37.956011,5774.5951056,168.176,-68.496,17.819,1.0
12.3333,128.182606,37.956035,5769.4003992,168.082,-68.683,17.925,1.0
12.35,128.182613,37.95606,5764.1953296,167.986,-68.869,18.033,1.0
12.3666,128.182621,37.956084,5758.979592000001,167.89,-69.055,18.143,1.0
12.3833,128.182628,37.956108,5753.7534912,167.792,-69.241,18.255,1.0
12.4,128.182635,37.956131,5748.516722400001,167.692,-69.428,18.368,1.0
12.4166,128.182642,37.956155,5743.2698952,167.591,-69.614,18.484,1.0
12.4333,128.182649,37.956178,5738.0124000000005,167.489,-69.8,18.601,1.0
12.45,128.182656,37.956202,5732.744846400001,167.385,-69.986,18.721,1.0
12.4666,128.182664,37.956225,5727.4672344,167.279,-70.172,18.842,1.0
12.4833,128.182671,37.956248,5722.1792592,167.172,-70.358,18.966,1.0
12.5,128.182678,37.956271,5716.8809208,167.063,-70.544,19.091,1.0
12.5166,128.182685,37.956293,5711.572828800001,166.952,-70.73,19.219,1.0
12.5333,128.182692,37.956316,5706.254678400001,166.839,-70.916,19.349,1.0
12.55,128.182699,37.956338,5700.926469600001,166.724,-71.102,19.482,1.0
12.5666,128.182706,37.956361,5695.5885072,166.607,-71.288,19.617,1.0
12.5833,128.182713,37.956383,5690.2404864,166.488,-71.474,19.754,1.0
12.6,128.18272,37.956405,5684.8824072,166.367,-71.66,19.894,1.0
12.6166,128.182727,37.956426,5679.514879200001,166.243,-71.845,20.037,1.0
12.6333,128.182734,37.956448,5674.137597600001,166.116,-72.031,20.183,1.0
12.65,128.182741,37.95647,5668.7505624,165.988,-72.217,20.331,1.0
12.6666,128.182748,37.956491,5663.354078400001,165.856,-72.402,20.482,1.0
12.6833,128.182755,37.956512,5657.9478408,165.722,-72.588,20.636,1.0
12.7,128.182762,37.956533,5652.5321544,165.585,-72.773,20.793,1.0
12.7166,128.182769,37.956554,5647.107019200001,165.445,-72.959,20.953,1.0
12.7333,128.182776,37.956574,5641.6724352,165.302,-73.144,21.117,1.0
12.75,128.182783,37.956595,5636.2284024,165.155,-73.33,21.284,1.0
12.7666,128.18279,37.956615,5630.775225599999,165.006,-73.515,21.454,1.0
12.7833,128.182796,37.956636,5625.3129048,164.853,-73.7,21.628,1.0
12.8,128.182803,37.956656,5619.8411352,164.696,-73.885,21.806,1.0
12.8166,128.18281,37.956675,5614.3602216,164.536,-74.07,21.988,1.0
12.8333,128.182817,37.956695,5608.870468800001,164.372,-74.255,22.173,1.0
12.85,128.182824,37.956715,5603.3712672,164.204,-74.44,22.363,1.0
12.8666,128.18283,37.956734,5597.863531200001,164.031,-74.625,22.557,1.0
12.8833,128.182837,37.956753,5592.3466512,163.855,-74.809,22.755,1.0
12.9,128.182844,37.956772,5586.8209320000005,163.674,-74.994,22.959,1.0
12.9166,128.182851,37.956791,5581.286373600001,163.489,-75.178,23.166,1.0
12.9333,128.182857,37.95681,5575.7429759999995,163.298,-75.362,23.379,1.0
12.95,128.182864,37.956829,5570.191044,163.103,-75.546,23.597,1.0
12.9666,128.182871,37.956847,5564.6302728,162.902,-75.73,23.82,1.0
12.9833,128.182877,37.956865,5559.0609672,162.696,-75.914,24.049,1.0
13.0,128.182884,37.956884,5553.4831272,162.485,-76.098,24.284,1.0
13.0166,128.182891,37.956901,5547.8967528,162.267,-76.282,24.524,1.0
13.0333,128.182897,37.956919,5542.301844,162.044,-76.465,24.771,1.0
13.0499,128.182904,37.956937,5536.699010400001,161.814,-76.648,25.024,1.0
13.0666,128.182911,37.956954,5531.087337600001,161.578,-76.831,25.284,1.0
13.0833,128.182917,37.956972,5525.46774,161.334,-77.014,25.55,1.0
13.1,128.182924,37.956989,5519.8399128,161.084,-77.197,25.825,1.0
13.1166,128.18293,37.957006,5514.203856000001,160.825,-77.379,26.106,1.0
13.1333,128.182937,37.957022,5508.559569600001,160.56,-77.561,26.396,1.0
13.15,128.182943,37.957039,5502.9073584,160.286,-77.743,26.694,1.0
13.1666,128.18295,37.957056,5497.2472224,160.003,-77.925,27.0,1.0
13.1833,128.182956,37.957072,5491.5791616,159.711,-78.106,27.316,1.0
13.2,128.182962,37.957088,5485.903176,159.411,-78.287,27.641,1.0
13.2166,128.182969,37.957104,5480.2195704000005,159.1,-78.468,27.975,1.0
13.2333,128.182975,37.95712,5474.52804,158.779,-78.649,28.32,1.0
13.25,128.182982,37.957135,5468.8288896,158.447,-78.829,28.676,1.0
13.2666,128.182988,37.957151,5463.1221192,158.105,-79.009,29.043,1.0
13.2833,128.182994,37.957166,5457.407728800001,157.75,-79.188,29.422,1.0
13.3,128.183001,37.957181,5451.686023200001,157.383,-79.367,29.814,1.0
13.3166,128.183007,37.957196,5445.956697600001,157.003,-79.546,30.218,1.0
13.3333,128.183013,37.957211,5440.219752000001,156.61,-79.724,30.636,1.0
13.35,128.183019,37.957225,5434.475796000001,156.202,-79.902,31.069,1.0
13.3666,128.183026,37.95724,5428.724524800001,155.779,-80.079,31.516,1.0
13.3833,128.183032,37.957254,5422.9662432,155.34,-80.255,31.979,1.0
13.4,128.183038,37.957268,5417.200341600001,154.885,-80.431,32.459,1.0
13.4166,128.183044,37.957282,5411.4277344,154.412,-80.607,32.957,1.0
13.4333,128.18305,37.957296,5405.6481168,153.921,-80.782,33.473,1.0
13.45,128.183056,37.957309,5399.8614888,153.41,-80.956,34.009,1.0
13.4666,128.183063,37.957323,5394.067850400001,152.878,-81.129,34.565,1.0
13.4833,128.183069,37.957336,5388.267201600001,152.325,-81.302,35.143,1.0
13.5,128.183075,37.957349,5382.460152000001,151.749,-81.474,35.744,1.0
13.5166,128.183081,37.957362,5376.646092000001,151.149,-81.645,36.369,1.0
13.5333,128.183087,37.957375,5370.8256312,150.523,-81.815,37.02,1.0
13.55,128.183093,37.957387,5364.998464800001,149.87,-81.984,37.698,1.0
13.5666,128.183099,37.957399,5359.164592800001,149.189,-82.152,38.404,1.0
13.5833,128.183105,37.957412,5353.3246248000005,148.478,-82.318,39.14,1.0
13.6,128.18311,37.957424,5347.4779512000005,147.735,-82.484,39.907,1.0
13.6166,128.183116,37.957435,5341.6251816,146.96,-82.649,40.706,1.0
13.6333,128.183122,37.957447,5335.766011200001,146.15,-82.812,41.54,1.0
13.65,128.183128,37.957459,5329.90044,145.302,-82.974,42.412,1.0
13.6666,128.183134,37.95747,5324.0290776,144.415,-83.134,43.323,1.0
13.6833,128.18314,37.957481,5318.1513144,143.486,-83.293,44.275,1.0
13.7,128.183145,37.957492,5312.267760000001,142.513,-83.45,45.273,1.0
13.7166,128.183151,37.957503,5306.3781096,141.492,-83.605,46.318,1.0
13.7333,128.183157,37.957513,5300.482668000001,140.42,-83.758,47.413,1.0
13.75,128.183163,37.957524,5294.5814352,139.296,-83.909,48.561,1.0
13.7666,128.183168,37.957534,5288.674411200001,138.115,-84.057,49.766,1.0
13.7833,128.183174,37.957544,5282.761596,136.874,-84.203,51.03,1.0
13.8,128.183179,37.957554,5276.8429896,135.57,-84.346,52.358,1.0
13.8166,128.183185,37.957564,5270.919201600001,134.199,-84.487,53.753,1.0
13.8333,128.183191,37.957573,5264.9896224,132.757,-84.623,55.219,1.0
13.85,128.183196,37.957582,5259.0548616,131.24,-84.757,56.758,1.0
13.8666,128.183202,37.957592,5253.1146144,129.646,-84.887,58.376,1.0
13.8833,128.183207,37.957601,5247.1688808,127.97,-85.012,60.075,1.0
13.9,128.183213,37.957609,5241.218270400001,126.209,-85.133,61.86,1.0
13.9166,128.183218,37.957618,5235.2621736,124.359,-85.25,63.733,1.0
13.9333,128.183223,37.957626,5229.3012,122.418,-85.361,65.697,1.0
13.95,128.183229,37.957635,5223.3350448,120.384,-85.467,67.754,1.0
13.9666,128.183234,37.957643,5217.3640128,118.255,-85.567,69.906,1.0
13.9833,128.18324,37.957651,5211.3877992,116.03,-85.66,72.154,1.0
14.0,128.183245,37.957658,5205.4070136,113.711,-85.747,74.496,1.0
14.0166,128.18325,37.957666,5199.421656,111.298,-85.827,76.931,1.0
14.0333,128.183255,37.957673,5193.4314216,108.796,-85.899,79.457,1.0
14.05,128.183261,37.957681,5187.4363104,106.208,-85.963,82.067,1.0
14.0666,128.183266,37.957688,5181.4369320000005,103.542,-86.018,84.755,1.0
14.0833,128.183271,37.957694,5175.4329816,100.806,-86.065,87.514,1.0
14.1,128.183276,37.957701,5169.424764,98.009,-86.103,90.333,1.0
14.1166,128.183281,37.957707,5163.411974400001,95.164,-86.131,93.2,1.0
14.1333,128.183286,37.957714,5157.394917600001,92.283,-86.15,96.103,1.0
14.15,128.183291,37.95772,5151.3738984,89.38,-86.159,99.027,1.0
14.1666,128.183296,37.957726,5145.3483072,86.47,-86.158,101.958,1.0
14.1833,128.183301,37.957731,5139.3190584,83.568,-86.147,104.882,1.0
14.2,128.183306,37.957737,5133.285542400001,80.689,-86.127,107.783,1.0
14.2166,128.183311,37.957742,5127.248064,77.846,-86.096,110.647,1.0
14.2333,128.183316,37.957747,5121.2069280000005,75.052,-86.057,113.462,1.0
14.25,128.183321,37.957752,5115.1618296,72.317,-86.008,116.217,1.0
14.2666,128.183326,37.957757,5109.1130736000005,69.651,-85.951,118.903,1.0
14.2833,128.18333,37.957762,5103.06066,67.06,-85.886,121.513,1.0
14.3,128.183335,37.957766,5097.004893599999,64.55,-85.813,124.042,1.0
14.3166,128.18334,37.957771,5090.9451648,62.124,-85.733,126.485,1.0
14.3333,128.183345,37.957775,5084.882388000001,59.785,-85.647,128.841,1.0
14.35,128.183349,37.957778,5078.8159536,57.534,-85.554,131.108,1.0
14.3666,128.183354,37.957782,5072.7464712,55.37,-85.455,133.287,1.0
14.3833,128.183359,37.957786,5066.673636,53.292,-85.35,135.379,1.0
14.4,128.183363,37.957789,5060.5974479999995,51.298,-85.241,137.387,1.0
14.4166,128.183368,37.957792,5054.5185168,49.384,-85.128,139.314,1.0
14.4333,128.183372,37.957795,5048.4365376000005,47.545,-85.01,141.164,1.0
14.45,128.183377,37.957798,5042.351510400001,45.777,-84.888,142.942,1.0
14.4666,128.183381,37.9578,5036.2634352,44.076,-84.764,144.652,1.0
14.4833,128.183386,37.957803,5030.1729216,42.435,-84.636,146.299,1.0
14.5,128.18339,37.957805,5024.079360000001,40.851,-84.506,147.888,1.0
14.5166,128.183394,37.957807,5017.98336,39.322,-84.373,149.422,1.0
14.5333,128.183399,37.957809,5011.8846168,37.842,-84.238,150.904,1.0
14.55,128.183403,37.95781,5005.7834352,36.409,-84.1,152.339,1.0
14.5666,128.183407,37.957812,4999.680120000001,35.018,-83.961,153.73,1.0
14.5833,128.183411,37.957813,4993.5740616,33.667,-83.82,155.08,1.0
