Time,Longitude,Latitude,Altitude,Roll (deg),Pitch (deg),Yaw (deg),Health
0.0,128.181881,37.923646,7000.146528,0.0,-0.003,0.0,1.0
0.0166,128.181881,37.923691,7000.1605488000005,0.0,-0.012,0.0,1.0
0.0333,128.181881,37.923736,7000.173960000001,0.0,-0.025,0.0,1.0
0.05,128.181881,37.923781,7000.186152000001,0.0,-0.04,359.999,1.0
0.0666,128.181881,37.923826,7000.1977344,0.0,-0.055,359.999,1.0
0.0833,128.181881,37.923871,7000.2084024,0.0,-0.071,0.0,1.0
0.1,128.181881,37.923916,7000.218156000001,0.0,-0.086,0.0,1.0
0.1166,128.181881,37.923961,7000.226995200001,0.0,-0.101,0.0,1.0
0.1333,128.181881,37.924006,7000.235224800001,0.0,-0.113,0.0,1.0
0.15,128.181881,37.924051,7000.24254,0.0,-0.124,0.0,1.0
0.1666,128.181881,37.924096,7000.248636,0.0,-0.133,0.0,1.0
0.1833,128.181881,37.924141,7000.2544272000005,0.0,-0.141,0.0,1.0
0.2,128.181881,37.924186,7000.2589992,0.0,-0.146,0.0,1.0
0.2166,128.181881,37.924231,7000.2629615999995,0.0,-0.15,0.0,1.0
0.2333,128.181881,37.924276,7000.266009600001,0.0,-0.153,0.0,1.0
0.25,128.181881,37.924321,7000.268448,0.0,-0.154,0.0,1.0
0.2666,128.181881,37.924366,7000.269972,0.0,-0.154,0.0,1.0
0.2833,128.181881,37.924411,7000.270581600001,0.0,-0.153,0.0,1.0
0.3,128.181881,37.924456,7000.270581600001,0.0,-0.152,0.0,1.0
0.3166,128.181881,37.924501,7000.2696672,0.0,-0.15,0.0,1.0
0.3333,128.181881,37.924546,7000.2681432,0.0,-0.148,0.0,1.0
0.35,128.181881,37.924591,7000.266009600001,0.001,-0.146,0.0,1.0
0.3666,128.181881,37.924636,7000.2632664,0.001,-0.143,0.0,1.0
0.3833,128.181881,37.924682,7000.2596088,0.001,-0.141,0.0,1.0
0.4,128.181881,37.924727,7000.255341600001,0.001,-0.138,0.0,1.0
0.4166,128.181881,37.924772,7000.2501600000005,0.001,-0.136,0.0,1.0
0.4333,128.181881,37.924817,7000.2446736,0.001,-0.134,0.0,1.0
0.45,128.181881,37.924862,7000.2382728,0.001,-0.132,0.0,1.0
0.4666,128.181881,37.924907,7000.2315672,0.001,-0.131,0.0,1.0
0.4833,128.181881,37.924952,7000.223947200001,0.002,-0.129,0.0,1.0
0.5,128.181881,37.924998,7000.2157176,0.002,-0.128,0.0,1.0
0.5166,128.181881,37.925043,7000.207183200001,0.002,-0.126,0.0,1.0
0.5333,128.181881,37.925088,7000.1977344,0.002,-0.125,0.0,1.0
0.55,128.181881,37.925133,7000.1879808,0.002,-0.124,0.0,1.0
0.5666,128.181881,37.925179,7000.1773128,0.002,-0.123,0.0,1.0
0.5833,128.181881,37.925224,7000.16634,0.003,-0.122,0.0,1.0
0.6,128.181881,37.925269,7000.1547576,0.003,-0.121,0.0,1.0
0.6166,128.181881,37.925314,7000.142870400001,0.003,-0.12,0.0,1.0
0.6333,128.181881,37.92536,7000.1300688,0.003,-0.119,0.0,1.0
0.65,128.181881,37.925405,7000.1169624,0.003,-0.119,0.0,1.0
0.6666,128.181881,37.92545,7000.103551200001,0.003,-0.118,0.0,1.0
0.6833,128.181881,37.925495,7000.0892256,0.004,-0.117,0.0,1.0
0.7,128.181881,37.925541,7000.074595200001,0.004,-0.116,0.0,1.0
0.7166,128.181881,37.925586,7000.059660000001,0.004,-0.115,0.0,1.0
0.7333,128.181881,37.925631,7000.0441152,0.004,-0.114,0.0,1.0
0.75,128.181881,37.925677,7000.027960800001,0.005,-0.112,0.0,1.0
0.7666,128.181881,37.925722,7000.011806400001,0.005,-0.111,0.0,1.0
0.7833,128.181881,37.925767,6999.994737600001,0.005,-0.11,0.0,1.0
0.8,128.181881,37.925813,6999.977364,0.005,-0.109,0.001,1.0
0.8166,128.181881,37.925858,6999.9596856,0.006,-0.108,0.001,1.0
0.8333,128.181881,37.925903,6999.9413976000005,0.006,-0.106,0.001,1.0
0.85,128.181881,37.925949,6999.9231096,0.006,-0.105,0.001,1.0
0.8666,128.181881,37.925994,6999.9039072,0.006,-0.104,0.001,1.0
0.8833,128.181881,37.92604,6999.884704800001,0.007,-0.102,0.001,1.0
0.9,128.181881,37.926085,6999.864892800001,0.007,-0.101,0.001,1.0
0.9166,128.181881,37.92613,6999.844776,0.007,-0.1,0.001,1.0
0.9333,128.181881,37.926176,6999.824354400001,0.008,-0.099,0.001,1.0
0.95,128.181881,37.926221,6999.803628000001,0.008,-0.097,0.001,1.0
0.9666,128.181881,37.926267,6999.782292000001,0.008,-0.096,0.001,1.0
0.9833,128.181881,37.926312,6999.760956000001,0.008,-0.095,0.0,1.0
1.0,128.181881,37.926358,6999.739010400001,0.009,-0.093,0.0,1.0
1.0166,128.181881,37.926403,6999.71676,0.009,-0.092,0.0,1.0
1.0333,128.181881,37.926448,6999.694509600001,0.009,-0.091,0.0,1.0
1.05,128.181881,37.926494,6999.6716496,0.01,-0.089,0.0,1.0
1.0666,128.181881,37.926539,6999.6484848,0.01,-0.088,0.0,1.0
1.0833,128.181881,37.926585,6999.625015200001,0.01,-0.086,0.001,1.0
1.1,128.181881,37.926631,6999.6015456000005,0.011,-0.085,0.001,1.0
1.1166,128.181881,37.926676,6999.5774664,0.011,-0.083,0.001,1.0
1.1333,128.181881,37.926722,6999.5533872000005,0.011,-0.082,0.001,1.0
1.15,128.181881,37.926767,6999.5286984,0.012,-0.08,0.001,1.0
1.1666,128.181881,37.926813,6999.5040096,0.012,-0.079,0.001,1.0
1.1833,128.181881,37.926858,6999.479016,0.012,-0.077,0.001,1.0
1.2,128.181881,37.926904,6999.4537176,0.013,-0.076,0.001,1.0
1.2166,128.181881,37.926949,6999.428114400001,0.013,-0.074,0.001,1.0
1.2333,128.181881,37.926995,6999.402511200001,0.014,-0.073,0.001,1.0
1.25,128.181881,37.927041,6999.3766032,0.014,-0.071,0.001,1.0
1.2666,128.181881,37.927086,6999.3503904,0.014,-0.07,0.001,1.0
1.2833,128.181881,37.927132,6999.323872800001,0.015,-0.068,0.0,1.0
1.3,128.181881,37.927177,6999.2973552,0.015,-0.067,0.0,1.0
1.3166,128.181881,37.927223,6999.2705328,0.016,-0.066,0.0,1.0
1.3333,128.181881,37.927269,6999.2434056,0.016,-0.064,0.0,1.0
1.35,128.181881,37.927314,6999.2162784,0.016,-0.062,0.001,1.0
1.3666,128.181881,37.92736,6999.1888464,0.017,-0.061,0.001,1.0
1.3833,128.181881,37.927406,6999.1614144000005,0.017,-0.059,0.001,1.0
1.4,128.181881,37.927451,6999.133677600001,0.018,-0.058,0.001,1.0
1.4166,128.181881,37.927497,6999.105636,0.018,-0.056,0.001,1.0
1.4333,128.181881,37.927543,6999.0775944,0.018,-0.055,0.001,1.0
1.45,128.181881,37.927588,6999.0495528,0.019,-0.053,0.001,1.0
1.4666,128.181881,37.927634,6999.021206400001,0.019,-0.052,0.001,1.0
1.4833,128.181881,37.92768,6998.9925552,0.02,-0.05,0.001,1.0
1.5,128.181881,37.927726,6998.963904,0.02,-0.049,0.001,1.0
1.5166,128.181881,37.927771,6998.9352528,0.021,-0.047,0.001,1.0
1.5333,128.181881,37.927817,6998.906296800001,0.021,-0.046,0.001,1.0
1.55,128.181881,37.927863,6998.877036,0.022,-0.044,0.001,1.0
1.5666,128.181881,37.927909,6998.84808,0.022,-0.043,0.001,1.0
1.5833,128.181881,37.927954,6998.818819200001,0.023,-0.041,0.001,1.0
1.6,128.181881,37.928,6998.7892536,0.024,-0.039,0.001,1.0
1.6166,128.181881,37.928046,6998.759688000001,0.024,-0.038,0.001,1.0
1.6333,128.181881,37.928092,6998.7301224,0.025,-0.036,0.001,1.0
1.65,128.181881,37.928138,6998.700556800001,0.025,-0.035,0.001,1.0
1.6666,128.181881,37.928183,6998.670686400001,0.026,-0.033,0.001,1.0
1.6833,128.181881,37.928229,6998.640816,0.026,-0.032,0.001,1.0
1.7,128.181881,37.928275,6998.6109456,0.027,-0.031,0.001,1.0
1.7166,128.181881,37.928321,6998.580770400001,0.027,-0.029,0.001,1.0
1.7333,128.181881,37.928367,6998.5505952,0.028,-0.028,0.001,1.0
1.75,128.181881,37.928413,6998.520420000001,0.028,-0.026,0.001,1.0
1.7666,128.181881,37.928459,6998.4902448,0.029,-0.025,0.001,1.0
1.7833,128.181881,37.928505,6998.459764800001,0.03,-0.023,0.001,1.0
1.8,128.181881,37.92855,6998.4295896,0.03,-0.022,0.001,1.0
1.8166,128.181881,37.928596,6998.399109600001,0.031,-0.02,0.001,1.0
1.8333,128.181881,37.928642,6998.3686296,0.031,-0.019,0.001,1.0
1.85,128.181881,37.928688,6998.3378448,0.032,-0.017,0.001,1.0
1.8666,128.181881,37.928734,6998.307364800001,0.033,-0.016,0.001,1.0
1.8833,128.181881,37.92878,6998.2768848,0.033,-0.015,0.001,1.0
1.9,128.181881,37.928826,6998.2461,0.034,-0.013,0.001,1.0
1.9166,128.181881,37.928872,6998.215315200001,0.034,-0.012,0.001,1.0
1.9333,128.181881,37.928918,6998.1845304,0.035,-0.01,0.001,1.0
1.95,128.181881,37.928964,6998.153745600001,0.036,-0.009,0.001,1.0
1.9666,128.181881,37.92901,6998.1229608,0.036,-0.008,0.001,1.0
1.9833,128.181881,37.929056,6998.092176,0.037,-0.006,0.001,1.0
2.0,128.181881,37.929102,6998.061391200001,0.038,-0.005,0.001,1.0
2.0166,128.181881,37.929148,6998.030606400001,0.038,-0.004,0.001,1.0
2.0333,128.181881,37.929194,6997.9998216,0.039,-0.003,0.001,1.0
2.05,128.181881,37.92924,6997.9690368,0.04,-0.002,0.001,1.0
2.0666,128.181881,37.929286,6997.937947200001,0.04,-0.001,0.001,1.0
2.0833,128.181881,37.929332,6997.9071624,0.041,-0.001,0.001,1.0
2.1,128.181881,37.929378,6997.8763776000005,0.042,0.0,0.002,1.0
2.1166,128.181881,37.929424,6997.845288,0.042,0.0,0.002,1.0
2.1333,128.181881,37.92947,6997.8145032,0.043,-0.001,0.002,1.0
2.15,128.181881,37.929517,6997.7834136,0.044,-0.001,0.002,1.0
2.1666,128.181881,37.929563,6997.752628800001,0.045,-0.002,0.002,1.0
2.1833,128.181881,37.929609,6997.7215392,0.045,-0.003,0.002,1.0
2.2,128.181882,37.929655,6997.6907544000005,0.046,-0.003,0.002,1.0
2.2166,128.181882,37.929701,6997.6596648,0.047,-0.004,0.002,1.0
2.2333,128.181882,37.929747,6997.62888,0.047,-0.005,0.002,1.0
2.25,128.181882,37.929793,6997.5977904,0.048,-0.006,0.002,1.0
2.2666,128.181882,37.92984,6997.567005600001,0.049,-0.007,0.002,1.0
2.2833,128.181882,37.929886,6997.535916,0.049,-0.008,0.002,1.0
2.3,128.181882,37.929932,6997.5051312000005,0.05,-0.009,0.002,1.0
2.3166,128.181882,37.929978,6997.4740416,0.051,-0.01,0.002,1.0
2.3333,128.181882,37.930024,6997.443256800001,0.051,-0.011,0.002,1.0
2.35,128.181882,37.930071,6997.4121672,0.052,-0.012,0.002,1.0
2.3666,128.181882,37.930117,6997.3810776,0.053,-0.013,0.002,1.0
2.3833,128.181882,37.930163,6997.350292800001,0.054,-0.013,0.002,1.0
2.4,128.181882,37.930209,6997.3192032,0.054,-0.014,0.001,1.0
2.4166,128.181882,37.930256,6997.2884184,0.055,-0.015,0.001,1.0
2.4333,128.181882,37.930302,6997.2573288,0.056,-0.015,0.001,1.0
2.45,128.181882,37.930348,6997.2262392,0.056,-0.016,0.001,1.0
2.4666,128.181882,37.930394,6997.1954544,0.057,-0.016,0.001,1.0
2.4833,128.181882,37.930441,6997.164364800001,0.058,-0.017,0.001,1.0
2.5,128.181882,37.930487,6997.1332752,0.059,-0.017,0.002,1.0
2.5166,128.181882,37.930533,6997.1024904000005,0.059,-0.018,0.002,1.0
2.5333,128.181882,37.93058,6997.0714008,0.06,-0.018,0.002,1.0
2.55,128.181882,37.930626,6997.040311200001,0.061,-0.018,0.002,1.0
2.5666,128.181882,37.930672,6997.0095264,0.062,-0.019,0.002,1.0
2.5833,128.181882,37.930719,6996.9784368,0.063,-0.02,0.002,1.0
2.6,128.181882,37.930765,6996.947347200001,0.064,-0.02,0.002,1.0
2.6166,128.181882,37.930811,6996.9165624,0.065,-0.021,0.002,1.0
2.6333,128.181882,37.930858,6996.885472800001,0.065,-0.022,0.002,1.0
2.65,128.181882,37.930904,6996.8543832000005,0.066,-0.022,0.002,1.0
2.6666,128.181882,37.930951,6996.8235984,0.067,-0.023,0.002,1.0
2.6833,128.181882,37.930997,6996.7925088,0.068,-0.024,0.002,1.0
2.7,128.181882,37.931043,6996.761724000001,0.069,-0.025,0.002,1.0
2.7166,128.181882,37.93109,6996.7306344,0.07,-0.025,0.002,1.0
2.7333,128.181882,37.931136,6996.6995448,0.071,-0.026,0.002,1.0
2.75,128.181882,37.931183,6996.6687600000005,0.071,-0.027,0.002,1.0
2.7666,128.181882,37.931229,6996.637670400001,0.072,-0.027,0.002,1.0
2.7833,128.181882,37.931276,6996.6068856,0.073,-0.028,0.002,1.0
2.8,128.181882,37.931322,6996.575796,0.074,-0.029,0.002,1.0
2.8166,128.181882,37.931369,6996.545011200001,0.075,-0.03,0.002,1.0
2.8333,128.181882,37.931415,6996.5139216,0.076,-0.03,0.002,1.0
2.85,128.181882,37.931462,6996.4831368000005,0.077,-0.031,0.002,1.0
2.8666,128.181882,37.931508,6996.4520472,0.078,-0.032,0.002,1.0
2.8833,128.181882,37.931555,6996.4212624,0.079,-0.032,0.002,1.0
2.9,128.181882,37.931601,6996.390477600001,0.08,-0.033,0.002,1.0
2.9166,128.181882,37.931648,6996.359388000001,0.081,-0.033,0.002,1.0
2.9333,128.181882,37.931694,6996.3286032,0.082,-0.034,0.002,1.0
2.95,128.181882,37.931741,6996.2975136000005,0.083,-0.035,0.002,1.0
2.9666,128.181882,37.931788,6996.266728800001,0.084,-0.035,0.002,1.0
2.9833,128.181882,37.931834,6996.235944,0.084,-0.036,0.002,1.0
3.0,128.181882,37.931881,6996.2048544,0.085,-0.037,0.002,1.0
3.0166,128.181882,37.931927,6996.174069600001,0.086,-0.038,0.002,1.0
3.0333,128.181882,37.931974,6996.1432848,0.087,-0.038,0.002,1.0
3.05,128.181882,37.932021,6996.1125,0.088,-0.039,0.002,1.0
3.0666,128.181882,37.932067,6996.081410400001,0.089,-0.04,0.002,1.0
3.0833,128.181882,37.932114,6996.0506256,0.091,-0.041,0.002,1.0
3.1,128.181882,37.932161,6996.019840800001,0.092,-0.041,0.002,1.0
3.1166,128.181882,37.932207,6995.989056,0.093,-0.042,0.002,1.0
3.1333,128.181882,37.932254,6995.9582712,0.094,-0.043,0.002,1.0
3.15,128.181882,37.932301,6995.9271816,0.095,-0.044,0.003,1.0
3.1666,128.181882,37.932347,6995.896396800001,0.096,-0.045,0.003,1.0
3.1833,128.181882,37.932394,6995.865612,0.097,-0.045,0.003,1.0
3.2,128.181882,37.932441,6995.8348272,0.098,-0.046,0.003,1.0
3.2166,128.181882,37.932488,6995.804042400001,0.099,-0.047,0.003,1.0
3.2333,128.181882,37.932534,6995.7732576,0.1,-0.048,0.003,1.0
3.25,128.181882,37.932581,6995.7424728000005,0.101,-0.049,0.003,1.0
3.2666,128.181882,37.932628,6995.711688,0.102,-0.05,0.003,1.0
3.2833,128.181882,37.932675,6995.6809032,0.103,-0.051,0.003,1.0
3.3,128.181882,37.932721,6995.650118400001,0.104,-0.053,0.003,1.0
3.3166,128.181882,37.932768,6995.619333600001,0.105,-0.054,0.003,1.0
3.3333,128.181882,37.932815,6995.5885488,0.106,-0.055,0.003,1.0
3.35,128.181882,37.932862,6995.557764,0.107,-0.056,0.003,1.0
3.3666,128.181882,37.932909,6995.526979200001,0.108,-0.057,0.003,1.0
3.3833,128.181883,37.932955,6995.4961944,0.109,-0.058,0.003,1.0
3.4,128.181883,37.933002,6995.4657144,0.11,-0.059,0.003,1.0
3.4166,128.181883,37.933049,6995.4349296,0.111,-0.06,0.003,1.0
3.4333,128.181883,37.933096,6995.4041448,0.112,-0.061,0.003,1.0
3.45,128.181883,37.933143,6995.3733600000005,0.113,-0.062,0.003,1.0
3.4666,128.181883,37.93319,6995.3425752,0.114,-0.063,0.003,1.0
3.4833,128.181883,37.933237,6995.3117904,0.115,-0.064,0.003,1.0
3.5,128.181883,37.933284,6995.281005600001,0.116,-0.066,0.003,1.0
3.5166,128.181883,37.933331,6995.2502208,0.117,-0.067,0.003,1.0
3.5333,128.181883,37.933378,6995.219436,0.118,-0.068,0.003,1.0
3.55,128.181883,37.933424,6995.188651200001,0.12,-0.069,0.003,1.0
3.5666,128.181883,37.933471,6995.1578664,0.121,-0.071,0.003,1.0
3.5833,128.181883,37.933518,6995.127081600001,0.122,-0.072,0.003,1.0
3.6,128.181883,37.933565,6995.0962968,0.123,-0.073,0.003,1.0
3.6166,128.181883,37.933612,6995.065512,0.124,-0.075,0.003,1.0
3.6333,128.181883,37.933659,6995.0347272,0.125,-0.076,0.003,1.0
3.65,128.181883,37.933706,6995.003942400001,0.126,-0.077,0.003,1.0
3.6666,128.181883,37.933753,6994.9731576,0.127,-0.079,0.003,1.0
3.6833,128.181883,37.9338,6994.9423728,0.128,-0.08,0.003,1.0
3.7,128.181883,37.933847,6994.911588000001,0.13,-0.082,0.003,1.0
3.7166,128.181883,37.933895,6994.8804984,0.131,-0.084,0.003,1.0
3.7333,128.181883,37.933942,6994.8497136000005,0.132,-0.085,0.003,1.0
3.75,128.181883,37.933989,6994.8189288,0.133,-0.087,0.003,1.0
3.7666,128.181883,37.934036,6994.7878392,0.134,-0.088,0.003,1.0
3.7833,128.181883,37.934083,6994.7570544,0.135,-0.09,0.003,1.0
3.8,128.181883,37.93413,6994.725964800001,0.137,-0.092,0.003,1.0
3.8166,128.181883,37.934177,6994.69518,0.138,-0.094,0.003,1.0
3.8333,128.181883,37.934224,6994.6640904000005,0.139,-0.096,0.003,1.0
3.85,128.181883,37.934271,6994.6333056,0.14,-0.097,0.003,1.0
3.8666,128.181883,37.934318,6994.602216,0.142,-0.099,0.003,1.0
3.8833,128.181883,37.934366,6994.5711264,0.143,-0.101,0.003,1.0
3.9,128.181883,37.934413,6994.5400368,0.144,-0.103,0.003,1.0
3.9166,128.181883,37.93446,6994.508947200001,0.145,-0.105,0.003,1.0
3.9333,128.181883,37.934507,6994.4778576,0.147,-0.107,0.003,1.0
3.95,128.181883,37.934554,6994.446768000001,0.148,-0.109,0.003,1.0
3.9666,128.181883,37.934602,6994.415678400001,0.149,-0.111,0.003,1.0
3.9833,128.181883,37.934649,6994.384284000001,0.151,-0.114,0.003,1.0
4.0,128.181883,37.934696,6994.3531944,0.152,-0.116,0.003,1.0
4.0166,128.181883,37.934743,6994.321800000001,0.153,-0.118,0.003,1.0
4.0333,128.181883,37.93479,6994.290405600001,0.154,-0.12,0.003,1.0
4.05,128.181883,37.934838,6994.259316,0.156,-0.123,0.003,1.0
4.0666,128.181883,37.934885,6994.2279216,0.157,-0.125,0.004,1.0
4.0833,128.181883,37.934932,6994.1962224,0.158,-0.127,0.004,1.0
4.1,128.181883,37.93498,6994.164828000001,0.16,-0.13,0.004,1.0
4.1166,128.181883,37.935027,6994.133433600001,0.161,-0.132,0.004,1.0
4.1333,128.181883,37.935074,6994.1017344,0.163,-0.135,0.004,1.0
4.15,128.181883,37.935122,6994.0700352,0.164,-0.137,0.004,1.0
4.1666,128.181883,37.935169,6994.0383360000005,0.165,-0.14,0.004,1.0
4.1833,128.181883,37.935216,6994.006636800001,0.166,-0.143,0.004,1.0
4.2,128.181884,37.935264,6993.974937600001,0.168,-0.146,0.004,1.0
4.2166,128.181884,37.935311,6993.943238400001,0.169,-0.149,0.004,1.0
4.2333,128.181884,37.935358,6993.9112344,0.17,-0.151,0.004,1.0
4.25,128.181884,37.935406,6993.8792304,0.171,-0.154,0.004,1.0
4.2666,128.181884,37.935453,6993.8472264,0.172,-0.157,0.004,1.0
4.2833,128.181884,37.935501,6993.8152224000005,0.174,-0.16,0.004,1.0
4.3,128.181884,37.935548,6993.7829136,0.175,-0.163,0.004,1.0
4.3166,128.181884,37.935595,6993.7509096,0.176,-0.166,0.004,1.0
4.3333,128.181884,37.935643,6993.718600800001,0.177,-0.169,0.004,1.0
4.35,128.181884,37.93569,6993.6859872,0.178,-0.172,0.004,1.0
4.3666,128.181884,37.935738,6993.653678400001,0.18,-0.175,0.004,1.0
4.3833,128.181884,37.935785,6993.621064800001,0.181,-0.178,0.004,1.0
4.4,128.181884,37.935833,6993.5884512,0.182,-0.181,0.004,1.0
4.4166,128.181884,37.93588,6993.555837600001,0.183,-0.184,0.004,1.0
4.4333,128.181884,37.935928,6993.522919200001,0.185,-0.188,0.004,1.0
4.45,128.181884,37.935975,6993.4903056,0.186,-0.191,0.004,1.0
4.4666,128.181884,37.936023,6993.4570824,0.187,-0.194,0.004,1.0
4.4833,128.181884,37.93607,6993.424164,0.189,-0.198,0.004,1.0
4.5,128.181884,37.936118,6993.3909408,0.19,-0.201,0.004,1.0
4.5166,128.181884,37.936166,6993.3577176,0.191,-0.205,0.004,1.0
4.5333,128.181884,37.936213,6993.3244944,0.192,-0.208,0.004,1.0
4.55,128.181884,37.936261,6993.2909664,0.194,-0.212,0.004,1.0
4.5666,128.181884,37.936308,6993.257438400001,0.195,-0.215,0.004,1.0
4.5833,128.181884,37.936356,6993.2236056,0.196,-0.219,0.004,1.0
4.6,128.181884,37.936404,6993.1900776,0.198,-0.223,0.004,1.0
4.6166,128.181884,37.936451,6993.155940000001,0.199,-0.226,0.004,1.0
4.6333,128.181884,37.936499,6993.1221072,0.2,-0.23,0.004,1.0
4.65,128.181884,37.936547,6993.087969600001,0.202,-0.234,0.004,1.0
4.6666,128.181884,37.936594,6993.053527200001,0.203,-0.238,0.004,1.0
4.6833,128.181884,37.936642,6993.0193896,0.205,-0.242,0.004,1.0
4.7,128.181884,37.93669,6992.984642400001,0.206,-0.246,0.004,1.0
4.7166,128.181884,37.936737,6992.9502,0.207,-0.25,0.004,1.0
4.7333,128.181884,37.936785,6992.9154528,0.209,-0.254,0.005,1.0
4.75,128.181884,37.936833,6992.880400800001,0.21,-0.258,0.005,1.0
4.7666,128.181884,37.936881,6992.8453488000005,0.212,-0.263,0.005,1.0
4.7833,128.181884,37.936928,6992.8102968,0.213,-0.267,0.005,1.0
4.8,128.181884,37.936976,6992.77494,0.215,-0.272,0.005,1.0
4.8166,128.181884,37.937024,6992.7392784,0.216,-0.276,0.005,1.0
4.8333,128.181884,37.937072,6992.7039216,0.217,-0.281,0.005,1.0
4.85,128.181885,37.93712,6992.6679552000005,0.218,-0.286,0.005,1.0
4.8666,128.181885,37.937167,6992.6319888,0.22,-0.291,0.005,1.0
4.8833,128.181885,37.937215,6992.5960224,0.221,-0.295,0.005,1.0
4.9,128.181885,37.937263,6992.5597512,0.222,-0.3,0.005,1.0
4.9166,128.181885,37.937311,6992.5231752,0.223,-0.305,0.005,1.0
4.9333,128.181885,37.937359,6992.4865992000005,0.224,-0.31,0.005,1.0
4.95,128.181885,37.937407,6992.4497184,0.225,-0.315,0.005,1.0
4.9666,128.181885,37.937454,6992.412837600001,0.226,-0.32,0.005,1.0
4.9833,128.181885,37.937502,6992.375652000001,0.228,-0.325,0.005,1.0
5.0,128.181885,37.93755,6992.3381616,0.229,-0.331,0.005,1.0
5.0166,128.181885,37.937598,6992.3006712,0.23,-0.336,0.005,1.0
5.0333,128.181885,37.937646,6992.262876,0.231,-0.341,0.005,1.0
5.05,128.181885,37.937694,6992.2250808,0.232,-0.346,0.005,1.0
5.0666,128.181885,37.937742,6992.1869808,0.233,-0.352,0.005,1.0
5.0833,128.181885,37.93779,6992.148576,0.235,-0.357,0.005,1.0
5.1,128.181885,37.937838,6992.1098664,0.236,-0.363,0.005,1.0
5.1166,128.181885,37.937886,6992.071156800001,0.237,-0.368,0.005,1.0
5.1333,128.181885,37.937934,6992.0321424,0.238,-0.374,0.005,1.0
5.15,128.181885,37.937982,6991.9928232,0.239,-0.38,0.005,1.0
5.1666,128.181885,37.93803,6991.953504,0.24,-0.386,0.005,1.0
5.1833,128.181885,37.938078,6991.9135752,0.242,-0.391,0.005,1.0
5.2,128.181885,37.938126,6991.874256000001,0.244,-0.381,0.005,1.0
5.2166,128.181885,37.938174,6991.835546400001,0.246,-0.34,0.004,1.0
5.2333,128.181885,37.938222,6991.797446400001,0.249,-0.253,0.004,1.0
5.25,128.181885,37.93827,6991.7605656000005,0.253,-0.106,0.003,1.0
5.2666,128.181885,37.938318,6991.7261232,0.256,0.111,0.003,1.0
5.2833,128.181885,37.938366,6991.6941192,0.259,0.406,0.003,1.0
5.3,128.181885,37.938414,6991.6657728,0.262,0.787,0.003,1.0
5.3166,128.181885,37.938463,6991.640779200001,0.265,1.239,0.003,1.0
5.3333,128.181885,37.938511,6991.6203576,0.268,1.746,0.004,1.0
5.35,128.181885,37.938559,6991.6048128,0.272,2.293,0.005,1.0
5.3666,128.181885,37.938607,6991.5947544,0.275,2.859,0.006,1.0
5.3833,128.181885,37.938655,6991.590487200001,0.278,3.423,0.007,1.0
5.4,128.181886,37.938703,6991.5929256,0.281,3.966,0.008,1.0
5.4166,128.181886,37.938751,6991.6023744,0.284,4.467,0.009,1.0
5.4333,128.181886,37.938799,6991.6188336000005,0.287,4.918,0.009,1.0
5.45,128.181886,37.938847,6991.643522400001,0.29,5.323,0.009,1.0
5.4666,128.181886,37.938896,6991.6764408,0.293,5.69,0.009,1.0
5.4833,128.181886,37.938944,6991.7178936,0.296,6.025,0.009,1.0
5.5,128.181886,37.938992,6991.7684904,0.299,6.334,0.009,1.0
5.5166,128.181886,37.93904,6991.8282312,0.302,6.621,0.008,1.0
5.5333,128.181886,37.939088,6991.8977256,0.305,6.889,0.008,1.0
5.55,128.181886,37.939136,6991.976364,0.308,7.141,0.007,1.0
5.5666,128.181886,37.939185,6992.0653656,0.311,7.379,0.006,1.0
5.5833,128.181886,37.939233,6992.1641208,0.314,7.604,0.005,1.0
5.6,128.181886,37.939281,6992.2729344,0.317,7.818,0.004,1.0
5.6166,128.181886,37.939329,6992.392111200001,0.32,8.022,0.003,1.0
5.6333,128.181886,37.939377,6992.521651200001,0.323,8.218,0.002,1.0
5.65,128.181886,37.939425,6992.6618592,0.326,8.407,0.001,1.0
5.6666,128.181886,37.939474,6992.8124304,0.329,8.588,0.0,1.0
5.6833,128.181886,37.939522,6992.973669600001,0.332,8.763,359.999,1.0
5.7,128.181886,37.93957,6993.1458816,0.335,8.933,359.998,1.0
5.7166,128.181886,37.939618,6993.328456800001,0.339,9.097,359.997,1.0
5.7333,128.181886,37.939666,6993.522309600001,0.342,9.257,359.996,1.0
5.75,128.181886,37.939714,6993.7268304,0.345,9.413,359.995,1.0
5.7666,128.181886,37.939762,6993.942324000001,0.349,9.564,359.994,1.0
5.7833,128.181887,37.93981,6994.1687904,0.352,9.712,359.993,1.0
5.8,128.181887,37.939859,6994.405924800001,0.356,9.856,359.992,1.0
5.8166,128.181887,37.939907,6994.6546416,0.359,9.997,359.991,1.0
5.8333,128.181887,37.939955,6994.9140264,0.363,10.136,359.99,1.0
5.85,128.181887,37.940003,6995.1846888,0.367,10.273,359.988,1.0
5.8666,128.181887,37.940051,6995.466324000001,0.37,10.407,359.987,1.0
5.8833,128.181887,37.940099,6995.758932000001,0.374,10.539,359.986,1.0
5.9,128.181887,37.940147,6996.0628176,0.378,10.67,359.985,1.0
5.9166,128.181887,37.940195,6996.377676,0.383,10.8,359.984,1.0
5.9333,128.181887,37.940243,6996.703812,0.387,10.928,359.983,1.0
5.95,128.181887,37.940291,6997.0409208,0.391,11.055,359.982,1.0
5.9666,128.181887,37.940339,6997.3893072,0.396,11.181,359.981,1.0
5.9833,128.181887,37.940387,6997.7486664,0.4,11.306,359.979,1.0
6.0,128.181887,37.940435,6998.1193032,0.405,11.431,359.978,1.0
6.0166,128.181887,37.940483,6998.5009128,0.409,11.555,359.977,1.0
6.0333,128.181887,37.940531,6998.893800000001,0.414,11.678,359.976,1.0
6.05,128.181887,37.940579,6999.29766,0.419,11.801,359.975,1.0
6.0666,128.181887,37.940627,6999.712797600001,0.424,11.924,359.974,1.0
6.0833,128.181888,37.940675,7000.138908,0.429,12.046,359.973,1.0
6.1,128.181888,37.940723,7000.5759912,0.435,12.168,359.972,1.0
6.1166,128.181888,37.940771,7001.024656800001,0.44,12.289,359.971,1.0
6.1333,128.181888,37.940819,7001.4839904,0.446,12.41,359.969,1.0
6.15,128.181888,37.940866,7001.9546016,0.451,12.531,359.968,1.0
6.1666,128.181888,37.940914,7002.4361856000005,0.457,12.652,359.967,1.0
6.1833,128.181888,37.940962,7002.929047200001,0.463,12.773,359.966,1.0
6.2,128.181888,37.94101,7003.432881600001,0.469,12.893,359.965,1.0
6.2166,128.181888,37.941058,7003.9479936,0.475,13.014,359.964,1.0
6.2333,128.181888,37.941106,7004.4740784000005,0.481,13.134,359.963,1.0
6.25,128.181888,37.941153,7005.011136,0.487,13.254,359.962,1.0
6.2666,128.181888,37.941201,7005.5591664,0.494,13.374,359.96,1.0
6.2833,128.181888,37.941249,7006.118474400001,0.5,13.494,359.959,1.0
6.3,128.181888,37.941297,7006.688450400001,0.507,13.614,359.958,1.0
6.3166,128.181889,37.941344,7007.269704,0.513,13.734,359.957,1.0
6.3333,128.181889,37.941392,7007.8622352,0.52,13.854,359.956,1.0
6.35,128.181889,37.94144,7008.4654344,0.527,13.974,359.955,1.0
6.3666,128.181889,37.941487,7009.0799112,0.534,14.094,359.954,1.0
6.3833,128.181889,37.941535,7009.705056000001,0.542,14.213,359.952,1.0
6.4,128.181889,37.941583,7010.341478400001,0.549,14.333,359.951,1.0
6.4166,128.181889,37.94163,7010.9885688,0.556,14.452,359.95,1.0
6.4333,128.181889,37.941678,7011.646936800001,0.564,14.572,359.949,1.0
6.45,128.181889,37.941725,7012.316277600001,0.572,14.691,359.948,1.0
6.4666,128.181889,37.941773,7012.996591200001,0.58,14.811,359.947,1.0
6.4833,128.181889,37.94182,7013.6875728,0.588,14.93,359.945,1.0
6.5,128.181889,37.941868,7014.389832000001,0.596,15.05,359.944,1.0
6.5166,128.181889,37.941916,7015.1027592,0.604,15.169,359.943,1.0
6.5333,128.18189,37.941963,7015.8266592,0.612,15.288,359.942,1.0
6.55,128.18189,37.94201,7016.5618368000005,0.621,15.408,359.94,1.0
6.5666,128.18189,37.942058,7017.3073776,0.63,15.527,359.939,1.0
6.5833,128.18189,37.942105,7018.064196,0.638,15.646,359.938,1.0
6.6,128.18189,37.942153,7018.8316824,0.647,15.765,359.937,1.0
6.6166,128.18189,37.9422,7019.6101416,0.656,15.885,359.935,1.0
6.6333,128.18189,37.942247,7020.399573600001,0.665,16.004,359.934,1.0
6.65,128.18189,37.942295,7021.199978400001,0.675,16.123,359.933,1.0
6.6666,128.18189,37.942342,7022.0107464,0.684,16.242,359.931,1.0
6.6833,128.18189,37.942389,7022.832792000001,0.694,16.361,359.93,1.0
6.7,128.181891,37.942437,7023.665505600001,0.704,16.48,359.929,1.0
6.7166,128.181891,37.942484,7024.509192,0.713,16.599,359.927,1.0
6.7333,128.181891,37.942531,7025.363546400001,0.723,16.718,359.926,1.0
6.75,128.181891,37.942578,7026.2285688,0.734,16.837,359.924,1.0
6.7666,128.181891,37.942626,7027.104564,0.744,16.956,359.923,1.0
6.7833,128.181891,37.942673,7027.9912272,0.754,17.075,359.922,1.0
6.8,128.181891,37.94272,7028.8888632,0.765,17.194,359.92,1.0
6.8166,128.181891,37.942767,7029.7971672,0.776,17.313,359.919,1.0
6.8333,128.181891,37.942814,7030.7161392,0.787,17.431,359.917,1.0
6.85,128.181891,37.942861,7031.646084000001,0.798,17.55,359.916,1.0
6.8666,128.181892,37.942908,7032.586392000001,0.809,17.669,359.914,1.0
6.8833,128.181892,37.942955,7033.5376728,0.82,17.788,359.912,1.0
6.9,128.181892,37.943002,7034.4996216,0.832,17.907,359.911,1.0
6.9166,128.181892,37.943049,7035.472238400001,0.843,18.025,359.909,1.0
6.9333,128.181892,37.943096,7036.4555232,0.855,18.144,359.908,1.0
6.95,128.181892,37.943143,7037.449476,0.867,18.263,359.906,1.0
6.9666,128.181892,37.94319,7038.454096800001,0.879,18.381,359.904,1.0
6.9833,128.181892,37.943237,7039.4693856,0.892,18.5,359.903,1.0
7.0,128.181893,37.943283,7040.4953424000005,0.904,18.618,359.901,1.0
7.0166,128.181893,37.94333,7041.5319672000005,0.917,18.737,359.899,1.0
7.0333,128.181893,37.943377,7042.57926,0.929,18.855,359.898,1.0
7.05,128.181893,37.943424,7043.6369159999995,0.942,18.974,359.897,1.0
7.0666,128.181893,37.943471,7044.70524,0.954,19.092,359.895,1.0
7.0833,128.181893,37.943517,7045.784232,0.967,19.211,359.894,1.0
7.1,128.181893,37.943564,7046.8738920000005,0.98,19.329,359.893,1.0
7.1166,128.181893,37.943611,7047.973915200001,0.993,19.447,359.892,1.0
7.1333,128.181894,37.943657,7049.084606400001,1.007,19.566,359.891,1.0
7.15,128.181894,37.943704,7050.205660800001,1.02,19.684,359.89,1.0
7.1666,128.181894,37.94375,7051.337383200001,1.033,19.802,359.889,1.0
7.1833,128.181894,37.943797,7052.4794688,1.047,19.92,359.888,1.0
7.2,128.181894,37.943843,7053.6322224000005,1.061,20.039,359.888,1.0
7.2166,128.181894,37.94389,7054.7953392,1.075,20.157,359.887,1.0
7.2333,128.181894,37.943936,7055.969124000001,1.089,20.275,359.887,1.0
7.25,128.181895,37.943983,7057.1532720000005,1.104,20.393,359.886,1.0
7.2666,128.181895,37.944029,7058.347783200001,1.118,20.511,359.886,1.0
7.2833,128.181895,37.944075,7059.5526576,1.133,20.629,359.886,1.0
7.3,128.181895,37.944122,7060.7682,1.148,20.747,359.886,1.0
7.3166,128.181895,37.944168,7061.993800800001,1.163,20.865,359.886,1.0
7.3333,128.181895,37.944214,7063.230069600001,1.178,20.983,359.886,1.0
7.35,128.181896,37.94426,7064.4767016000005,1.193,21.101,359.886,1.0
7.3666,128.181896,37.944307,7065.733696800001,1.209,21.219,359.886,1.0
7.3833,128.181896,37.944353,7067.0010552,1.224,21.337,359.886,1.0
7.4,128.181896,37.944399,7068.2787768,1.24,21.454,359.886,1.0
7.4166,128.181896,37.944445,7069.566556800001,1.256,21.572,359.887,1.0
7.4333,128.181896,37.944491,7070.865004800001,1.272,21.69,359.887,1.0
7.45,128.181897,37.944537,7072.173511200001,1.289,21.808,359.888,1.0
7.4666,128.181897,37.944583,7073.4923808,1.305,21.925,359.889,1.0
7.4833,128.181897,37.944629,7074.8216136,1.322,22.043,359.889,1.0
7.5,128.181897,37.944675,7076.1609048,1.338,22.161,359.89,1.0
7.5166,128.181897,37.944721,7077.5105592,1.355,22.278,359.891,1.0
7.5333,128.181897,37.944767,7078.8705768,1.372,22.396,359.892,1.0
7.55,128.181898,37.944813,7080.2406528,1.389,22.513,359.893,1.0
7.5666,128.181898,37.944858,7081.621092,1.406,22.631,359.894,1.0
7.5833,128.181898,37.944904,7083.0115896,1.424,22.748,359.895,1.0
7.6,128.181898,37.94495,7084.4121456,1.441,22.866,359.897,1.0
7.6166,128.181898,37.944996,7085.823064800001,1.459,22.983,359.898,1.0
7.6333,128.181899,37.945041,7087.244042400001,1.476,23.1,359.9,1.0
7.65,128.181899,37.945087,7088.6753832,1.494,23.217,359.901,1.0
7.6666,128.181899,37.945133,7090.1164776000005,1.512,23.335,359.903,1.0
7.6833,128.181899,37.945178,7091.5679352,1.53,23.452,359.904,1.0
7.7,128.181899,37.945224,7093.0291464,1.548,23.569,359.906,1.0
7.7166,128.1819,37.945269,7094.5007208,1.567,23.686,359.908,1.0
7.7333,128.1819,37.945315,7095.9823536,1.585,23.803,359.91,1.0
7.75,128.1819,37.94536,7097.4740448,1.603,23.92,359.912,1.0
7.7666,128.1819,37.945405,7098.9757944,1.622,24.038,359.914,1.0
7.7833,128.1819,37.945451,7100.487297600001,1.64,24.155,359.916,1.0
7.8,128.181901,37.945496,7102.009164,1.659,24.271,359.918,1.0
7.8166,128.181901,37.945541,7103.540784000001,1.678,24.388,359.921,1.0
7.8333,128.181901,37.945587,7105.0824624,1.696,24.505,359.923,1.0
7.85,128.181901,37.945632,7106.6338944,1.715,24.622,359.925,1.0
7.8666,128.181902,37.945677,7108.1953848,1.734,24.739,359.928,1.0
7.8833,128.181902,37.945722,7109.766933600001,1.753,24.856,359.931,1.0
7.9,128.181902,37.945767,7111.348236,1.772,24.972,359.933,1.0
7.9166,128.181902,37.945812,7112.939596800001,1.792,25.089,359.936,1.0
7.9333,128.181903,37.945857,7114.540711200001,1.811,25.206,359.939,1.0
7.95,128.181903,37.945902,7116.151579200001,1.83,25.322,359.942,1.0
7.9666,128.181903,37.945947,7117.772505600001,1.849,25.439,359.945,1.0
7.9833,128.181903,37.945992,7119.4031856,1.869,25.556,359.948,1.0
8.0,128.181904,37.946037,7121.043619200001,1.888,25.672,359.951,1.0
8.0166,128.181904,37.946082,7122.6938064000005,1.907,25.789,359.954,1.0
8.0333,128.181904,37.946126,7124.353747200001,1.927,25.905,359.957,1.0
8.05,128.181904,37.946171,7126.0237464,1.946,26.021,359.961,1.0
8.0666,128.181905,37.946216,7127.7031944,1.966,26.138,359.964,1.0
8.0833,128.181905,37.94626,7129.392396,1.985,26.254,359.968,1.0
8.1,128.181905,37.946305,7131.0916560000005,2.005,26.37,359.971,1.0
8.1166,128.181906,37.94635,7132.8003648,2.025,26.486,359.975,1.0
8.1333,128.181906,37.946394,7134.5188272000005,2.044,26.603,359.979,1.0
8.15,128.181906,37.946439,7136.246738400001,2.064,26.719,359.982,1.0
8.1666,128.181906,37.946483,7137.9844032,2.084,26.835,359.986,1.0
8.1833,128.181907,37.946527,7139.7318216,2.103,26.951,359.99,1.0
8.2,128.181907,37.946572,7141.4886888,2.123,27.067,359.994,1.0
8.2166,128.181907,37.946616,7143.2553096,2.143,27.183,359.998,1.0
8.2333,128.181908,37.94666,7145.0316840000005,2.162,27.299,0.002,1.0
8.25,128.181908,37.946705,7146.8172024,2.182,27.415,0.007,1.0
8.2666,128.181908,37.946749,7148.612474400001,2.202,27.531,0.011,1.0
8.2833,128.181909,37.946793,7150.4175000000005,2.221,27.646,0.015,1.0
8.3,128.181909,37.946837,7152.231669600001,2.241,27.762,0.02,1.0
8.3166,128.181909,37.946881,7154.055592800001,2.26,27.878,0.024,1.0
8.3333,128.18191,37.946925,7155.8889648,2.28,27.993,0.029,1.0
8.35,128.18191,37.946969,7157.7314808,2.3,28.109,0.033,1.0
8.3666,128.18191,37.947013,7159.5837504,2.319,28.225,0.038,1.0
8.3833,128.181911,37.947057,7161.4454688000005,2.339,28.34,0.043,1.0
8.4,128.181911,37.947101,7163.3166360000005,2.358,28.456,0.048,1.0
8.4166,128.181911,37.947145,7165.196947200001,2.378,28.571,0.053,1.0
8.4333,128.181912,37.947188,7167.0867072,2.397,28.687,0.058,1.0
8.45,128.181912,37.947232,7168.985916,2.416,28.802,0.063,1.0
8.4666,128.181913,37.947276,7170.8945736000005,2.436,28.917,0.068,1.0
8.4833,128.181913,37.947319,7172.8123752,2.455,29.032,0.073,1.0
8.5,128.181913,37.947363,7174.7396256,2.474,29.148,0.078,1.0
8.5166,128.181914,37.947406,7176.676020000001,2.494,29.263,0.083,1.0
8.5333,128.181914,37.94745,7178.6218632,2.513,29.378,0.089,1.0
8.55,128.181914,37.947493,7180.576850400001,2.532,29.493,0.094,1.0
8.5666,128.181915,37.947537,7182.5409816,2.551,29.608,0.1,1.0
8.5833,128.181915,37.94758,7184.5145616,2.57,29.723,0.105,1.0
8.6,128.181916,37.947623,7186.4972856,2.589,29.838,0.111,1.0
8.6166,128.181916,37.947667,7188.4888488,2.608,29.953,0.117,1.0
8.6333,128.181916,37.94771,7190.489860800001,2.627,30.068,0.122,1.0
8.65,128.181917,37.947753,7192.5000168,2.645,30.182,0.128,1.0
8.6666,128.181917,37.947796,7194.5193168,2.664,30.297,0.134,1.0
8.6833,128.181918,37.947839,7196.547760800001,2.683,30.412,0.14,1.0
8.7,128.181918,37.947882,7198.5853488,2.701,30.527,0.146,1.0
8.7166,128.181919,37.947925,7200.631776,2.72,30.641,0.152,1.0
8.7333,128.181919,37.947968,7202.687347200001,2.738,30.756,0.158,1.0
8.75,128.18192,37.948011,7204.7520624,2.756,30.87,0.164,1.0
8.7666,128.18192,37.948054,7206.8256168,2.774,30.985,0.171,1.0
8.7833,128.18192,37.948097,7208.908315200001,2.793,31.099,0.177,1.0
8.8,128.181921,37.948139,7210.9998528,2.811,31.213,0.183,1.0
8.8166,128.181921,37.948182,7213.1005344,2.829,31.328,0.19,1.0
8.8333,128.181922,37.948225,7215.2100552,2.847,31.442,0.196,1.0
8.85,128.181922,37.948267,7217.328415200001,2.864,31.557,0.203,1.0
8.8666,128.181923,37.94831,7219.455919200001,2.882,31.671,0.21,1.0
8.8833,128.181923,37.948352,7221.5919576,2.9,31.786,0.216,1.0
8.9,128.181924,37.948395,7223.73714,2.917,31.902,0.223,1.0
8.9166,128.181924,37.948437,7225.8911616,2.935,32.018,0.23,1.0
8.9333,128.181925,37.948479,7228.054022400001,2.952,32.134,0.237,1.0
8.95,128.181925,37.948522,7230.2257224,2.969,32.251,0.244,1.0
8.9666,128.181926,37.948564,7232.405956800001,2.986,32.368,0.251,1.0
8.9833,128.181926,37.948606,7234.5953352,3.003,32.485,0.258,1.0
9.0,128.181927,37.948648,7236.793248,3.02,32.603,0.266,1.0
9.0166,128.181927,37.94869,7239.0,3.037,32.721,0.273,1.0
9.0333,128.181928,37.948732,7241.215591200001,3.053,32.839,0.28,1.0
9.05,128.181929,37.948774,7243.4400216,3.07,32.958,0.288,1.0
9.0666,128.181929,37.948816,7245.672986400001,3.086,33.077,0.296,1.0
9.0833,128.18193,37.948858,7247.9144856,3.102,33.196,0.303,1.0
9.1,128.18193,37.9489,7250.165128800001,3.119,33.316,0.311,1.0
9.1166,128.181931,37.948942,7252.4240016,3.135,33.436,0.319,1.0
9.1333,128.181931,37.948984,7254.6917136,3.15,33.555,0.327,1.0
9.15,128.181932,37.949025,7256.968264800001,3.166,33.676,0.335,1.0
9.1666,128.181933,37.949067,7259.2530456,3.182,33.796,0.343,1.0
9.1833,128.181933,37.949109,7261.546970400001,3.197,33.916,0.351,1.0
9.2,128.181934,37.94915,7263.849124800001,3.212,34.037,0.359,1.0
9.2166,128.181934,37.949192,7266.1598136,3.227,34.157,0.367,1.0
9.2333,128.181935,37.949233,7268.4793416,3.242,34.278,0.375,1.0
9.25,128.181936,37.949274,7270.807404,3.257,34.399,0.384,1.0
9.2666,128.181936,37.949316,7273.144000800001,3.272,34.52,0.392,1.0
9.2833,128.181937,37.949357,7275.489132000001,3.286,34.641,0.4,1.0
9.3,128.181937,37.949398,7277.842797600001,3.3,34.762,0.409,1.0
9.3166,128.181938,37.949439,7280.204692800001,3.314,34.883,0.417,1.0
9.3333,128.181939,37.94948,7282.5754272,3.328,35.005,0.426,1.0
9.35,128.181939,37.949522,7284.954696000001,3.342,35.126,0.435,1.0
9.3666,128.18194,37.949563,7287.3421944,3.356,35.248,0.443,1.0
9.3833,128.181941,37.949603,7289.7382272,3.369,35.369,0.452,1.0
9.4,128.181941,37.949644,7292.1427944,3.383,35.491,0.461,1.0
9.4166,128.181942,37.949685,7294.555896000001,3.396,35.613,0.47,1.0
9.4333,128.181943,37.949726,7296.9772272,3.409,35.734,0.479,1.0
9.45,128.181943,37.949767,7299.406788000001,3.422,35.856,0.488,1.0
9.4666,128.181944,37.949807,7301.845188000001,3.434,35.978,0.497,1.0
9.4833,128.181945,37.949848,7304.2915128,3.447,36.1,0.506,1.0
9.5,128.181945,37.949889,7306.7466768,3.459,36.222,0.515,1.0
9.5166,128.181946,37.949929,7309.2097656000005,3.472,36.344,0.524,1.0
9.5333,128.181947,37.949969,7311.6813888,3.484,36.467,0.534,1.0
9.55,128.181948,37.95001,7314.161241600001,3.495,36.589,0.543,1.0
9.5666,128.181948,37.95005,7316.649628800001,3.507,36.711,0.552,1.0
9.5833,128.181949,37.95009,7319.146245600001,3.519,36.834,0.562,1.0
9.6,128.18195,37.950131,7321.6507872,3.53,36.956,0.571,1.0
9.6166,128.181951,37.950171,7324.1638632,3.541,37.079,0.581,1.0
9.6333,128.181951,37.950211,7326.685168800001,3.552,37.201,0.59,1.0
9.65,128.181952,37.950251,7329.214704,3.563,37.324,0.6,1.0
9.6666,128.181953,37.950291,7331.7524688,3.574,37.447,0.61,1.0
9.6833,128.181954,37.950331,7334.298463200001,3.585,37.569,0.619,1.0
9.7,128.181954,37.950371,7336.8526872,3.595,37.692,0.629,1.0
9.7166,128.181955,37.950411,7339.415140800001,3.606,37.815,0.639,1.0
9.7333,128.181956,37.95045,7341.9855192,3.616,37.938,0.649,1.0
9.75,128.181957,37.95049,7344.5641272,3.626,38.061,0.659,1.0
9.7666,128.181958,37.95053,7347.150964800001,3.636,38.184,0.668,1.0
9.7833,128.181958,37.950569,7349.746032,3.645,38.307,0.678,1.0
9.8,128.181959,37.950609,7352.349024000001,3.655,38.431,0.688,1.0
9.8166,128.18196,37.950648,7354.9599408,3.664,38.554,0.699,1.0
9.8333,128.181961,37.950688,7357.579087200001,3.674,38.677,0.709,1.0
9.85,128.181962,37.950727,7360.2064632,3.683,38.801,0.719,1.0
9.8666,128.181962,37.950766,7362.841764000001,3.692,38.924,0.729,1.0
9.8833,128.181963,37.950806,7365.4849896,3.7,39.048,0.739,1.0
9.9,128.181964,37.950845,7368.1361400000005,3.709,39.172,0.75,1.0
9.9166,128.181965,37.950884,7370.795520000001,3.718,39.295,0.76,1.0
9.9333,128.181966,37.950923,7373.462824800001,3.726,39.419,0.77,1.0
9.95,128.181967,37.950962,7376.1380544,3.734,39.543,0.781,1.0
9.9666,128.181968,37.951001,7378.8212088,3.742,39.667,0.791,1.0
9.9833,128.181969,37.95104,7381.512288000001,3.75,39.791,0.802,1.0
10.0,128.181969,37.951078,7384.211292000001,3.758,39.915,0.812,1.0
10.0166,128.18197,37.951117,7386.9182208,3.766,40.039,0.823,1.0
10.0333,128.181971,37.951156,7389.633074400001,3.773,40.163,0.833,1.0
10.05,128.181972,37.951194,7392.3558528,3.781,40.287,0.844,1.0
10.0666,128.181973,37.951233,7395.086556000001,3.788,40.412,0.855,1.0
10.0833,128.181974,37.951272,7397.8248792,3.795,40.536,0.865,1.0
10.1,128.181975,37.95131,7400.571127200001,3.802,40.661,0.876,1.0
10.1166,128.181976,37.951348,7403.3253,3.809,40.785,0.887,1.0
10.1333,128.181977,37.951387,7406.0870928,3.816,40.91,0.898,1.0
10.15,128.181978,37.951425,7408.8568104000005,3.823,41.035,0.909,1.0
10.1666,128.181979,37.951463,7411.634148,3.829,41.159,0.92,1.0
10.1833,128.18198,37.951501,7414.419410400001,3.836,41.284,0.931,1.0
10.2,128.181981,37.951539,7417.212292800001,3.842,41.409,0.942,1.0
10.2166,128.181982,37.951577,7420.0127952,3.848,41.534,0.953,1.0
10.2333,128.181983,37.951615,7422.8209176,3.854,41.659,0.964,1.0
10.25,128.181984,37.951653,7425.636964800001,3.86,41.784,0.975,1.0
10.2666,128.181985,37.951691,7428.460632,3.866,41.909,0.986,1.0
10.2833,128.181986,37.951729,7431.291919200001,3.872,42.035,0.997,1.0
10.3,128.181987,37.951766,7434.1308264,3.877,42.16,1.008,1.0
10.3166,128.181988,37.951804,7436.9773536,3.883,42.286,1.02,1.0
10.3333,128.181989,37.951841,7439.831500800001,3.888,42.411,1.031,1.0
10.35,128.18199,37.951879,7442.693268,3.893,42.537,1.042,1.0
10.3666,128.181991,37.951916,7445.5626552,3.898,42.662,1.054,1.0
10.3833,128.181992,37.951954,7448.4393576,3.904,42.788,1.065,1.0
10.4,128.181993,37.951991,7451.3239848,3.908,42.914,1.077,1.0
10.4166,128.181994,37.952028,7454.215927200001,3.913,43.04,1.088,1.0
10.4333,128.181995,37.952065,7457.1151848,3.918,43.166,1.1,1.0
10.45,128.181996,37.952102,7460.0220624,3.923,43.292,1.111,1.0
10.4666,128.181997,37.95214,7462.936560000001,3.927,43.418,1.123,1.0
10.4833,128.181998,37.952176,7465.8583728,3.932,43.544,1.134,1.0
10.5,128.181999,37.952213,7468.787500800001,3.936,43.67,1.146,1.0
10.5166,128.182,37.95225,7471.7242488,3.94,43.797,1.158,1.0
10.5333,128.182001,37.952287,7474.668312,3.944,43.923,1.169,1.0
10.55,128.182002,37.952324,7477.619995200001,3.948,44.05,1.181,1.0
10.5666,128.182003,37.95236,7480.5786888,3.952,44.176,1.193,1.0
10.5833,128.182005,37.952397,7483.5450024,3.956,44.303,1.205,1.0
10.6,128.182006,37.952433,7486.5183264,3.96,44.43,1.217,1.0
10.6166,128.182007,37.95247,7489.499270400001,3.964,44.556,1.229,1.0
10.6333,128.182008,37.952506,7492.4875296,3.967,44.683,1.24,1.0
10.65,128.182009,37.952542,7495.4827992,3.971,44.81,1.252,1.0
10.6666,128.18201,37.952579,7498.4856887999995,3.974,44.937,1.264,1.0
10.6833,128.182011,37.952615,7501.4955887999995,3.978,45.065,1.276,1.0
10.7,128.182013,37.952651,7504.512804,3.981,45.192,1.288,1.0
10.7166,128.182014,37.952687,7507.5373344,3.984,45.319,1.301,1.0
10.7333,128.182015,37.952723,7510.5688752,3.987,45.446,1.313,1.0
10.75,128.182016,37.952759,7513.607731200001,3.99,45.574,1.325,1.0
10.7666,128.182017,37.952795,7516.6535976000005,3.993,45.702,1.337,1.0
10.7833,128.182018,37.95283,7519.706779200001,3.996,45.829,1.349,1.0
10.8,128.18202,37.952866,7522.7669712,3.999,45.957,1.362,1.0
10.8166,128.182021,37.952902,7525.834478400001,4.002,46.085,1.374,1.0
10.8333,128.182022,37.952937,7528.9086912,4.004,46.213,1.386,1.0
10.85,128.182023,37.952973,7531.990219200001,4.007,46.341,1.399,1.0
10.8666,128.182024,37.953008,7535.0787576,4.009,46.469,1.411,1.0
10.8833,128.182026,37.953043,7538.174611200001,4.012,46.597,1.423,1.0
10.9,128.182027,37.953079,7541.277170400001,4.014,46.725,1.436,1.0
10.9166,128.182028,37.953114,7544.38674,4.017,46.853,1.448,1.0
10.9333,128.182029,37.953149,7547.503624800001,4.019,46.982,1.461,1.0
10.95,128.182031,37.953184,7550.627215200001,4.021,47.11,1.473,1.0
10.9666,128.182032,37.953219,7553.757816,4.023,47.239,1.486,1.0
10.9833,128.182033,37.953254,7556.8951224,4.025,47.367,1.499,1.0
11.0,128.182034,37.953289,7560.039744,4.027,47.496,1.511,1.0
11.0166,128.182036,37.953323,7563.1910712,4.029,47.625,1.524,1.0
11.0333,128.182037,37.953358,7566.349104,4.031,47.754,1.537,1.0
11.05,128.182038,37.953393,7569.5141472000005,4.033,47.883,1.549,1.0
11.0666,128.182039,37.953427,7572.686200800001,4.035,48.012,1.562,1.0
11.0833,128.182041,37.953462,7575.864960000001,4.036,48.141,1.575,1.0
11.1,128.182042,37.953496,7579.050424800001,4.038,48.271,1.588,1.0
11.1166,128.182043,37.95353,7582.2429,4.04,48.4,1.601,1.0
11.1333,128.182045,37.953565,7585.4420808,4.041,48.53,1.614,1.0
11.15,128.182046,37.953599,7588.6479672000005,4.043,48.659,1.627,1.0
11.1666,128.182047,37.953633,7591.8605592,4.044,48.789,1.64,1.0
11.1833,128.182049,37.953667,7595.079856800001,4.045,48.918,1.653,1.0
11.2,128.18205,37.953701,7598.30586,4.047,49.048,1.666,1.0
11.2166,128.182051,37.953735,7601.538568800001,4.048,49.178,1.679,1.0
11.2333,128.182053,37.953769,7604.777983200001,4.049,49.308,1.692,1.0
11.25,128.182054,37.953802,7608.0241032,4.051,49.438,1.705,1.0
11.2666,128.182055,37.953836,7611.276624000001,4.052,49.569,1.718,1.0
11.2833,128.182057,37.95387,7614.5358504000005,4.053,49.699,1.731,1.0
11.3,128.182058,37.953903,7617.801782400001,4.054,49.829,1.745,1.0
11.3166,128.182059,37.953937,7621.074115200001,4.055,49.96,1.758,1.0
11.3333,128.182061,37.95397,7624.3531536,4.056,50.09,1.771,1.0
11.35,128.182062,37.954003,7627.638897600001,4.057,50.221,1.785,1.0
11.3666,128.182063,37.954037,7630.930737600001,4.058,50.352,1.798,1.0
11.3833,128.182065,37.95407,7634.2292832,4.059,50.483,1.812,1.0
11.4,128.182066,37.954103,7637.5342296,4.06,50.614,1.825,1.0
11.4166,128.182068,37.954136,7640.8458816,4.06,50.745,1.839,1.0
11.4333,128.182069,37.954169,7644.1636296,4.061,50.876,1.852,1.0
11.45,128.18207,37.954202,7647.488083200001,4.062,51.007,1.866,1.0
11.4666,128.182072,37.954235,7650.818937600001,4.063,51.139,1.879,1.0
11.4833,128.182073,37.954267,7654.155888000001,4.063,51.27,1.893,1.0
11.5,128.182075,37.9543,7657.499544,4.064,51.402,1.907,1.0
11.5166,128.182076,37.954332,7660.849296,4.064,51.533,1.92,1.0
11.5333,128.182077,37.954365,7664.2054488,4.065,51.665,1.934,1.0
11.55,128.182079,37.954397,7667.567697600001,4.066,51.797,1.948,1.0
11.5666,128.18208,37.95443,7670.936652000001,4.066,51.928,1.962,1.0
11.5833,128.182082,37.954462,7674.3117024,4.066,52.06,1.976,1.0
11.6,128.182083,37.954494,7677.6928488,4.067,52.192,1.989,1.0
11.6166,128.182085,37.954526,7681.080396,4.067,52.324,2.003,1.0
11.6333,128.182086,37.954558,7684.4740392,4.068,52.456,2.017,1.0
11.65,128.182088,37.95459,7687.8737784,4.068,52.588,2.031,1.0
11.6666,128.182089,37.954622,7691.2799184000005,4.068,52.72,2.045,1.0
11.6833,128.182091,37.954654,7694.692154400001,4.069,52.853,2.059,1.0
11.7,128.182092,37.954685,7698.1101816,4.069,52.985,2.073,1.0
11.7166,128.182094,37.954717,7701.5346096,4.069,53.117,2.088,1.0
11.7333,128.182095,37.954749,7704.965133600001,4.069,53.25,2.102,1.0
11.75,128.182097,37.95478,7708.4017536,4.069,53.382,2.116,1.0
11.7666,128.182098,37.954812,7711.844164800001,4.07,53.515,2.13,1.0
11.7833,128.1821,37.954843,7715.2929768,4.07,53.647,2.144,1.0
11.8,128.182101,37.954874,7718.74758,4.07,53.78,2.159,1.0
11.8166,128.182103,37.954905,7722.207974400001,4.07,53.913,2.173,1.0
11.8333,128.182104,37.954936,7725.674769600001,4.07,54.046,2.187,1.0
11.85,128.182106,37.954967,7729.1470512000005,4.07,54.179,2.202,1.0
11.8666,128.182107,37.954998,7732.625428800001,4.07,54.312,2.216,1.0
11.8833,128.182109,37.955029,7736.1099024,4.07,54.445,2.231,1.0
11.9,128.18211,37.95506,7739.6001672,4.07,54.579,2.245,1.0
11.9166,128.182112,37.955091,7743.0962232,4.07,54.712,2.26,1.0
11.9333,128.182113,37.955121,7746.598070400001,4.07,54.846,2.274,1.0
11.95,128.182115,37.955152,7750.105708800001,4.07,54.979,2.289,1.0
11.9666,128.182116,37.955182,7753.619138400001,4.07,55.113,2.304,1.0
11.9833,128.182118,37.955213,7757.1383592,4.07,55.247,2.319,1.0
12.0,128.18212,37.955243,7760.6633712,4.07,55.381,2.333,1.0
12.0166,128.182121,37.955273,7764.1941744000005,4.07,55.515,2.348,1.0
12.0333,128.182123,37.955303,7767.730768800001,4.07,55.649,2.363,1.0
12.05,128.182124,37.955333,7771.2728496,4.07,55.783,2.378,1.0
12.0666,128.182126,37.955363,7774.8207216,4.07,55.917,2.393,1.0
12.0833,128.182127,37.955393,7778.37408,4.069,56.052,2.408,1.0
12.1,128.182129,37.955423,7781.9332296,4.069,56.186,2.423,1.0
12.1166,128.182131,37.955453,7785.497865600001,4.069,56.321,2.438,1.0
12.1333,128.182132,37.955482,7789.067988000001,4.069,56.456,2.453,1.0
12.15,128.182134,37.955512,7792.6439016,4.069,56.59,2.468,1.0
12.1666,128.182135,37.955541,7796.2253016,4.069,56.725,2.484,1.0
12.1833,128.182137,37.955571,7799.812188000001,4.069,56.86,2.499,1.0
12.2,128.182139,37.9556,7803.404560800001,4.068,56.996,2.514,1.0
12.2166,128.18214,37.955629,7807.002420000001,4.068,57.131,2.53,1.0
12.2333,128.182142,37.955659,7810.605765600001,4.068,57.266,2.545,1.0
12.25,128.182143,37.955688,7814.214597600001,4.068,57.402,2.561,1.0
12.2666,128.182145,37.955717,7817.8286112000005,4.068,57.538,2.576,1.0
12.2833,128.182147,37.955746,7821.448111200001,4.067,57.673,2.592,1.0
12.3,128.182148,37.955774,7825.073097600001,4.067,57.809,2.607,1.0
12.3166,128.18215,37.955803,7828.703570400001,4.067,57.945,2.623,1.0
12.3333,128.182152,37.955832,7832.338920000001,4.067,58.081,2.639,1.0
12.35,128.182153,37.95586,7835.9800608000005,4.067,58.218,2.655,1.0
12.3666,128.182155,37.955889,7839.626078400001,4.067,58.354,2.671,1.0
12.3833,128.182156,37.955917,7843.277582400001,4.066,58.49,2.686,1.0
12.4,128.182158,37.955946,7846.934268,4.066,58.627,2.702,1.0
12.4166,128.18216,37.955974,7850.5961352,4.066,58.764,2.718,1.0
12.4333,128.182161,37.956002,7854.263184000001,4.066,58.9,2.734,1.0
12.45,128.182163,37.95603,7857.935414400001,4.066,59.037,2.751,1.0
12.4666,128.182165,37.956058,7861.6128264,4.065,59.175,2.767,1.0
12.4833,128.182166,37.956086,7865.295420000001,4.065,59.312,2.783,1.0
12.5,128.182168,37.956114,7868.9831952,4.065,59.449,2.799,1.0
12.5166,128.18217,37.956142,7872.675847200001,4.065,59.586,2.816,1.0
12.5333,128.182171,37.956169,7876.3736808,4.065,59.724,2.832,1.0
12.55,128.182173,37.956197,7880.076696,4.065,59.862,2.849,1.0
12.5666,128.182175,37.956224,7883.784588,4.065,60.0,2.865,1.0
12.5833,128.182176,37.956252,7887.497356800001,4.064,60.138,2.882,1.0
12.6,128.182178,37.956279,7891.2153072,4.064,60.276,2.898,1.0
12.6166,128.18218,37.956306,7894.9378295999995,4.064,60.414,2.915,1.0
12.6333,128.182182,37.956333,7898.665838400001,4.064,60.552,2.932,1.0
12.65,128.182183,37.956361,7902.398419200001,4.064,60.691,2.949,1.0
12.6666,128.182185,37.956388,7906.1358768,4.064,60.829,2.966,1.0
12.6833,128.182187,37.956414,7909.878211200001,4.064,60.968,2.983,1.0
12.7,128.182188,37.956441,7913.6254224,4.064,61.107,3.0,1.0
12.7166,128.18219,37.956468,7917.377510400001,4.064,61.246,3.017,1.0
12.7333,128.182192,37.956495,7921.1344751999995,4.064,61.385,3.034,1.0
12.75,128.182193,37.956521,7924.896012,4.064,61.524,3.051,1.0
12.7666,128.182195,37.956548,7928.6624256,4.064,61.664,3.069,1.0
12.7833,128.182197,37.956574,7932.433411200001,4.064,61.803,3.086,1.0
12.8,128.182199,37.9566,7936.2092736,4.064,61.943,3.104,1.0
12.8166,128.1822,37.956627,7939.989708,4.064,62.083,3.121,1.0
12.8333,128.182202,37.956653,7943.7750192,4.064,62.223,3.139,1.0
12.85,128.182204,37.956679,7947.5645976000005,4.064,62.363,3.157,1.0
12.8666,128.182206,37.956705,7951.3590528,4.064,62.503,3.174,1.0
12.8833,128.182207,37.956731,7955.15808,4.064,62.643,3.192,1.0
12.9,128.182209,37.956756,7958.961679200001,4.064,62.784,3.21,1.0
12.9166,128.182211,37.956782,7962.769850400001,4.064,62.925,3.228,1.0
12.9333,128.182212,37.956808,7966.5825936,4.064,63.065,3.246,1.0
12.95,128.182214,37.956833,7970.399604,4.065,63.206,3.264,1.0
12.9666,128.182216,37.956859,7974.2211864,4.065,63.347,3.283,1.0
12.9833,128.182218,37.956884,7978.047340800001,4.065,63.489,3.301,1.0
13.0,128.182219,37.956909,7981.8780672,4.065,63.63,3.319,1.0
13.0166,128.182221,37.956934,7985.713060800001,4.065,63.772,3.338,1.0
13.0333,128.182223,37.956959,7989.5523216,4.066,63.913,3.357,1.0
13.0499,128.182225,37.956984,7993.3958496000005,4.066,64.055,3.375,1.0
13.0666,128.182226,37.957009,7997.243949600001,4.066,64.197,3.394,1.0
13.0833,128.182228,37.957034,8001.0963168,4.067,64.339,3.413,1.0
13.1,128.18223,37.957059,8004.952951200001,4.067,64.481,3.432,1.0
13.1166,128.182232,37.957083,8008.8138528,4.067,64.624,3.451,1.0
13.1333,128.182233,37.957108,8012.6790216,4.068,64.766,3.47,1.0
13.15,128.182235,37.957132,8016.5484576,4.068,64.909,3.489,1.0
13.1666,128.182237,37.957157,8020.422160800001,4.069,65.052,3.509,1.0
13.1833,128.182239,37.957181,8024.2998264,4.069,65.195,3.528,1.0
13.2,128.182241,37.957205,8028.181759200001,4.07,65.339,3.548,1.0
13.2166,128.182242,37.957229,8032.067959200001,4.07,65.483,3.567,1.0
13.2333,128.182244,37.957253,8035.9581216,4.071,65.627,3.587,1.0
13.25,128.182246,37.957277,8039.852551200001,4.071,65.771,3.607,1.0
13.2666,128.182248,37.957301,8043.750638400001,4.072,65.916,3.627,1.0
13.2833,128.182249,37.957325,8047.652992800001,4.072,66.061,3.647,1.0
13.3,128.182251,37.957349,8051.5593096,4.073,66.206,3.668,1.0
13.3166,128.182253,37.957372,8055.4698935999995,4.074,66.352,3.688,1.0
13.3333,128.182255,37.957396,8059.3841352,4.075,66.498,3.709,1.0
13.35,128.182256,37.957419,8063.3023392,4.075,66.645,3.73,1.0
13.3666,128.182258,37.957442,8067.224505600001,4.076,66.791,3.75,1.0
13.3833,128.18226,37.957466,8071.1506344,4.077,66.938,3.771,1.0
13.4,128.182262,37.957489,8075.0807256,4.078,67.086,3.793,1.0
13.4166,128.182264,37.957512,8079.014474400001,4.079,67.233,3.814,1.0
13.4333,128.182265,37.957535,8082.9518808,4.079,67.381,3.835,1.0
13.45,128.182267,37.957557,8086.893249600001,4.08,67.53,3.857,1.0
13.4666,128.182269,37.95758,8090.8385808,4.081,67.678,3.879,1.0
13.4833,128.182271,37.957603,8094.787569600001,4.082,67.827,3.901,1.0
13.5,128.182272,37.957625,8098.740216,4.083,67.976,3.923,1.0
13.5166,128.182274,37.957648,8102.69652,4.084,68.126,3.945,1.0
13.5333,128.182276,37.95767,8106.6564816,4.085,68.276,3.967,1.0
13.55,128.182278,37.957693,8110.620100800001,4.086,68.426,3.99,1.0
13.5666,128.18228,37.957715,8114.587377600001,4.087,68.576,4.013,1.0
13.5833,128.182281,37.957737,8118.558312,4.088,68.727,4.035,1.0
13.6,128.182283,37.957759,8122.5325992,4.089,68.878,4.058,1.0
13.6166,128.182285,37.957781,8126.5108488000005,4.09,69.029,4.082,1.0
13.6333,128.182287,37.957803,8130.492451200001,4.091,69.181,4.105,1.0
13.65,128.182289,37.957824,8134.477406400001,4.092,69.333,4.128,1.0
13.6666,128.18229,37.957846,8138.466019200001,4.093,69.485,4.152,1.0
13.6833,128.182292,37.957867,8142.4579848,4.094,69.638,4.176,1.0
13.7,128.182294,37.957889,8146.4533032,4.096,69.79,4.2,1.0
13.7166,128.182296,37.95791,8150.452279200001,4.097,69.944,4.224,1.0
13.7333,128.182297,37.957932,8154.4543032,4.098,70.097,4.249,1.0
13.75,128.182299,37.957953,8158.4599848,4.099,70.251,4.273,1.0
13.7666,128.182301,37.957974,8162.469019200001,4.101,70.405,4.298,1.0
13.7833,128.182303,37.957995,8166.481101600001,4.102,70.559,4.323,1.0
13.8,128.182305,37.958016,8170.4965368,4.103,70.714,4.348,1.0
13.8166,128.182306,37.958036,8174.515324800001,4.105,70.868,4.374,1.0
13.8333,128.182308,37.958057,8178.5371608000005,4.106,71.024,4.399,1.0
13.85,128.18231,37.958078,8182.562349600001,4.107,71.179,4.425,1.0
13.8666,128.182312,37.958098,8186.5908912,4.109,71.335,4.451,1.0
13.8833,128.182313,37.958119,8190.6224808,4.11,71.491,4.477,1.0
13.9,128.182315,37.958139,8194.6571184,4.112,71.647,4.503,1.0
13.9166,128.182317,37.958159,8198.694804,4.114,71.804,4.53,1.0
13.9333,128.182319,37.958179,8202.735537600001,4.115,71.961,4.557,1.0
13.95,128.182321,37.958199,8206.779624,4.117,72.118,4.584,1.0
13.9666,128.182322,37.958219,8210.8264536,4.119,72.276,4.611,1.0
13.9833,128.182324,37.958239,8214.876331200001,4.121,72.434,4.639,1.0
14.0,128.182326,37.958259,8218.9292568,4.123,72.592,4.666,1.0
14.0166,128.182328,37.958279,8222.9852304,4.125,72.75,4.694,1.0
14.0333,128.182329,37.958298,8227.043947200002,4.127,72.909,4.723,1.0
14.05,128.182331,37.958318,8231.105712,4.129,73.068,4.751,1.0
14.0666,128.182333,37.958337,8235.17022,4.131,73.227,4.78,1.0
14.0833,128.182335,37.958356,8239.2374712,4.133,73.387,4.809,1.0
14.1,128.182337,37.958375,8243.3077704,4.135,73.546,4.838,1.0
14.1166,128.182338,37.958394,8247.3808128,4.137,73.705,4.867,1.0
14.1333,128.18234,37.958413,8251.4565984,4.139,73.864,4.896,1.0
14.15,128.182342,37.958432,8255.5351272,4.141,74.024,4.925,1.0
14.1666,128.182344,37.958451,8259.6163992,4.143,74.183,4.955,1.0
14.1833,128.182345,37.95847,8263.7001096,4.145,74.343,4.985,1.0
14.2,128.182347,37.958488,8267.786868000001,4.147,74.502,5.015,1.0
14.2166,128.182349,37.958507,8271.87576,4.155,74.662,5.048,1.0
14.2333,128.182351,37.958525,8275.967700000001,4.168,74.821,5.085,1.0
14.25,128.182352,37.958544,8280.0617736,4.188,74.98,5.125,1.0
14.2666,128.182354,37.958562,8284.1585904,4.212,75.14,5.167,1.0
14.2833,128.182356,37.95858,8288.257540800001,4.241,75.299,5.212,1.0
14.3,128.182358,37.958598,8292.3592344,4.275,75.458,5.258,1.0
14.3166,128.182359,37.958616,8296.4633664,4.312,75.618,5.306,1.0
14.3333,128.182361,37.958634,8300.5699368,4.354,75.777,5.357,1.0
14.35,128.182363,37.958651,8304.6789456,4.401,75.936,5.412,1.0
14.3666,128.182364,37.958669,8308.790088000002,4.452,76.095,5.471,1.0
14.3833,128.182366,37.958686,8312.903668800001,4.509,76.254,5.535,1.0
14.4,128.182368,37.958704,8317.0193832,4.572,76.413,5.605,1.0
14.4166,128.18237,37.958721,8321.137536,4.641,76.572,5.68,1.0
14.4333,128.182371,37.958738,8325.2581272,4.716,76.731,5.762,1.0
14.45,128.182373,37.958756,8329.3805472,4.798,76.89,5.851,1.0
14.4666,128.182375,37.958773,8333.5054056,4.887,77.049,5.946,1.0
14.4833,128.182376,37.95879,8337.6323976,4.982,77.208,6.049,1.0
14.5,128.182378,37.958806,8341.7615232,5.085,77.366,6.159,1.0
14.5166,128.18238,37.958823,8345.8927824,5.196,77.525,6.278,1.0
14.5333,128.182382,37.95884,8350.0261752,5.314,77.684,6.403,1.0
14.55,128.182383,37.958856,8354.1613968,5.438,77.842,6.535,1.0
14.5666,128.182385,37.958873,8358.298752,5.569,78.001,6.672,1.0
14.5833,128.182387,37.958889,8362.4382408,5.705,78.159,6.814,1.0
14.6,128.182388,37.958905,8366.5795584,5.848,78.318,6.961,1.0
14.6166,128.18239,37.958921,8370.7227048,5.995,78.477,7.112,1.0
14.6333,128.182392,37.958937,8374.8679848,6.148,78.636,7.267,1.0
14.65,128.182393,37.958953,8379.0150936,6.306,78.795,7.426,1.0
14.6666,128.182395,37.958969,8383.1637264,6.469,78.954,7.589,1.0
14.6833,128.182397,37.958985,8387.3144928,6.636,79.113,7.756,1.0
14.7,128.182398,37.959001,8391.467088000001,6.809,79.272,7.928,1.0
14.7166,128.1824,37.959016,8395.621512,6.986,79.431,8.103,1.0
14.7333,128.182402,37.959032,8399.777460000001,7.169,79.59,8.283,1.0
14.75,128.182403,37.959047,8403.9352368,7.357,79.749,8.467,1.0
14.7666,128.182405,37.959062,8408.0945376,7.55,79.909,8.657,1.0
14.7833,128.182407,37.959077,8412.255667200001,7.748,80.068,8.851,1.0
14.8,128.182408,37.959092,8416.4183208,7.952,80.228,9.05,1.0
14.8166,128.18241,37.959107,8420.5824984,8.162,80.388,9.256,1.0
14.8333,128.182412,37.959122,8424.7485048,8.379,80.548,9.467,1.0
14.85,128.182413,37.959137,8428.9157304,8.601,80.708,9.685,1.0
14.8666,128.182415,37.959152,8433.0847848,8.831,80.868,9.909,1.0
14.8833,128.182417,37.959166,8437.2550584,9.068,81.028,10.14,1.0
14.9,128.182418,37.959181,8441.426856,9.312,81.188,10.379,1.0
14.9166,128.18242,37.959195,8445.600177600001,9.565,81.348,10.627,1.0
14.9333,128.182422,37.959209,8449.7747184,9.826,81.508,10.882,1.0
14.95,128.182423,37.959223,8453.9504784,10.096,81.669,11.147,1.0
14.9666,128.182425,37.959237,8458.1277624,10.376,81.829,11.421,1.0
14.9833,128.182427,37.959251,8462.3062656,10.666,81.989,11.706,1.0
15.0,128.182428,37.959265,8466.4862928,10.967,82.15,12.002,1.0
15.0166,128.18243,37.959279,8470.6672344,11.279,82.31,12.309,1.0
15.0333,128.182432,37.959292,8474.8497,11.604,82.471,12.629,1.0
15.05,128.182433,37.959306,8479.03308,11.942,82.631,12.963,1.0
15.0666,128.182435,37.959319,8483.217679200001,12.294,82.792,13.31,1.0
15.0833,128.182437,37.959333,8487.4031928,12.661,82.952,13.673,1.0
15.1,128.182438,37.959346,8491.5899256,13.044,83.113,14.052,1.0
15.1166,128.18244,37.959359,8495.777877600001,13.445,83.273,14.449,1.0
15.1333,128.182441,37.959372,8499.966744,13.864,83.433,14.865,1.0
15.15,128.182443,37.959385,8504.1565248,14.304,83.593,15.301,1.0
15.1666,128.182445,37.959398,8508.347220000001,14.766,83.753,15.759,1.0
15.1833,128.182446,37.95941,8512.5391344,15.251,83.913,16.24,1.0
15.2,128.182448,37.959423,8516.7316584,15.761,84.073,16.748,1.0
15.2166,128.18245,37.959435,8520.925096800001,16.299,84.232,17.283,1.0
15.2333,128.182451,37.959448,8525.1194496,16.867,84.391,17.848,1.0
15.25,128.182453,37.95946,8529.3147168,17.468,84.55,18.446,1.0
15.2666,128.182455,37.959472,8533.5105936,18.104,84.708,19.079,1.0
15.2833,128.182456,37.959484,8537.70708,18.779,84.866,19.752,1.0
