Time,Longitude,Latitude,Altitude,Roll (deg),Pitch (deg),Yaw (deg),Health
0.0,128.181881,37.923646,7000.146528,0.0,-0.003,0.0,1.0
0.0166,128.181881,37.923691,7000.1605488000005,0.0,-0.012,0.0,1.0
0.0333,128.181881,37.923736,7000.173960000001,0.0,-0.025,0.0,1.0
0.05,128.181881,37.923781,7000.186152000001,0.0,-0.039,0.0,1.0
0.0666,128.181881,37.923826,7000.1977344,0.0,-0.054,0.0,1.0
0.0833,128.181881,37.923871,7000.2084024,0.0,-0.069,359.999,1.0
0.1,128.181881,37.923916,7000.218156000001,0.0,-0.085,359.999,1.0
0.1166,128.181881,37.923961,7000.2273000000005,0.0,-0.099,359.999,1.0
0.1333,128.181881,37.924006,7000.235224800001,0.0,-0.112,359.999,1.0
0.15,128.181881,37.924051,7000.24254,0.0,-0.125,359.999,1.0
0.1666,128.181881,37.924096,7000.2489408,0.0,-0.136,359.999,1.0
0.1833,128.181881,37.924141,7000.2544272000005,0.0,-0.146,0.0,1.0
0.2,128.181881,37.924186,7000.2589992,0.0,-0.155,0.0,1.0
0.2166,128.181881,37.924231,7000.2626568000005,0.0,-0.163,0.0,1.0
0.2333,128.181881,37.924276,7000.2657048,0.0,-0.17,0.0,1.0
0.25,128.181881,37.924321,7000.267838400001,0.0,-0.176,0.0,1.0
0.2666,128.181881,37.924366,7000.2690575999995,0.0,-0.181,0.0,1.0
0.2833,128.181881,37.924411,7000.2696672,0.0,-0.186,0.0,1.0
0.3,128.181881,37.924456,7000.2690575999995,0.0,-0.19,0.0,1.0
0.3166,128.181881,37.924501,7000.267838400001,0.0,-0.195,0.0,1.0
0.3333,128.181881,37.924546,7000.266009600001,0.0,-0.199,0.0,1.0
0.35,128.181881,37.924591,7000.2632664,0.0,-0.202,0.0,1.0
0.3666,128.181881,37.924636,7000.2596088,0.001,-0.206,0.0,1.0
0.3833,128.181881,37.924682,7000.255341600001,0.001,-0.21,0.0,1.0
0.4,128.181881,37.924727,7000.2501600000005,0.001,-0.214,0.0,1.0
0.4166,128.181881,37.924772,7000.2443688,0.001,-0.217,0.0,1.0
0.4333,128.181881,37.924817,7000.2376632000005,0.001,-0.221,0.0,1.0
0.45,128.181881,37.924862,7000.2300432,0.001,-0.225,0.0,1.0
0.4666,128.181881,37.924907,7000.2218136,0.002,-0.229,0.0,1.0
0.4833,128.181881,37.924952,7000.2129744,0.002,-0.233,0.0,1.0
0.5,128.181881,37.924998,7000.2032208,0.002,-0.238,0.001,1.0
0.5166,128.181881,37.925043,7000.1928576,0.002,-0.242,0.001,1.0
0.5333,128.181881,37.925088,7000.1818848,0.002,-0.246,0.001,1.0
0.55,128.181881,37.925133,7000.169997600001,0.002,-0.251,0.001,1.0
0.5666,128.181881,37.925179,7000.157500800001,0.003,-0.255,0.001,1.0
0.5833,128.181881,37.925224,7000.1440896,0.003,-0.26,0.001,1.0
0.6,128.181881,37.925269,7000.1300688,0.003,-0.264,0.001,1.0
0.6166,128.181881,37.925314,7000.115438400001,0.003,-0.269,0.001,1.0
0.6333,128.181881,37.92536,7000.1001984,0.003,-0.273,0.001,1.0
0.65,128.181881,37.925405,7000.084044,0.003,-0.278,0.0,1.0
0.6666,128.181881,37.92545,7000.06728,0.003,-0.282,0.0,1.0
0.6833,128.181881,37.925495,7000.0499064000005,0.003,-0.287,0.001,1.0
0.7,128.181881,37.925541,7000.0316184,0.003,-0.291,0.001,1.0
0.7166,128.181881,37.925586,7000.012720799999,0.004,-0.295,0.001,1.0
0.7333,128.181881,37.925631,6999.993213600001,0.004,-0.3,0.001,1.0
0.75,128.181881,37.925677,6999.9730968,0.007,-0.305,0.002,1.0
0.7666,128.181881,37.925722,6999.9520656,0.011,-0.31,0.003,1.0
0.7833,128.181881,37.925767,6999.930120000001,0.017,-0.316,0.004,1.0
0.8,128.181881,37.925813,6999.907869600001,0.023,-0.321,0.005,1.0
0.8166,128.181881,37.925858,6999.885009600001,0.029,-0.326,0.006,1.0
0.8333,128.181881,37.925903,6999.86154,0.034,-0.33,0.006,1.0
0.85,128.181881,37.925949,6999.837765600001,0.034,-0.335,0.005,1.0
0.8666,128.181881,37.925994,6999.813991200001,0.025,-0.34,0.003,1.0
0.8833,128.181881,37.92604,6999.7902168,0.002,-0.346,0.0,1.0
0.9,128.181881,37.926085,6999.7652232,-0.025,-0.352,359.996,1.0
0.9166,128.181881,37.92613,6999.7402296,-0.059,-0.358,359.992,1.0
0.9333,128.181881,37.926176,6999.7146264,-0.099,-0.366,359.988,1.0
0.95,128.181881,37.926221,6999.6890232000005,-0.147,-0.373,359.983,1.0
0.9666,128.181881,37.926267,6999.662810400001,-0.202,-0.381,359.978,1.0
0.9833,128.181881,37.926312,6999.636292800001,-0.264,-0.389,359.972,1.0
1.0,128.181881,37.926358,6999.609470400001,-0.335,-0.396,359.966,1.0
1.0166,128.181881,37.926403,6999.5823432,-0.412,-0.404,359.96,1.0
1.0333,128.181881,37.926449,6999.554606400001,-0.496,-0.412,359.954,1.0
1.05,128.181881,37.926494,6999.5265648,-0.587,-0.42,359.947,1.0
1.0666,128.181881,37.92654,6999.496999200001,-0.575,-0.432,359.944,1.0
1.0833,128.181881,37.926585,6999.4662144,-0.462,-0.449,359.945,1.0
1.1,128.181881,37.926631,6999.433296,-0.247,-0.47,359.948,1.0
1.1166,128.181881,37.926676,6999.400377600001,-0.129,-0.492,359.938,1.0
1.1333,128.181881,37.926722,6999.3668496,-0.102,-0.515,359.916,1.0
1.15,128.181881,37.926767,6999.3330168,-0.17,-0.538,359.887,1.0
1.1666,128.181881,37.926813,6999.2994888,-0.336,-0.562,359.854,1.0
1.1833,128.181881,37.926858,6999.266570400001,-0.599,-0.584,359.82,1.0
1.2,128.181881,37.926904,6999.2345663999995,-0.958,-0.607,359.786,1.0
1.2166,128.181881,37.926949,6999.2034768,-1.409,-0.628,359.753,1.0
1.2333,128.181881,37.926995,6999.174215999999,-1.948,-0.648,359.72,1.0
1.25,128.181881,37.927041,6999.1467840000005,-2.573,-0.668,359.689,1.0
1.2666,128.181881,37.927086,6999.121485600001,-3.28,-0.687,359.659,1.0
1.2833,128.181881,37.927132,6999.0983208,-4.064,-0.704,359.629,1.0
1.3,128.181881,37.927177,6999.0772896,-4.923,-0.721,359.601,1.0
1.3166,128.181881,37.927223,6999.058392000001,-5.854,-0.737,359.574,1.0
1.3333,128.181881,37.927269,6999.0413232,-6.853,-0.753,359.547,1.0
1.35,128.181881,37.927314,6999.0260832,-7.917,-0.767,359.522,1.0
1.3666,128.181881,37.92736,6999.012976800001,-9.045,-0.781,359.497,1.0
1.3833,128.181881,37.927405,6999.0016992,-10.232,-0.795,359.474,1.0
1.4,128.181881,37.927451,6998.992250400001,-11.476,-0.808,359.451,1.0
1.4166,128.181881,37.927497,6998.9846304,-12.775,-0.821,359.428,1.0
1.4333,128.181881,37.927542,6998.9785344,-14.127,-0.833,359.407,1.0
1.45,128.181881,37.927588,6998.9742672,-15.528,-0.845,359.387,1.0
1.4666,128.181881,37.927633,6998.9715240000005,-16.977,-0.857,359.367,1.0
1.4833,128.18188,37.927679,6998.9703048,-18.472,-0.868,359.348,1.0
1.5,128.18188,37.927725,6998.970914400001,-20.01,-0.88,359.329,1.0
1.5166,128.18188,37.92777,6998.9727432,-21.59,-0.892,359.312,1.0
1.5333,128.18188,37.927816,6998.976096,-23.21,-0.903,359.295,1.0
1.55,128.18188,37.927862,6998.9809728,-24.867,-0.915,359.279,1.0
1.5666,128.18188,37.927907,6998.9870688,-26.56,-0.927,359.264,1.0
1.5833,128.181879,37.927953,6998.994079200001,-28.285,-0.939,359.249,1.0
1.6,128.181879,37.927998,6999.0013944,-30.033,-0.95,359.236,1.0
1.6166,128.181879,37.928044,6999.009624,-31.794,-0.962,359.225,1.0
1.6333,128.181878,37.92809,6999.0175488,-33.561,-0.973,359.216,1.0
1.65,128.181878,37.928135,6999.0257784000005,-35.327,-0.984,359.209,1.0
1.6666,128.181878,37.928181,6999.0340080000005,-37.088,-0.995,359.203,1.0
1.6833,128.181877,37.928227,6999.041628000001,-38.837,-1.005,359.199,1.0
1.7,128.181877,37.928272,6999.049248,-40.571,-1.015,359.196,1.0
1.7166,128.181877,37.928318,6999.0559536,-42.287,-1.025,359.194,1.0
1.7333,128.181876,37.928364,6999.0620496,-43.981,-1.035,359.194,1.0
1.75,128.181876,37.928409,6999.0675360000005,-45.652,-1.044,359.194,1.0
1.7666,128.181875,37.928455,6999.072108,-47.296,-1.054,359.196,1.0
1.7833,128.181875,37.928501,6999.0757656000005,-48.913,-1.063,359.198,1.0
1.8,128.181874,37.928547,6999.078204,-50.501,-1.073,359.201,1.0
1.8166,128.181874,37.928592,6999.079728000001,-52.058,-1.082,359.204,1.0
1.8333,128.181873,37.928638,6999.079728000001,-53.584,-1.091,359.208,1.0
1.85,128.181872,37.928684,6999.0785088,-55.076,-1.1,359.213,1.0
1.8666,128.181872,37.92873,6999.0757656000005,-56.532,-1.108,359.218,1.0
1.8833,128.181871,37.928775,6999.0714984,-57.953,-1.116,359.223,1.0
1.9,128.18187,37.928821,6999.0654024,-59.336,-1.125,359.229,1.0
1.9166,128.18187,37.928867,6999.0577824,-60.679,-1.132,359.235,1.0
1.9333,128.181869,37.928913,6999.048333600001,-61.982,-1.14,359.242,1.0
1.95,128.181868,37.928958,6999.0367512,-63.241,-1.147,359.248,1.0
1.9666,128.181867,37.929004,6999.02334,-64.457,-1.153,359.255,1.0
1.9833,128.181867,37.92905,6999.0077952,-65.626,-1.16,359.263,1.0
2.0,128.181866,37.929096,6998.9901168,-66.746,-1.166,359.27,1.0
2.0166,128.181865,37.929142,6998.97,-67.817,-1.171,359.278,1.0
2.0333,128.181864,37.929187,6998.9477496,-68.835,-1.176,359.286,1.0
2.05,128.181863,37.929233,6998.923060800001,-69.798,-1.181,359.293,1.0
2.0666,128.181863,37.929279,6998.895933600001,-70.704,-1.185,359.301,1.0
2.0833,128.181862,37.929325,6998.8660632,-71.551,-1.189,359.31,1.0
2.1,128.181861,37.929371,6998.8337544000005,-72.335,-1.193,359.318,1.0
2.1166,128.18186,37.929417,6998.7983976000005,-72.98,-1.191,359.328,1.0
2.1333,128.181859,37.929463,6998.760297600001,-73.491,-1.185,359.339,1.0
2.15,128.181858,37.929509,6998.718844800001,-73.869,-1.177,359.351,1.0
2.1666,128.181858,37.929555,6998.6746488,-74.118,-1.168,359.364,1.0
2.1833,128.181857,37.9296,6998.6274048000005,-74.242,-1.16,359.376,1.0
2.2,128.181856,37.929646,6998.576808,-74.246,-1.151,359.389,1.0
2.2166,128.181855,37.929692,6998.522858400001,-74.135,-1.142,359.403,1.0
2.2333,128.181854,37.929738,6998.465860800001,-73.916,-1.134,359.416,1.0
2.25,128.181854,37.929784,6998.405510400001,-73.592,-1.124,359.431,1.0
2.2666,128.181853,37.92983,6998.342112,-73.224,-1.113,359.446,1.0
2.2833,128.181852,37.929877,6998.275665600001,-72.811,-1.1,359.462,1.0
2.3,128.181851,37.929923,6998.2080000000005,-72.496,-1.097,359.46,1.0
2.3166,128.181851,37.929969,6998.137896,-72.268,-1.102,359.426,1.0
2.3333,128.18185,37.930015,6998.0653536,-72.139,-1.104,359.348,1.0
2.35,128.181849,37.930061,6997.990982400001,-72.114,-1.095,359.216,1.0
2.3666,128.181848,37.930107,6997.9147824,-72.193,-1.068,359.02,1.0
2.3833,128.181847,37.930153,6997.8373632,-72.376,-1.019,358.754,1.0
2.4,128.181846,37.930199,6997.758420000001,-72.66,-0.948,358.415,1.0
2.4166,128.181845,37.930245,6997.6782576,-73.04,-0.859,358.017,1.0
2.4333,128.181844,37.930291,6997.5974856,-73.515,-0.756,357.57,1.0
2.45,128.181843,37.930337,6997.516104,-74.078,-0.646,357.091,1.0
2.4666,128.181842,37.930384,6997.434112800001,-74.728,-0.535,356.597,1.0
2.4833,128.181841,37.93043,6997.3518168,-75.458,-0.428,356.105,1.0
2.5,128.181839,37.930476,6997.269216,-76.266,-0.331,355.631,1.0
2.5166,128.181838,37.930522,6997.186615200001,-77.147,-0.249,355.193,1.0
2.5333,128.181836,37.930568,6997.1034048,-78.099,-0.184,354.806,1.0
2.55,128.181834,37.930614,6997.0201944,-79.117,-0.141,354.488,1.0
2.5666,128.181832,37.93066,6996.9360696,-80.199,-0.119,354.253,1.0
2.5833,128.181831,37.930706,6996.8510304,-81.342,-0.121,354.115,1.0
2.6,128.181828,37.930752,6996.7653816,-82.546,-0.14,354.06,1.0
2.6166,128.181826,37.930798,6996.6782088,-83.81,-0.172,354.072,1.0
2.6333,128.181824,37.930845,6996.5898168,-85.132,-0.213,354.136,1.0
2.65,128.181821,37.930891,6996.499596000001,-86.513,-0.259,354.235,1.0
2.6666,128.181819,37.930937,6996.407546400001,-87.953,-0.307,354.354,1.0
2.6833,128.181816,37.930983,6996.3130584,-89.453,-0.355,354.476,1.0
2.7,128.181814,37.931029,6996.2164368,-91.012,-0.402,354.585,1.0
2.7166,128.181811,37.931075,6996.117072,-92.629,-0.448,354.665,1.0
2.7333,128.181808,37.931121,6996.014964000001,-94.305,-0.495,354.706,1.0
2.75,128.181805,37.931167,6995.909808,-96.038,-0.544,354.707,1.0
2.7666,128.181802,37.931213,6995.8012992,-97.826,-0.596,354.672,1.0
2.7833,128.181798,37.931259,6995.6891328,-99.668,-0.652,354.604,1.0
2.8,128.181795,37.931305,6995.573308800001,-101.561,-0.715,354.505,1.0
2.8166,128.181792,37.931351,6995.4535224,-103.503,-0.787,354.377,1.0
2.8333,128.181788,37.931397,6995.329164000001,-105.487,-0.867,354.224,1.0
2.85,128.181785,37.931443,6995.200538400001,-107.491,-0.957,354.047,1.0
2.8666,128.181781,37.93149,6995.0673408,-109.491,-1.058,353.847,1.0
2.8833,128.181777,37.931536,6994.9292663999995,-111.467,-1.17,353.626,1.0
2.9,128.181773,37.931582,6994.786315200001,-113.4,-1.295,353.386,1.0
2.9166,128.181769,37.931628,6994.638182400001,-115.275,-1.434,353.128,1.0
2.9333,128.181765,37.931674,6994.484563200001,-117.076,-1.587,352.854,1.0
2.95,128.181761,37.93172,6994.3254576,-118.793,-1.756,352.566,1.0
2.9666,128.181757,37.931766,6994.161170400001,-120.418,-1.942,352.266,1.0
2.9833,128.181753,37.931812,6993.9907872,-121.942,-2.145,351.956,1.0
3.0,128.181748,37.931858,6993.814308,-123.362,-2.364,351.636,1.0
3.0166,128.181744,37.931904,6993.6320376,-124.672,-2.598,351.312,1.0
3.0333,128.18174,37.93195,6993.4436712,-125.872,-2.841,350.992,1.0
3.05,128.181735,37.931996,6993.2492088,-126.961,-3.09,350.68,1.0
3.0666,128.18173,37.932042,6993.0480408,-127.94,-3.342,350.38,1.0
3.0833,128.181726,37.932088,6992.8398624,-128.862,-3.596,350.097,1.0
3.1,128.181721,37.932134,6992.6246736,-129.707,-3.85,349.83,1.0
3.1166,128.181716,37.93218,6992.402474400001,-130.458,-4.1,349.578,1.0
3.1333,128.181711,37.932226,6992.173264800001,-131.112,-4.345,349.341,1.0
3.15,128.181706,37.932272,6991.93674,-131.672,-4.585,349.118,1.0
3.1666,128.181701,37.932318,6991.693509600001,-132.132,-4.807,348.92,1.0
3.1833,128.181696,37.932365,6991.442964000001,-132.497,-5.0,348.757,1.0
3.2,128.181691,37.932411,6991.1851032,-132.781,-5.15,348.637,1.0
3.2166,128.181686,37.932457,6990.9205368,-132.988,-5.252,348.561,1.0
3.2333,128.18168,37.932503,6990.648655200001,-133.122,-5.307,348.528,1.0
3.25,128.181675,37.932549,6990.370068,-133.183,-5.319,348.538,1.0
3.2666,128.18167,37.932595,6990.0847752,-133.17,-5.295,348.584,1.0
3.2833,128.181664,37.932641,6989.794605600001,-133.259,-5.239,348.692,1.0
3.3,128.181659,37.932687,6989.4971208,-133.447,-5.16,348.851,1.0
3.3166,128.181653,37.932733,6989.1932352,-133.738,-5.065,349.044,1.0
3.3333,128.181647,37.932779,6988.8823392,-134.138,-4.961,349.256,1.0
3.35,128.181641,37.932826,6988.564737600001,-134.648,-4.857,349.472,1.0
3.3666,128.181636,37.932872,6988.2401256,-135.267,-4.754,349.686,1.0
3.3833,128.18163,37.932918,6987.908808,-135.996,-4.656,349.893,1.0
3.4,128.181624,37.932964,6987.57048,-136.831,-4.564,350.091,1.0
3.4166,128.181618,37.93301,6987.225141600001,-137.771,-4.478,350.279,1.0
3.4333,128.181612,37.933056,6986.873097600001,-138.813,-4.399,350.455,1.0
3.45,128.181606,37.933102,6986.513738400001,-139.954,-4.326,350.621,1.0
3.4666,128.1816,37.933148,6986.147368800001,-141.192,-4.261,350.776,1.0
3.4833,128.181594,37.933195,6985.7739888,-142.524,-4.202,350.92,1.0
3.5,128.181587,37.933241,6985.3929888,-143.947,-4.149,351.054,1.0
3.5166,128.181581,37.933287,6985.0049784,-145.458,-4.104,351.178,1.0
3.5333,128.181575,37.933333,6984.609348,-147.054,-4.064,351.293,1.0
3.55,128.181569,37.933379,6984.2064024,-148.734,-4.031,351.399,1.0
3.5666,128.181562,37.933425,6983.795532,-150.492,-4.004,351.497,1.0
3.5833,128.181556,37.933471,6983.3776512,-152.327,-3.982,351.587,1.0
3.6,128.181549,37.933517,6982.9524552,-154.235,-3.967,351.67,1.0
3.6166,128.181543,37.933563,6982.5205536,-156.213,-3.957,351.746,1.0
3.6333,128.181536,37.933609,6982.081336800001,-158.258,-3.96,351.813,1.0
3.65,128.18153,37.933656,6981.635109600001,-160.368,-3.984,351.868,1.0
3.6666,128.181523,37.933702,6981.181872,-162.539,-4.033,351.913,1.0
3.6833,128.181517,37.933748,6980.721624000001,-164.769,-4.111,351.948,1.0
3.7,128.18151,37.933794,6980.254365600001,-167.055,-4.216,351.975,1.0
3.7166,128.181503,37.93384,6979.780096800001,-169.394,-4.35,351.997,1.0
3.7333,128.181497,37.933886,6979.298208,-171.783,-4.511,352.015,1.0
3.75,128.18149,37.933932,6978.809004000001,-174.218,-4.698,352.033,1.0
3.7666,128.181483,37.933978,6978.3124848,-176.693,-4.909,352.053,1.0
3.7833,128.181477,37.934024,6977.8089552,-179.187,-5.142,352.076,1.0
3.8,128.18147,37.93407,6977.298720000001,178.317,-5.395,352.104,1.0
3.8166,128.181463,37.934116,6976.781474400001,175.84,-5.667,352.138,1.0
3.8333,128.181456,37.934162,6976.2572184,173.393,-5.954,352.181,1.0
3.85,128.18145,37.934208,6975.726256800001,170.989,-6.256,352.234,1.0
3.8666,128.181443,37.934255,6975.1885896,168.637,-6.57,352.298,1.0
3.8833,128.181436,37.934301,6974.643912,166.343,-6.894,352.375,1.0
3.9,128.18143,37.934347,6974.091919200001,164.11,-7.226,352.467,1.0
3.9166,128.181423,37.934393,6973.532611200001,161.939,-7.563,352.572,1.0
3.9333,128.181416,37.934439,6972.9653784,159.83,-7.9,352.692,1.0
3.95,128.181409,37.934485,6972.389916,157.78,-8.234,352.825,1.0
3.9666,128.181403,37.934531,6971.806528800001,155.787,-8.563,352.971,1.0
3.9833,128.181396,37.934577,6971.2143024,153.845,-8.884,353.129,1.0
4.0,128.18139,37.934623,6970.613236800001,151.952,-9.196,353.297,1.0
4.0166,128.181383,37.93467,6970.0030272,150.101,-9.495,353.475,1.0
4.0333,128.181376,37.934716,6969.3836736,148.289,-9.783,353.661,1.0
4.05,128.18137,37.934762,6968.7548712,146.51,-10.057,353.854,1.0
4.0666,128.181363,37.934808,6968.116620000001,144.761,-10.317,354.053,1.0
4.0833,128.181357,37.934854,6967.4686152,143.035,-10.563,354.256,1.0
4.1,128.181351,37.9349,6966.810856800001,141.33,-10.795,354.463,1.0
4.1166,128.181344,37.934946,6966.1433448,139.641,-11.012,354.674,1.0
4.1333,128.181338,37.934992,6965.4660792,137.965,-11.216,354.886,1.0
4.15,128.181332,37.935039,6964.779060000001,136.299,-11.405,355.1,1.0
4.1666,128.181326,37.935085,6964.081982400001,134.639,-11.581,355.315,1.0
4.1833,128.181319,37.935131,6963.375456000001,132.983,-11.744,355.531,1.0
4.2,128.181313,37.935177,6962.659176,131.328,-11.895,355.746,1.0
4.2166,128.181307,37.935223,6961.933142400001,129.673,-12.033,355.961,1.0
4.2333,128.181302,37.935269,6961.197660000001,128.015,-12.159,356.176,1.0
4.25,128.181296,37.935316,6960.453033600001,126.353,-12.274,356.39,1.0
4.2666,128.18129,37.935362,6959.6992632,124.685,-12.379,356.603,1.0
4.2833,128.181285,37.935408,6958.9363488,123.009,-12.472,356.814,1.0
4.3,128.181279,37.935454,6958.166119200001,121.48,-12.554,357.007,1.0
4.3166,128.181274,37.9355,6957.3879648,120.093,-12.618,357.166,1.0
4.3333,128.181268,37.935546,6956.602800000001,118.85,-12.656,357.279,1.0
4.35,128.181263,37.935592,6955.810624800001,117.751,-12.662,357.333,1.0
4.3666,128.181258,37.935639,6955.0126584,116.794,-12.63,357.315,1.0
4.3833,128.181252,37.935685,6954.2089008,115.965,-12.573,357.237,1.0
4.4,128.181247,37.935731,6953.399352000001,115.256,-12.501,357.113,1.0
4.4166,128.181242,37.935777,6952.5846216,114.658,-12.421,356.961,1.0
4.4333,128.181237,37.935824,6951.7647096,114.166,-12.34,356.797,1.0
4.45,128.181232,37.93587,6950.9402256,113.774,-12.264,356.635,1.0
4.4666,128.181227,37.935916,6950.110864800001,113.477,-12.195,356.482,1.0
4.4833,128.181222,37.935962,6949.2775416,113.273,-12.133,356.339,1.0
4.5,128.181217,37.936009,6948.439951200001,113.16,-12.076,356.206,1.0
4.5166,128.181212,37.936055,6947.5983984,113.134,-12.024,356.082,1.0
4.5333,128.181207,37.936101,6946.752578400001,113.194,-11.977,355.967,1.0
4.55,128.181202,37.936148,6945.9031008,113.337,-11.934,355.859,1.0
4.5666,128.181197,37.936194,6945.049660800001,113.56,-11.894,355.759,1.0
4.5833,128.181192,37.93624,6944.1922584,113.861,-11.858,355.665,1.0
4.6,128.181188,37.936287,6943.3311984,114.238,-11.824,355.578,1.0
4.6166,128.181183,37.936333,6942.466785600001,114.689,-11.792,355.495,1.0
4.6333,128.181178,37.936379,6941.598410400001,115.211,-11.762,355.418,1.0
4.65,128.181173,37.936426,6940.7263776,115.803,-11.735,355.345,1.0
4.6666,128.181168,37.936472,6939.850992000001,116.462,-11.708,355.276,1.0
4.6833,128.181163,37.936519,6938.9722536,117.187,-11.684,355.211,1.0
4.7,128.181158,37.936565,6938.0898576,117.975,-11.66,355.149,1.0
4.7166,128.181153,37.936612,6937.2044136,118.825,-11.637,355.09,1.0
4.7333,128.181148,37.936658,6936.315312,119.734,-11.615,355.034,1.0
4.75,128.181143,37.936705,6935.4228576,120.702,-11.594,354.98,1.0
4.7666,128.181138,37.936751,6934.527355200001,121.725,-11.574,354.929,1.0
4.7833,128.181133,37.936798,6933.628500000001,122.804,-11.554,354.879,1.0
4.8,128.181128,37.936844,6932.726596800001,123.935,-11.535,354.832,1.0
4.8166,128.181123,37.936891,6931.8213408,125.118,-11.516,354.786,1.0
4.8333,128.181118,37.936938,6930.9133416,126.35,-11.497,354.742,1.0
4.85,128.181113,37.936984,6930.0019896,127.631,-11.479,354.7,1.0
4.8666,128.181108,37.937031,6929.0875896,128.959,-11.46,354.659,1.0
4.8833,128.181103,37.937077,6928.1704464,130.332,-11.442,354.619,1.0
4.9,128.181098,37.937124,6927.2502552000005,131.749,-11.424,354.58,1.0
4.9166,128.181093,37.937171,6926.327016,133.209,-11.406,354.543,1.0
4.9333,128.181088,37.937217,6925.401033600001,134.711,-11.388,354.507,1.0
4.95,128.181083,37.937264,6924.472308,136.253,-11.369,354.472,1.0
4.9666,128.181078,37.937311,6923.5384008,137.627,-11.348,354.464,1.0
4.9833,128.181073,37.937358,6922.6008360000005,138.838,-11.336,354.494,1.0
5.0,128.181068,37.937404,6921.6586992,139.88,-11.352,354.566,1.0
5.0166,128.181063,37.937451,6920.7116856,140.749,-11.41,354.684,1.0
5.0333,128.181058,37.937498,6919.7588808,141.446,-11.523,354.849,1.0
5.05,128.181053,37.937545,6918.7996752,141.972,-11.699,355.064,1.0
5.0666,128.181048,37.937591,6917.834068800001,142.334,-11.931,355.321,1.0
5.0833,128.181043,37.937638,6916.861147200001,142.54,-12.211,355.611,1.0
5.1,128.181038,37.937685,6915.8803008,142.598,-12.524,355.924,1.0
5.1166,128.181034,37.937732,6914.890920000001,142.518,-12.855,356.248,1.0
5.1333,128.181029,37.937779,6913.8927,142.309,-13.189,356.572,1.0
5.15,128.181024,37.937825,6912.8850312,141.979,-13.513,356.887,1.0
5.1666,128.18102,37.937872,6911.867304,141.538,-13.822,357.19,1.0
5.1833,128.181015,37.937919,6910.8389088,140.991,-14.115,357.482,1.0
5.2,128.181011,37.937966,6909.799540800001,140.345,-14.394,357.764,1.0
5.2166,128.181006,37.938012,6908.748285600001,139.606,-14.658,358.037,1.0
5.2333,128.181002,37.938059,6907.6860576,138.78,-14.895,358.291,1.0
5.25,128.180998,37.938106,6906.611942400001,137.876,-15.091,358.513,1.0
5.2666,128.180994,37.938152,6905.5268544,136.901,-15.234,358.691,1.0
5.2833,128.18099,37.938199,6904.4314032,135.862,-15.314,358.813,1.0
5.3,128.180986,37.938246,6903.325588799999,134.767,-15.321,358.865,1.0
5.3166,128.180982,37.938293,6902.209715999999,133.618,-15.26,358.85,1.0
5.3333,128.180978,37.938339,6901.0843944,132.412,-15.146,358.778,1.0
5.35,128.180974,37.938386,6899.949928800001,131.149,-14.994,358.662,1.0
5.3666,128.18097,37.938433,6898.806624000001,129.825,-14.818,358.517,1.0
5.3833,128.180967,37.938479,6897.656004,128.563,-14.637,358.35,1.0
5.4,128.180963,37.938526,6896.4980688000005,127.376,-14.467,358.176,1.0
5.4166,128.18096,37.938573,6895.3331232,126.259,-14.315,358.012,1.0
5.4333,128.180957,37.938619,6894.161472,125.208,-14.191,357.875,1.0
5.45,128.180953,37.938666,6892.983724800001,124.215,-14.103,357.782,1.0
5.4666,128.18095,37.938713,6891.7998816,123.273,-14.054,357.743,1.0
5.4833,128.180947,37.938759,6890.6099424,122.372,-14.05,357.771,1.0
5.5,128.180944,37.938806,6889.414212,121.504,-14.094,357.877,1.0
5.5166,128.18094,37.938852,6888.2123856,120.66,-14.189,358.071,1.0
5.5333,128.180937,37.938899,6887.004768000001,119.832,-14.333,358.354,1.0
5.55,128.180934,37.938946,6885.7904448,119.017,-14.516,358.714,1.0
5.5666,128.180931,37.938992,6884.5712448,118.307,-14.744,359.133,1.0
5.5833,128.180929,37.939039,6883.3459488,117.698,-15.007,359.596,1.0
5.6,128.180926,37.939086,6882.114252000001,117.199,-15.294,0.093,1.0
5.6166,128.180923,37.939132,6880.8761544,116.814,-15.591,0.61,1.0
5.6333,128.180921,37.939179,6879.631351200001,116.55,-15.886,1.128,1.0
5.65,128.180918,37.939226,6878.3801472000005,116.407,-16.167,1.631,1.0
5.6666,128.180915,37.939272,6877.121932800001,116.388,-16.428,2.099,1.0
5.6833,128.180913,37.939319,6875.854879200001,116.295,-16.638,2.524,1.0
5.7,128.180911,37.939366,6874.580510400001,116.138,-16.79,2.888,1.0
5.7166,128.180909,37.939412,6873.2991312,115.913,-16.886,3.168,1.0
5.7333,128.180906,37.939459,6872.0107416,115.62,-16.925,3.343,1.0
5.75,128.180904,37.939506,6870.7153416,115.261,-16.907,3.397,1.0
5.7666,128.180902,37.939552,6869.4135408,114.837,-16.834,3.331,1.0
5.7833,128.180901,37.939599,6868.104424800001,114.344,-16.718,3.164,1.0
5.8,128.180899,37.939646,6866.7892128,113.78,-16.569,2.915,1.0
5.8166,128.180897,37.939692,6865.4672952,113.141,-16.394,2.602,1.0
5.8333,128.180896,37.939739,6864.1389768,112.423,-16.206,2.248,1.0
5.85,128.180894,37.939786,6862.805172,111.622,-16.011,1.87,1.0
5.8666,128.180893,37.939832,6861.4652712,110.734,-15.82,1.489,1.0
5.8833,128.180891,37.939879,6860.1201888,109.757,-15.641,1.125,1.0
5.9,128.18089,37.939926,6858.769620000001,108.685,-15.48,0.797,1.0
5.9166,128.180889,37.939972,6857.414174400001,107.517,-15.344,0.523,1.0
5.9333,128.180888,37.940019,6856.053547200001,106.254,-15.234,0.312,1.0
5.95,128.180887,37.940066,6854.6880432,104.901,-15.146,0.155,1.0
5.9666,128.180886,37.940112,6853.3185768,103.464,-15.075,0.04,1.0
5.9833,128.180885,37.940159,6851.944538400001,101.952,-15.017,359.953,1.0
6.0,128.180885,37.940206,6850.566537600001,100.371,-14.967,359.884,1.0
6.0166,128.180884,37.940252,6849.184574400001,98.727,-14.924,359.825,1.0
6.0333,128.180883,37.940299,6847.7989536000005,97.025,-14.885,359.775,1.0
6.05,128.180883,37.940345,6846.409979999999,95.269,-14.85,359.731,1.0
6.0666,128.180882,37.940392,6845.0176536,93.463,-14.819,359.691,1.0
6.0833,128.180882,37.940439,6843.621974400001,91.61,-14.79,359.656,1.0
6.1,128.180881,37.940485,6842.223552,89.713,-14.763,359.625,1.0
6.1166,128.180881,37.940532,6840.8220816,87.775,-14.739,359.596,1.0
6.1333,128.180881,37.940579,6839.4181728,85.798,-14.716,359.57,1.0
6.15,128.180881,37.940625,6838.0118256,83.784,-14.696,359.547,1.0
6.1666,128.180881,37.940672,6836.60304,81.736,-14.676,359.526,1.0
6.1833,128.180881,37.940719,6835.1924256,79.655,-14.658,359.506,1.0
6.2,128.180881,37.940766,6833.7796776000005,77.544,-14.641,359.488,1.0
6.2166,128.180881,37.940812,6832.3654056000005,75.405,-14.626,359.471,1.0
6.2333,128.180881,37.940859,6830.9496096,73.24,-14.612,359.455,1.0
6.25,128.180881,37.940906,6829.5325944,71.05,-14.598,359.44,1.0
6.2666,128.180881,37.940952,6828.1143600000005,68.837,-14.586,359.426,1.0
6.2833,128.180881,37.940999,6826.694906400001,66.603,-14.575,359.412,1.0
6.3,128.180882,37.941046,6825.2748432,64.35,-14.566,359.399,1.0
6.3166,128.180882,37.941093,6823.854170400001,62.08,-14.557,359.386,1.0
6.3333,128.180882,37.941139,6822.432888000001,59.793,-14.549,359.373,1.0
6.35,128.180883,37.941186,6821.011300800001,57.491,-14.543,359.36,1.0
6.3666,128.180883,37.941233,6819.5897136,55.176,-14.538,359.348,1.0
6.3833,128.180884,37.94128,6818.1681264,52.849,-14.534,359.335,1.0
6.4,128.180884,37.941327,6816.746844,50.511,-14.531,359.322,1.0
6.4166,128.180885,37.941373,6815.3261712,48.164,-14.53,359.309,1.0
6.4333,128.180886,37.94142,6813.9058032,45.808,-14.53,359.296,1.0
6.45,128.180886,37.941467,6812.4860448,43.445,-14.532,359.282,1.0
6.4666,128.180887,37.941514,6811.067505600001,41.075,-14.535,359.269,1.0
6.4833,128.180888,37.941561,6809.6498808,38.699,-14.54,359.255,1.0
6.5,128.180889,37.941608,6808.2334752,36.319,-14.546,359.242,1.0
6.5166,128.18089,37.941655,6806.8185936,33.934,-14.554,359.228,1.0
6.5333,128.180891,37.941702,6805.404931200001,31.547,-14.563,359.215,1.0
6.55,128.180891,37.941748,6803.9930976000005,29.156,-14.574,359.202,1.0
6.5666,128.180892,37.941795,6802.5830928000005,26.763,-14.587,359.189,1.0
6.5833,128.180893,37.941842,6801.1752216,24.368,-14.601,359.176,1.0
6.6,128.180894,37.941889,6799.768874400001,21.972,-14.617,359.164,1.0
6.6166,128.180895,37.941936,6798.364965600001,19.575,-14.634,359.152,1.0
6.6333,128.180896,37.941983,6796.9631904,17.177,-14.653,359.14,1.0
6.65,128.180897,37.94203,6795.5638536,14.778,-14.674,359.13,1.0
6.6666,128.180898,37.942077,6794.1669552,12.38,-14.695,359.12,1.0
6.6833,128.180899,37.942125,6792.7724952,9.981,-14.719,359.111,1.0
6.7,128.1809,37.942172,6791.3804736,7.582,-14.743,359.102,1.0
6.7166,128.180901,37.942219,6789.9911952,5.184,-14.769,359.095,1.0
6.7333,128.180903,37.942266,6788.6043552,2.785,-14.796,359.089,1.0
6.75,128.180904,37.942313,6787.220258400001,0.386,-14.824,359.083,1.0
6.7666,128.180905,37.94236,6785.838904800001,-2.012,-14.853,359.079,1.0
6.7833,128.180906,37.942407,6784.4590751999995,-4.207,-14.882,359.102,1.0
6.8,128.180907,37.942454,6783.081074400001,-6.205,-14.91,359.152,1.0
6.8166,128.180908,37.942502,6781.703988000001,-8.0,-14.936,359.22,1.0
6.8333,128.180909,37.942549,6780.327511200001,-9.584,-14.961,359.296,1.0
6.85,128.18091,37.942596,6778.951644,-10.956,-14.985,359.373,1.0
6.8666,128.180911,37.942643,6777.5757768,-12.12,-15.007,359.449,1.0
6.8833,128.180912,37.942691,6776.1993,-13.084,-15.029,359.523,1.0
6.9,128.180912,37.942738,6774.8222136,-13.857,-15.048,359.594,1.0
6.9166,128.180913,37.942785,6773.4436032,-14.45,-15.066,359.662,1.0
6.9333,128.180914,37.942833,6772.063773600001,-14.87,-15.083,359.729,1.0
6.95,128.180915,37.94288,6770.6815056000005,-15.126,-15.098,359.794,1.0
6.9666,128.180916,37.942927,6769.297104,-15.226,-15.112,359.856,1.0
6.9833,128.180917,37.942975,6767.9099592,-15.177,-15.126,359.917,1.0
7.0,128.180918,37.943022,6766.5194616,-14.987,-15.138,359.977,1.0
7.0166,128.180919,37.943069,6765.125611200001,-14.661,-15.151,0.035,1.0
7.0333,128.18092,37.943117,6763.7277984,-14.207,-15.164,0.091,1.0
7.05,128.180921,37.943164,6762.3257184,-13.63,-15.177,0.145,1.0
7.0666,128.180922,37.943212,6760.9190664,-12.936,-15.191,0.199,1.0
7.0833,128.180923,37.943259,6759.508147200001,-12.132,-15.205,0.25,1.0
7.1,128.180924,37.943307,6758.0932656,-11.221,-15.22,0.301,1.0
7.1166,128.180925,37.943354,6756.6741168,-10.21,-15.237,0.349,1.0
7.1333,128.180926,37.943402,6755.250396,-9.104,-15.254,0.397,1.0
7.15,128.180926,37.943449,6753.8227128,-7.906,-15.272,0.443,1.0
7.1666,128.180927,37.943497,6752.3907624,-6.621,-15.292,0.488,1.0
7.1833,128.180928,37.943544,6750.95424,-5.254,-15.312,0.531,1.0
7.2,128.180929,37.943592,6749.513755200001,-3.809,-15.334,0.573,1.0
7.2166,128.18093,37.943639,6748.0690032,-2.288,-15.358,0.613,1.0
7.2333,128.180931,37.943687,6746.6202888,-0.697,-15.383,0.652,1.0
7.25,128.180932,37.943734,6745.1670024,0.961,-15.409,0.689,1.0
7.2666,128.180933,37.943782,6743.7094488,2.684,-15.436,0.725,1.0
7.2833,128.180934,37.94383,6742.247932800001,4.469,-15.465,0.759,1.0
7.3,128.180935,37.943877,6740.782149600001,6.312,-15.495,0.792,1.0
7.3166,128.180936,37.943925,6739.312404,8.21,-15.526,0.823,1.0
7.3333,128.180937,37.943973,6737.838391200001,10.161,-15.559,0.852,1.0
7.35,128.180938,37.94402,6736.360111200001,12.163,-15.593,0.88,1.0
7.3666,128.180938,37.944068,6734.8778688,14.213,-15.628,0.905,1.0
7.3833,128.180939,37.944116,6733.391664000001,16.308,-15.664,0.929,1.0
7.4,128.18094,37.944164,6731.901192,18.447,-15.701,0.951,1.0
7.4166,128.180941,37.944211,6730.4067576,20.628,-15.739,0.971,1.0
7.4333,128.180942,37.944259,6728.908056000001,22.848,-15.778,0.989,1.0
7.45,128.180943,37.944307,6727.4056968,25.106,-15.818,1.005,1.0
7.4666,128.180944,37.944355,6725.899070400001,27.401,-15.859,1.019,1.0
7.4833,128.180945,37.944402,6724.388786400001,29.73,-15.901,1.03,1.0
7.5,128.180946,37.94445,6722.87454,32.092,-15.943,1.04,1.0
7.5166,128.180946,37.944498,6721.356331200001,34.486,-15.986,1.047,1.0
7.5333,128.180947,37.944546,6719.83416,36.909,-16.029,1.053,1.0
7.55,128.180948,37.944594,6718.3083312,39.362,-16.072,1.056,1.0
7.5666,128.180949,37.944642,6716.77854,41.843,-16.116,1.057,1.0
7.5833,128.18095,37.94469,6715.2450912,44.351,-16.159,1.055,1.0
7.6,128.180951,37.944738,6713.7079848,46.884,-16.203,1.052,1.0
7.6166,128.180951,37.944786,6712.166916,49.441,-16.246,1.047,1.0
7.6333,128.180952,37.944834,6710.6224944000005,52.023,-16.289,1.039,1.0
7.65,128.180953,37.944881,6709.074110400001,54.627,-16.332,1.029,1.0
7.6666,128.180954,37.944929,6707.522373600001,57.253,-16.374,1.018,1.0
7.6833,128.180955,37.944977,6705.9669792,59.9,-16.416,1.004,1.0
7.7,128.180955,37.945025,6704.4079272,62.567,-16.457,0.989,1.0
7.7166,128.180956,37.945074,6702.8452176,65.253,-16.497,0.971,1.0
7.7333,128.180957,37.945122,6701.279155200001,67.959,-16.536,0.952,1.0
7.75,128.180958,37.94517,6699.70974,70.683,-16.574,0.932,1.0
7.7666,128.180959,37.945218,6698.136972,73.424,-16.611,0.909,1.0
7.7833,128.180959,37.945266,6696.560851200001,76.182,-16.647,0.886,1.0
7.8,128.18096,37.945314,6694.9813776,78.956,-16.682,0.86,1.0
7.8166,128.180961,37.945362,6693.398551200001,81.746,-16.715,0.834,1.0
7.8333,128.180961,37.94541,6691.812372,84.552,-16.747,0.806,1.0
7.85,128.180962,37.945458,6690.2231448,87.371,-16.778,0.778,1.0
7.8666,128.180963,37.945507,6688.630869600001,90.205,-16.807,0.748,1.0
7.8833,128.180963,37.945555,6687.0352416000005,93.053,-16.835,0.718,1.0
7.9,128.180964,37.945603,6685.436870400001,95.913,-16.862,0.686,1.0
7.9166,128.180965,37.945651,6683.8354512000005,98.786,-16.887,0.654,1.0
7.9333,128.180965,37.9457,6682.230984000001,101.671,-16.91,0.622,1.0
7.95,128.180966,37.945748,6680.6237736,104.568,-16.932,0.589,1.0
7.9666,128.180967,37.945796,6679.013515200001,107.475,-16.952,0.555,1.0
7.9833,128.180967,37.945844,6677.4005136000005,110.394,-16.971,0.522,1.0
8.0,128.180968,37.945893,6675.7835496,113.066,-16.978,0.512,1.0
8.0166,128.180968,37.945941,6674.1635376,115.496,-16.983,0.545,1.0
8.0333,128.180969,37.945989,6672.540172800001,117.676,-17.004,0.632,1.0
8.05,128.18097,37.946038,6670.912845600001,119.602,-17.057,0.785,1.0
8.0666,128.18097,37.946086,6669.281251200001,121.277,-17.156,1.01,1.0
8.0833,128.180971,37.946134,6667.6450848,122.704,-17.309,1.313,1.0
8.1,128.180972,37.946183,6666.003127200001,123.893,-17.523,1.7,1.0
8.1166,128.180973,37.946231,6664.3553784000005,124.857,-17.791,2.155,1.0
8.1333,128.180974,37.946279,6662.700314400001,125.609,-18.104,2.663,1.0
8.15,128.180975,37.946328,6661.0379352,126.166,-18.452,3.209,1.0
8.1666,128.180976,37.946376,6659.3673264,126.574,-18.823,3.77,1.0
8.1833,128.180977,37.946424,6657.6875736,126.877,-19.206,4.327,1.0
8.2,128.180979,37.946473,6655.9971528,127.04,-19.57,4.872,1.0
8.2166,128.18098,37.946521,6654.296978400001,127.079,-19.902,5.386,1.0
8.2333,128.180982,37.946569,6652.586136,127.013,-20.191,5.849,1.0
8.25,128.180983,37.946617,6650.8643208,126.833,-20.436,6.253,1.0
8.2666,128.180985,37.946665,6649.132142400001,126.588,-20.652,6.607,1.0
8.2833,128.180987,37.946713,6647.3896008,126.329,-20.851,6.92,1.0
8.3,128.180989,37.946762,6645.6366960000005,126.085,-21.041,7.205,1.0
8.3166,128.180992,37.94681,6643.873428000001,125.868,-21.226,7.47,1.0
8.3333,128.180994,37.946858,6642.099796800001,125.682,-21.406,7.72,1.0
8.35,128.180997,37.946906,6640.316412,125.532,-21.586,7.955,1.0
8.3666,128.180999,37.946954,6638.522968800001,125.434,-21.765,8.178,1.0
8.3833,128.181002,37.947002,6636.719772,125.408,-21.944,8.39,1.0
8.4,128.181005,37.947049,6634.9065168,125.467,-22.121,8.592,1.0
8.4166,128.181008,37.947097,6633.0838128000005,125.619,-22.297,8.785,1.0
8.4333,128.181011,37.947145,6631.251355200001,125.863,-22.472,8.97,1.0
8.45,128.181014,37.947193,6629.409144,126.191,-22.644,9.148,1.0
8.4666,128.181017,37.947241,6627.5577888,126.593,-22.812,9.32,1.0
8.4833,128.181021,37.947289,6625.6957656,127.057,-22.977,9.487,1.0
8.5,128.181024,37.947336,6623.823684000001,127.575,-23.139,9.649,1.0
8.5166,128.181028,37.947384,6621.9409344,128.135,-23.297,9.807,1.0
8.5333,128.181032,37.947432,6620.0472119999995,128.728,-23.454,9.96,1.0
8.55,128.181035,37.947479,6618.1431264,129.347,-23.609,10.109,1.0
8.5666,128.181039,37.947527,6616.227458400001,129.987,-23.762,10.254,1.0
8.5833,128.181044,37.947575,6614.3008176,130.641,-23.916,10.394,1.0
8.6,128.181048,37.947622,6612.3625944000005,131.306,-24.069,10.531,1.0
8.6166,128.181052,37.94767,6610.4130936,131.977,-24.223,10.664,1.0
8.6333,128.181057,37.947717,6608.451400800001,132.651,-24.377,10.794,1.0
8.65,128.181061,37.947764,6606.4781256,133.325,-24.532,10.92,1.0
8.6666,128.181066,37.947812,6604.4926584,133.998,-24.689,11.044,1.0
8.6833,128.181071,37.947859,6602.4949992,134.667,-24.846,11.165,1.0
8.7,128.181076,37.947906,6600.485148,135.331,-25.005,11.283,1.0
8.7166,128.181081,37.947953,6598.4628,135.99,-25.165,11.399,1.0
8.7333,128.181086,37.948001,6596.427955200001,136.641,-25.327,11.512,1.0
8.75,128.181091,37.948048,6594.3803088,137.286,-25.491,11.622,1.0
8.7666,128.181097,37.948095,6592.319860800001,137.921,-25.656,11.731,1.0
8.7833,128.181102,37.948142,6590.246611200001,138.548,-25.823,11.837,1.0
8.8,128.181108,37.948189,6588.1602552,139.166,-25.992,11.941,1.0
8.8166,128.181113,37.948236,6586.060488000001,139.774,-26.162,12.042,1.0
8.8333,128.181119,37.948283,6583.947919200001,140.374,-26.334,12.142,1.0
8.85,128.181125,37.948329,6581.8219392,140.964,-26.508,12.24,1.0
8.8666,128.181131,37.948376,6579.682548,141.544,-26.683,12.335,1.0
8.8833,128.181137,37.948423,6577.529745600001,142.115,-26.86,12.429,1.0
8.9,128.181144,37.948469,6575.3632272,142.676,-27.038,12.52,1.0
8.9166,128.18115,37.948516,6573.1832976000005,143.229,-27.218,12.61,1.0
8.9333,128.181156,37.948563,6570.9893472,143.772,-27.4,12.697,1.0
8.95,128.181163,37.948609,6568.781985600001,144.307,-27.582,12.783,1.0
8.9666,128.181169,37.948655,6566.5606032,144.833,-27.766,12.867,1.0
8.9833,128.181176,37.948702,6564.3252,145.352,-27.951,12.949,1.0
9.0,128.181183,37.948748,6562.0760808,145.861,-28.138,13.029,1.0
9.0166,128.18119,37.948794,6559.8129408,146.362,-28.325,13.108,1.0
9.0333,128.181197,37.94884,6557.535475199999,146.853,-28.514,13.184,1.0
9.05,128.181204,37.948887,6555.243684000001,147.335,-28.703,13.259,1.0
9.0666,128.181211,37.948933,6552.937872,147.807,-28.894,13.333,1.0
9.0833,128.181218,37.948979,6550.6177344,148.269,-29.085,13.404,1.0
9.1,128.181226,37.949025,6548.2829664,148.719,-29.277,13.475,1.0
9.1166,128.181233,37.94907,6545.9338728,149.159,-29.47,13.543,1.0
9.1333,128.181241,37.949116,6543.5704536,149.588,-29.664,13.61,1.0
9.15,128.181248,37.949162,6541.192404,150.006,-29.858,13.676,1.0
9.1666,128.181256,37.949208,6538.800638400001,150.502,-30.057,13.733,1.0
9.1833,128.181264,37.949253,6536.3954616,151.072,-30.259,13.781,1.0
9.2,128.181271,37.949299,6533.976264000001,151.703,-30.463,13.824,1.0
9.2166,128.181279,37.949344,6531.543960000001,152.383,-30.667,13.865,1.0
9.2333,128.181287,37.94939,6529.0973304,153.096,-30.87,13.907,1.0
9.25,128.181295,37.949435,6526.6363752,153.831,-31.073,13.949,1.0
9.2666,128.181303,37.949481,6524.1607896,154.573,-31.276,13.991,1.0
9.2833,128.181311,37.949526,6521.6702688000005,155.31,-31.478,14.033,1.0
9.3,128.18132,37.949571,6519.1648128,156.034,-31.68,14.074,1.0
9.3166,128.181328,37.949616,6516.643812,156.738,-31.882,14.113,1.0
9.3333,128.181336,37.949661,6514.1075712,157.415,-32.085,14.152,1.0
9.35,128.181345,37.949706,6511.5557856000005,158.062,-32.289,14.188,1.0
9.3666,128.181353,37.949751,6508.98876,158.677,-32.494,14.222,1.0
9.3833,128.181362,37.949796,6506.4058847999995,159.26,-32.701,14.255,1.0
9.4,128.18137,37.949841,6503.8074648,159.81,-32.908,14.285,1.0
9.4166,128.181379,37.949885,6501.1931952,160.327,-33.117,14.312,1.0
9.4333,128.181387,37.94993,6498.5636856,160.814,-33.327,14.338,1.0
9.45,128.181396,37.949974,6495.9180216,161.271,-33.537,14.362,1.0
9.4666,128.181405,37.950019,6493.2568128,161.7,-33.749,14.383,1.0
9.4833,128.181414,37.950063,6490.5800592000005,162.102,-33.961,14.402,1.0
9.5,128.181422,37.950108,6487.887456,162.48,-34.173,14.419,1.0
9.5166,128.181431,37.950152,6485.179308,162.836,-34.386,14.435,1.0
9.5333,128.18144,37.950196,6482.455310400001,163.172,-34.599,14.448,1.0
9.55,128.181449,37.95024,6479.715768,163.49,-34.812,14.46,1.0
9.5666,128.181458,37.950284,6476.960376,163.791,-35.025,14.471,1.0
9.5833,128.181467,37.950328,6474.1894391999995,164.077,-35.237,14.481,1.0
9.6,128.181476,37.950372,6471.4026527999995,164.351,-35.449,14.489,1.0
9.6166,128.181485,37.950415,6468.6000168,164.612,-35.66,14.497,1.0
9.6333,128.181495,37.950459,6465.781836,164.862,-35.871,14.503,1.0
9.65,128.181504,37.950503,6462.948110400001,165.102,-36.081,14.509,1.0
9.6666,128.181513,37.950546,6460.0985352,165.333,-36.291,14.515,1.0
9.6833,128.181522,37.95059,6457.2331104,165.556,-36.5,14.519,1.0
9.7,128.181532,37.950633,6454.351836,165.771,-36.708,14.523,1.0
9.7166,128.181541,37.950676,6451.4550168,165.979,-36.916,14.527,1.0
9.7333,128.18155,37.950719,6448.5426528,166.179,-37.123,14.53,1.0
9.75,128.18156,37.950763,6445.6144392,166.372,-37.33,14.532,1.0
9.7666,128.181569,37.950806,6442.670376,166.559,-37.535,14.535,1.0
9.7833,128.181578,37.950849,6439.710768,166.74,-37.741,14.537,1.0
9.8,128.181588,37.950891,6436.7353104,166.914,-37.945,14.539,1.0
9.8166,128.181597,37.950934,6433.7440032,167.083,-38.149,14.54,1.0
9.8333,128.181607,37.950977,6430.737151200001,167.245,-38.353,14.541,1.0
9.85,128.181616,37.95102,6427.7147544,167.402,-38.556,14.543,1.0
9.8666,128.181626,37.951062,6424.6765080000005,167.553,-38.758,14.544,1.0
9.8833,128.181636,37.951105,6421.622412,167.698,-38.96,14.545,1.0
9.9,128.181645,37.951147,6418.5527712,167.838,-39.161,14.546,1.0
9.9166,128.181655,37.951189,6415.4672808000005,167.972,-39.362,14.547,1.0
9.9333,128.181664,37.951231,6412.3662456,168.101,-39.562,14.548,1.0
9.95,128.181674,37.951274,6409.249665600001,168.224,-39.762,14.549,1.0
9.9666,128.181684,37.951316,6406.117236,168.342,-39.961,14.55,1.0
9.9833,128.181693,37.951358,6402.9692616,168.454,-40.16,14.552,1.0
10.0,128.181703,37.951399,6399.805742400001,168.562,-40.358,14.554,1.0
10.0166,128.181713,37.951441,6396.626373600001,168.666,-40.556,14.556,1.0
10.0333,128.181723,37.951483,6393.431764800001,168.765,-40.754,14.558,1.0
10.05,128.181732,37.951524,6390.221306400001,168.86,-40.951,14.561,1.0
10.0666,128.181742,37.951566,6386.9953032,168.952,-41.148,14.564,1.0
10.0833,128.181752,37.951607,6383.75406,169.041,-41.344,14.567,1.0
10.1,128.181762,37.951649,6380.4969672,169.128,-41.54,14.571,1.0
10.1166,128.181772,37.95169,6377.2246344,169.212,-41.735,14.577,1.0
10.1333,128.181781,37.951731,6373.936756800001,169.295,-41.93,14.586,1.0
10.15,128.181791,37.951772,6370.6333343999995,169.375,-42.124,14.598,1.0
10.1666,128.181801,37.951813,6367.3143672,169.454,-42.317,14.614,1.0
10.1833,128.181811,37.951854,6363.980160000001,169.53,-42.509,14.632,1.0
10.2,128.181821,37.951895,6360.630408,169.602,-42.701,14.654,1.0
10.2166,128.181831,37.951935,6357.265111200001,169.671,-42.893,14.678,1.0
10.2333,128.181841,37.951976,6353.884574400001,169.736,-43.083,14.703,1.0
10.25,128.181851,37.952016,6350.488797600001,169.797,-43.274,14.729,1.0
10.2666,128.181861,37.952057,6347.077476,169.853,-43.465,14.756,1.0
10.2833,128.18187,37.952097,6343.6509144,169.905,-43.655,14.782,1.0
10.3,128.18188,37.952137,6340.2091128,169.955,-43.845,14.808,1.0
10.3166,128.18189,37.952177,6336.7520712,170.001,-44.035,14.835,1.0
10.3333,128.1819,37.952217,6333.2797896,170.044,-44.225,14.861,1.0
10.35,128.18191,37.952257,6329.792268,170.086,-44.415,14.887,1.0
10.3666,128.18192,37.952297,6326.2895064,170.126,-44.605,14.914,1.0
10.3833,128.18193,37.952337,6322.7715048,170.164,-44.795,14.94,1.0
10.4,128.18194,37.952376,6319.238568000001,170.2,-44.984,14.967,1.0
10.4166,128.18195,37.952416,6315.690391200001,170.235,-45.173,14.994,1.0
10.4333,128.18196,37.952455,6312.127279200001,170.269,-45.363,15.021,1.0
10.45,128.18197,37.952495,6308.5489272,170.302,-45.552,15.048,1.0
10.4666,128.18198,37.952534,6304.95564,170.333,-45.741,15.075,1.0
10.4833,128.18199,37.952573,6301.3474176,170.363,-45.93,15.103,1.0
10.5,128.182,37.952612,6297.7239552,170.392,-46.118,15.13,1.0
10.5166,128.182011,37.952651,6294.0858624,170.418,-46.307,15.159,1.0
10.5333,128.182021,37.95269,6290.4325296,170.444,-46.496,15.187,1.0
10.55,128.182031,37.952728,6286.764261599999,170.467,-46.684,15.216,1.0
10.5666,128.182041,37.952767,6283.0813632,170.489,-46.872,15.244,1.0
10.5833,128.182051,37.952806,6279.383224800001,170.509,-47.061,15.274,1.0
10.6,128.182061,37.952844,6275.670456000001,170.527,-47.249,15.303,1.0
10.6166,128.182071,37.952882,6271.942752000001,170.544,-47.437,15.333,1.0
10.6333,128.182081,37.95292,6268.2004176,170.559,-47.625,15.363,1.0
10.65,128.182091,37.952959,6264.443147999999,170.571,-47.813,15.393,1.0
10.6666,128.182101,37.952997,6260.671248,170.582,-48.001,15.424,1.0
10.6833,128.182111,37.953034,6256.8844128,170.592,-48.189,15.455,1.0
10.7,128.182121,37.953072,6253.083252,170.6,-48.377,15.486,1.0
10.7166,128.182131,37.95311,6249.267156000001,170.606,-48.565,15.518,1.0
10.7333,128.182141,37.953147,6245.436429599999,170.611,-48.753,15.55,1.0
10.75,128.182152,37.953185,6241.5910728,170.614,-48.94,15.582,1.0
10.7666,128.182162,37.953222,6237.7310856,170.615,-49.128,15.615,1.0
10.7833,128.182172,37.95326,6233.856772800001,170.615,-49.316,15.648,1.0
10.8,128.182182,37.953297,6229.9678296,170.614,-49.503,15.682,1.0
10.8166,128.182192,37.953334,6226.064256000001,170.611,-49.691,15.715,1.0
10.8333,128.182202,37.953371,6222.146356800001,170.607,-49.878,15.75,1.0
10.85,128.182212,37.953407,6218.214132,170.601,-50.066,15.784,1.0
10.8666,128.182222,37.953444,6214.2672768,170.594,-50.253,15.819,1.0
10.8833,128.182232,37.953481,6210.306096,170.586,-50.441,15.855,1.0
10.9,128.182242,37.953517,6206.3308944,170.577,-50.628,15.89,1.0
10.9166,128.182252,37.953554,6202.3410624,170.567,-50.815,15.927,1.0
10.9333,128.182263,37.95359,6198.3369048,170.555,-51.002,15.963,1.0
10.95,128.182273,37.953626,6194.3187264,170.543,-51.19,16.0,1.0
10.9666,128.182283,37.953662,6190.2859176,170.529,-51.377,16.038,1.0
10.9833,128.182293,37.953698,6186.239392800001,170.514,-51.564,16.076,1.0
11.0,128.182303,37.953734,6182.178542400001,170.498,-51.751,16.114,1.0
11.0166,128.182313,37.95377,6178.1033664,170.481,-51.938,16.153,1.0
11.0333,128.182323,37.953805,6174.014474400001,170.464,-52.125,16.192,1.0
11.05,128.182333,37.953841,6169.911256800001,170.445,-52.312,16.232,1.0
11.0666,128.182343,37.953876,6165.7940184,170.425,-52.499,16.272,1.0
11.0833,128.182353,37.953911,6161.6627592,170.404,-52.686,16.313,1.0
11.1,128.182363,37.953946,6157.517784000001,170.383,-52.873,16.354,1.0
11.1166,128.182373,37.953981,6153.358483200001,170.36,-53.06,16.395,1.0
11.1333,128.182384,37.954016,6149.1857712,170.337,-53.247,16.437,1.0
11.15,128.182394,37.954051,6144.9987336,170.312,-53.434,16.48,1.0
11.1666,128.182404,37.954086,6140.79798,170.287,-53.621,16.523,1.0
11.1833,128.182414,37.95412,6136.583510400001,170.261,-53.808,16.567,1.0
11.2,128.182424,37.954155,6132.355324800001,170.234,-53.995,16.611,1.0
11.2166,128.182434,37.954189,6128.1134232,170.206,-54.181,16.656,1.0
11.2333,128.182444,37.954223,6123.857805600001,170.177,-54.368,16.701,1.0
11.25,128.182454,37.954257,6119.588472,170.147,-54.555,16.747,1.0
11.2666,128.182464,37.954291,6115.305422400001,170.117,-54.742,16.793,1.0
11.2833,128.182474,37.954325,6111.0089616,170.085,-54.928,16.84,1.0
11.3,128.182484,37.954359,6106.6987848,170.053,-55.115,16.887,1.0
11.3166,128.182494,37.954392,6102.375196800001,170.02,-55.302,16.935,1.0
11.3333,128.182504,37.954426,6098.038197600001,169.986,-55.488,16.984,1.0
11.35,128.182514,37.954459,6093.687482400001,169.951,-55.675,17.033,1.0
11.3666,128.182524,37.954492,6089.323660800001,169.916,-55.862,17.083,1.0
11.3833,128.182534,37.954525,6084.946428,169.879,-56.048,17.134,1.0
11.4,128.182544,37.954558,6080.555479200001,169.842,-56.235,17.185,1.0
11.4166,128.182554,37.954591,6076.1517288000005,169.804,-56.422,17.236,1.0
11.4333,128.182564,37.954624,6071.7342624,169.765,-56.608,17.289,1.0
11.45,128.182574,37.954656,6067.3036896,169.726,-56.795,17.342,1.0
11.4666,128.182584,37.954689,6062.860010400001,169.685,-56.981,17.395,1.0
11.4833,128.182594,37.954721,6058.403224800001,169.644,-57.167,17.45,1.0
11.5,128.182604,37.954754,6053.9333328,169.602,-57.354,17.505,1.0
11.5166,128.182614,37.954786,6049.4500296,169.559,-57.54,17.56,1.0
11.5333,128.182624,37.954818,6044.953924800001,169.515,-57.727,17.616,1.0
11.55,128.182634,37.954849,6040.4447136,169.47,-57.913,17.674,1.0
11.5666,128.182643,37.954881,6035.922700800001,169.425,-58.099,17.731,1.0
11.5833,128.182653,37.954913,6031.3875816,169.378,-58.285,17.79,1.0
11.6,128.182663,37.954944,6026.8396608,169.331,-58.471,17.849,1.0
11.6166,128.182673,37.954976,6022.278633600001,169.283,-58.658,17.909,1.0
11.6333,128.182683,37.955007,6017.7051096000005,169.234,-58.844,17.97,1.0
11.65,128.182693,37.955038,6013.118784000001,169.184,-59.03,18.031,1.0
11.6666,128.182703,37.955069,6008.519352000001,169.133,-59.216,18.094,1.0
11.6833,128.182713,37.9551,6003.9074232,169.082,-59.402,18.157,1.0
11.7,128.182722,37.95513,5999.282997600001,169.029,-59.588,18.221,1.0
11.7166,128.182732,37.955161,5994.6457704,168.976,-59.774,18.285,1.0
11.7333,128.182742,37.955191,5989.9960464000005,168.922,-59.96,18.351,1.0
11.75,128.182752,37.955222,5985.3335208,168.867,-60.146,18.417,1.0
11.7666,128.182762,37.955252,5980.6588032,168.811,-60.332,18.485,1.0
11.7833,128.182772,37.955282,5975.971284000001,168.754,-60.518,18.553,1.0
11.8,128.182781,37.955312,5971.2715728,168.696,-60.704,18.622,1.0
11.8166,128.182791,37.955341,5966.5593648,168.637,-60.89,18.692,1.0
11.8333,128.182801,37.955371,5961.8349648,168.577,-61.076,18.763,1.0
11.85,128.182811,37.955401,5957.098068,168.516,-61.261,18.835,1.0
11.8666,128.18282,37.95543,5952.348979200001,168.455,-61.447,18.908,1.0
11.8833,128.18283,37.955459,5947.5876984,168.392,-61.633,18.981,1.0
11.9,128.18284,37.955488,5942.8142256,168.328,-61.819,19.056,1.0
11.9166,128.18285,37.955517,5938.0285608,168.263,-62.005,19.132,1.0
11.9333,128.182859,37.955546,5933.2307040000005,168.197,-62.19,19.209,1.0
11.95,128.182869,37.955575,5928.42096,168.131,-62.376,19.287,1.0
11.9666,128.182879,37.955603,5923.599024000001,168.063,-62.562,19.366,1.0
11.9833,128.182888,37.955632,5918.7652008000005,167.994,-62.747,19.446,1.0
12.0,128.182898,37.95566,5913.9194904000005,167.924,-62.933,19.527,1.0
12.0166,128.182908,37.955688,5909.0618928,167.852,-63.119,19.61,1.0
12.0333,128.182917,37.955716,5904.192408,167.78,-63.304,19.693,1.0
12.05,128.182927,37.955744,5899.311036,167.706,-63.49,19.778,1.0
12.0666,128.182937,37.955772,5894.4180816,167.632,-63.675,19.864,1.0
12.0833,128.182946,37.955799,5889.51324,167.556,-63.861,19.951,1.0
12.1,128.182956,37.955827,5884.596816,167.478,-64.046,20.039,1.0
12.1166,128.182965,37.955854,5879.6685048,167.4,-64.232,20.129,1.0
12.1333,128.182975,37.955881,5874.728916,167.32,-64.417,20.22,1.0
12.15,128.182984,37.955908,5869.7777448,167.24,-64.603,20.312,1.0
12.1666,128.182994,37.955935,5864.814991200001,167.157,-64.788,20.406,1.0
12.1833,128.183003,37.955962,5859.840655200001,167.074,-64.973,20.501,1.0
12.2,128.183013,37.955988,5854.855041600001,166.99,-65.159,20.597,1.0
12.2166,128.183022,37.956015,5849.8581504,166.904,-65.344,20.695,1.0
12.2333,128.183032,37.956041,5844.8499816,166.817,-65.529,20.794,1.0
12.25,128.183041,37.956067,5839.8302304,166.73,-65.714,20.895,1.0
12.2666,128.183051,37.956093,5834.799506400001,166.641,-65.899,20.997,1.0
12.2833,128.18306,37.956119,5829.757504800001,166.551,-66.085,21.1,1.0
12.3,128.18307,37.956145,5824.7045304,166.461,-66.27,21.205,1.0
12.3166,128.183079,37.95617,5819.6402784,166.369,-66.455,21.311,1.0
12.3333,128.183089,37.956196,5814.5650536,166.276,-66.64,21.42,1.0
12.35,128.183098,37.956221,5809.478856000001,166.182,-66.825,21.529,1.0
12.3666,128.183107,37.956246,5804.3813808,166.086,-67.01,21.641,1.0
12.3833,128.183117,37.956271,5799.2735424,165.989,-67.195,21.754,1.0
12.4,128.183126,37.956296,5794.1544264,165.892,-67.379,21.869,1.0
12.4166,128.183135,37.956321,5789.024642400001,165.792,-67.564,21.985,1.0
12.4333,128.183145,37.956345,5783.8841904,165.692,-67.749,22.104,1.0
12.45,128.183154,37.95637,5778.732765600001,165.589,-67.934,22.224,1.0
12.4666,128.183163,37.956394,5773.5709776,165.486,-68.119,22.346,1.0
12.4833,128.183172,37.956418,5768.3982168,165.381,-68.303,22.47,1.0
12.5,128.183182,37.956442,5763.215092800001,165.274,-68.488,22.596,1.0
12.5166,128.183191,37.956466,5758.021605600001,165.165,-68.672,22.724,1.0
12.5333,128.1832,37.95649,5752.817450400001,165.055,-68.857,22.854,1.0
12.55,128.183209,37.956513,5747.602932000001,164.943,-69.041,22.986,1.0
12.5666,128.183218,37.956537,5742.377745600001,164.829,-69.226,23.121,1.0
12.5833,128.183228,37.95656,5737.142500800001,164.713,-69.41,23.257,1.0
12.6,128.183237,37.956583,5731.8968928,164.595,-69.594,23.396,1.0
12.6166,128.183246,37.956606,5726.6412264,164.475,-69.779,23.537,1.0
12.6333,128.183255,37.956629,5721.375196800001,164.353,-69.963,23.681,1.0
12.65,128.183264,37.956651,5716.0991088,164.229,-70.147,23.827,1.0
12.6666,128.183273,37.956674,5710.8126575999995,164.103,-70.331,23.976,1.0
12.6833,128.183282,37.956696,5705.5164528,163.974,-70.515,24.127,1.0
12.7,128.183291,37.956718,5700.2101896,163.843,-70.699,24.281,1.0
12.7166,128.1833,37.95674,5694.893868,163.709,-70.883,24.437,1.0
12.7333,128.183309,37.956762,5689.5677928000005,163.573,-71.067,24.597,1.0
12.75,128.183318,37.956784,5684.2319640000005,163.434,-71.25,24.759,1.0
12.7666,128.183327,37.956805,5678.8860768,163.292,-71.434,24.925,1.0
12.7833,128.183336,37.956827,5673.5307408,163.147,-71.617,25.093,1.0
12.8,128.183345,37.956848,5668.165651200001,163.0,-71.801,25.265,1.0
12.8166,128.183354,37.956869,5662.790808,162.849,-71.984,25.44,1.0
12.8333,128.183363,37.95689,5657.406516,162.695,-72.167,25.618,1.0
12.85,128.183372,37.956911,5652.012470400001,162.538,-72.35,25.799,1.0
12.8666,128.183381,37.956931,5646.6092808,162.377,-72.534,25.985,1.0
12.8833,128.183389,37.956952,5641.1963376,162.213,-72.716,26.174,1.0
12.9,128.183398,37.956972,5635.774250400001,162.046,-72.899,26.366,1.0
12.9166,128.183407,37.956992,5630.342714400001,161.874,-73.082,26.563,1.0
12.9333,128.183416,37.957012,5624.9017296,161.699,-73.264,26.764,1.0
12.95,128.183424,37.957032,5619.451905600001,161.519,-73.447,26.968,1.0
12.9666,128.183433,37.957051,5613.9926328,161.336,-73.629,27.178,1.0
12.9833,128.183442,37.957071,5608.5245208,161.148,-73.811,27.391,1.0
13.0,128.18345,37.95709,5603.046960000001,160.956,-73.993,27.609,1.0
13.0166,128.183459,37.957109,5597.560864800001,160.759,-74.175,27.832,1.0
13.0333,128.183468,37.957129,5592.065320799999,160.557,-74.357,28.06,1.0
13.0499,128.183476,37.957147,5586.561242400001,160.351,-74.538,28.293,1.0
13.0666,128.183485,37.957166,5581.048324800001,160.139,-74.72,28.531,1.0
13.0833,128.183494,37.957185,5575.526568,159.922,-74.901,28.774,1.0
13.1,128.183502,37.957203,5569.995972,159.699,-75.082,29.023,1.0
13.1166,128.183511,37.957221,5564.4565368,159.471,-75.262,29.278,1.0
13.1333,128.183519,37.957239,5558.908872,159.237,-75.443,29.539,1.0
13.15,128.183528,37.957257,5553.352368,158.996,-75.623,29.807,1.0
13.1666,128.183536,37.957275,5547.7873296,158.749,-75.803,30.08,1.0
13.1833,128.183544,37.957292,5542.2140616,158.496,-75.983,30.361,1.0
13.2,128.183553,37.95731,5536.632259200001,158.236,-76.163,30.648,1.0
13.2166,128.183561,37.957327,5531.0422272000005,157.968,-76.342,30.943,1.0
13.2333,128.18357,37.957344,5525.4436608000005,157.694,-76.521,31.245,1.0
13.25,128.183578,37.957361,5519.8371696,157.411,-76.7,31.555,1.0
13.2666,128.183586,37.957378,5514.222144,157.12,-76.878,31.873,1.0
13.2833,128.183594,37.957394,5508.5991936,156.821,-77.056,32.199,1.0
13.3,128.183603,37.957411,5502.9683184000005,156.513,-77.234,32.535,1.0
13.3166,128.183611,37.957427,5497.3292136,156.197,-77.411,32.879,1.0
13.3333,128.183619,37.957443,5491.682184000001,155.87,-77.588,33.233,1.0
13.35,128.183627,37.957459,5486.027229599999,155.534,-77.765,33.597,1.0
13.3666,128.183635,37.957475,5480.3646552,155.188,-77.941,33.971,1.0
13.3833,128.183644,37.95749,5474.6941560000005,154.831,-78.116,34.356,1.0
13.4,128.183652,37.957506,5469.016036800001,154.463,-78.292,34.752,1.0
13.4166,128.18366,37.957521,5463.3302976,154.083,-78.466,35.159,1.0
13.4333,128.183668,37.957536,5457.636633600001,153.691,-78.641,35.579,1.0
13.45,128.183676,37.957551,5451.9356544,153.287,-78.814,36.012,1.0
13.4666,128.183684,37.957566,5446.227360000001,152.869,-78.988,36.457,1.0
13.4833,128.183692,37.95758,5440.5114456,152.437,-79.16,36.917,1.0
13.5,128.1837,37.957595,5434.788216,151.991,-79.332,37.391,1.0
13.5166,128.183708,37.957609,5429.0576712,151.53,-79.503,37.881,1.0
13.5333,128.183715,37.957623,5423.319811200001,151.053,-79.674,38.386,1.0
13.55,128.183723,37.957637,5417.574636,150.559,-79.844,38.907,1.0
13.5666,128.183731,37.957651,5411.822755200001,150.048,-80.013,39.447,1.0
13.5833,128.183739,37.957664,5406.0635592,149.519,-80.181,40.004,1.0
13.6,128.183747,37.957677,5400.2973528,148.971,-80.349,40.58,1.0
13.6166,128.183754,37.957691,5394.524136,148.403,-80.515,41.176,1.0
13.6333,128.183762,37.957704,5388.7442136,147.815,-80.681,41.793,1.0
13.65,128.18377,37.957717,5382.9572808,147.204,-80.845,42.432,1.0
13.6666,128.183777,37.957729,5377.163642400001,146.571,-81.009,43.094,1.0
13.6833,128.183785,37.957742,5371.3636031999995,145.913,-81.171,43.78,1.0
13.7,128.183793,37.957754,5365.5565536,145.23,-81.332,44.491,1.0
13.7166,128.1838,37.957766,5359.7431031999995,144.521,-81.492,45.229,1.0
13.7333,128.183808,37.957778,5353.922947200001,143.784,-81.651,45.994,1.0
13.75,128.183815,37.95779,5348.0966952,143.018,-81.808,46.789,1.0
13.7666,128.183823,37.957802,5342.2637376,142.221,-81.963,47.614,1.0
13.7833,128.18383,37.957813,5336.4246840000005,141.392,-82.117,48.471,1.0
13.8,128.183837,37.957825,5330.5792296,140.53,-82.269,49.361,1.0
13.8166,128.183845,37.957836,5324.727679200001,139.634,-82.42,50.285,1.0
13.8333,128.183852,37.957847,5318.8700328,138.702,-82.569,51.245,1.0
13.85,128.183859,37.957857,5313.0059856,137.731,-82.715,52.243,1.0
13.8666,128.183867,37.957868,5307.136452000001,136.721,-82.86,53.28,1.0
13.8833,128.183874,37.957879,5301.2605176,135.67,-83.002,54.359,1.0
13.9,128.183881,37.957889,5295.378792,134.576,-83.143,55.48,1.0
13.9166,128.183888,37.957899,5289.49158,133.436,-83.28,56.647,1.0
13.9333,128.183895,37.957909,5283.598272,132.249,-83.415,57.861,1.0
13.95,128.183902,37.957918,5277.6994776,131.013,-83.547,59.124,1.0
13.9666,128.18391,37.957928,5271.794892000001,129.726,-83.676,60.438,1.0
13.9833,128.183917,37.957937,5265.884820000001,128.386,-83.802,61.806,1.0
14.0,128.183924,37.957947,5259.9692616,126.991,-83.924,63.228,1.0
14.0166,128.183931,37.957956,5254.0485216,125.539,-84.043,64.706,1.0
14.0333,128.183937,37.957964,5248.1219904,124.029,-84.158,66.243,1.0
14.05,128.183944,37.957973,5242.1905824000005,122.459,-84.268,67.839,1.0
14.0666,128.183951,37.957982,5236.253688000001,120.829,-84.375,69.496,1.0
14.0833,128.183958,37.95799,5230.3116119999995,119.137,-84.476,71.215,1.0
14.1,128.183965,37.957998,5224.3646592000005,117.383,-84.573,72.996,1.0
14.1166,128.183972,37.958006,5218.412524800001,115.566,-84.664,74.839,1.0
14.1333,128.183978,37.958014,5212.4555136,113.687,-84.75,76.744,1.0
14.15,128.183985,37.958021,5206.4936256,111.748,-84.83,78.71,1.0
14.1666,128.183992,37.958029,5200.526860800001,109.749,-84.904,80.735,1.0
14.1833,128.183998,37.958036,5194.5552192000005,107.694,-84.972,82.817,1.0
14.2,128.184005,37.958043,5188.5790056000005,105.584,-85.034,84.952,1.0
14.2166,128.184011,37.95805,5182.598220000001,103.424,-85.088,87.138,1.0
14.2333,128.184018,37.958057,5176.6128624,101.218,-85.135,89.37,1.0
14.25,128.184024,37.958063,5170.622932800001,98.971,-85.175,91.643,1.0
14.2666,128.184031,37.958069,5164.6284312,96.69,-85.208,93.95,1.0
14.2833,128.184037,37.958076,5158.6299672000005,94.38,-85.233,96.285,1.0
14.3,128.184044,37.958081,5152.6269312,92.049,-85.25,98.641,1.0
14.3166,128.18405,37.958087,5146.6199328,89.704,-85.259,101.011,1.0
14.3333,128.184056,37.958093,5140.6086672,87.353,-85.26,103.387,1.0
14.35,128.184062,37.958098,5134.5931344,85.004,-85.254,105.762,1.0
14.3666,128.184069,37.958104,5128.573944,82.664,-85.239,108.126,1.0
14.3833,128.184075,37.958109,5122.5504864,80.342,-85.217,110.473,1.0
14.4,128.184081,37.958113,5116.5233712,78.043,-85.187,112.796,1.0
14.4166,128.184087,37.958118,5110.4925984,75.776,-85.149,115.087,1.0
14.4333,128.184093,37.958123,5104.4578632,73.547,-85.104,117.341,1.0
14.45,128.184099,37.958127,5098.419470400001,71.36,-85.052,119.551,1.0
14.4666,128.184105,37.958131,5092.377724800001,69.22,-84.992,121.715,1.0
14.4833,128.184111,37.958135,5086.3323216,67.129,-84.927,123.829,1.0
14.5,128.184117,37.958139,5080.283565600001,65.09,-84.855,125.89,1.0
14.5166,128.184123,37.958142,5074.231152,63.105,-84.778,127.895,1.0
14.5333,128.184128,37.958146,5068.1756904,61.175,-84.695,129.845,1.0
