Time,Longitude,Latitude,Altitude,Roll (deg),Pitch (deg),Yaw (deg),Health
0.0,128.181881,37.923646,7000.146528,0.0,-0.003,0.0,1.0
0.0166,128.181881,37.923691,7000.1605488000005,0.0,-0.012,0.0,1.0
0.0333,128.181881,37.923736,7000.173960000001,0.0,-0.024,0.0,1.0
0.05,128.181881,37.923781,7000.186456800001,0.0,-0.037,0.0,1.0
0.0666,128.181881,37.923826,7000.1977344,0.0,-0.051,0.0,1.0
0.0833,128.181881,37.923871,7000.2084024,0.0,-0.065,0.0,1.0
0.1,128.181881,37.923916,7000.218460800001,0.0,-0.08,0.0,1.0
0.1166,128.181881,37.923961,7000.2273000000005,0.0,-0.095,0.0,1.0
0.1333,128.181881,37.924006,7000.235224800001,0.0,-0.11,0.0,1.0
0.15,128.181881,37.924051,7000.24254,0.0,-0.125,0.0,1.0
0.1666,128.181881,37.924096,7000.2489408,0.0,-0.14,0.0,1.0
0.1833,128.181881,37.924141,7000.254122400001,0.0,-0.156,0.0,1.0
0.2,128.181881,37.924186,7000.2586944,0.0,-0.173,0.0,1.0
0.2166,128.181881,37.924231,7000.262352000001,0.0,-0.189,0.0,1.0
0.2333,128.181881,37.924276,7000.2647904000005,0.001,-0.206,0.0,1.0
0.25,128.181881,37.924321,7000.266619200001,0.001,-0.223,0.0,1.0
0.2666,128.181881,37.924366,7000.2672288,0.001,-0.24,0.0,1.0
0.2833,128.181881,37.924411,7000.2672288,0.001,-0.258,0.0,1.0
0.3,128.181881,37.924456,7000.266009600001,0.002,-0.276,0.0,1.0
0.3166,128.181881,37.924501,7000.263876,0.002,-0.294,0.001,1.0
0.3333,128.181881,37.924546,7000.260828,0.002,-0.312,0.001,1.0
0.35,128.181881,37.924591,7000.2565608,0.004,-0.33,0.001,1.0
0.3666,128.181881,37.924636,7000.251379200001,0.006,-0.349,0.001,1.0
0.3833,128.181881,37.924682,7000.245283200001,0.01,-0.367,0.001,1.0
0.4,128.181881,37.924727,7000.237968,0.015,-0.386,0.001,1.0
0.4166,128.181881,37.924772,7000.2294336,0.023,-0.404,0.002,1.0
0.4333,128.181881,37.924817,7000.2199848,0.032,-0.422,0.002,1.0
0.45,128.181881,37.924862,7000.2096216,0.043,-0.44,0.002,1.0
0.4666,128.181881,37.924907,7000.1977344,0.056,-0.457,0.003,1.0
0.4833,128.181881,37.924952,7000.184932800001,0.071,-0.475,0.003,1.0
0.5,128.181881,37.924998,7000.170912,0.089,-0.492,0.003,1.0
0.5166,128.181881,37.925043,7000.155976800001,0.109,-0.509,0.004,1.0
0.5333,128.181881,37.925088,7000.1395176000005,0.131,-0.526,0.004,1.0
0.55,128.181881,37.925133,7000.122144,0.156,-0.543,0.004,1.0
0.5666,128.181881,37.925179,7000.103246400001,0.185,-0.56,0.005,1.0
0.5833,128.181881,37.925224,7000.0834343999995,0.217,-0.576,0.005,1.0
0.6,128.181881,37.925269,7000.0624032,0.252,-0.593,0.005,1.0
0.6166,128.181881,37.925314,7000.039847999999,0.292,-0.609,0.006,1.0
0.6333,128.181881,37.92536,7000.016378400001,0.336,-0.625,0.006,1.0
0.65,128.181881,37.925405,6999.9913848,0.384,-0.642,0.007,1.0
0.6666,128.181881,37.92545,6999.965172,0.436,-0.658,0.007,1.0
0.6833,128.181881,37.925495,6999.93774,0.494,-0.674,0.008,1.0
0.7,128.181881,37.925541,6999.908784000001,0.557,-0.69,0.008,1.0
0.7166,128.181881,37.925586,6999.878608800001,0.626,-0.706,0.009,1.0
0.7333,128.181881,37.925631,6999.846909600001,0.7,-0.722,0.009,1.0
0.75,128.181881,37.925677,6999.813991200001,0.781,-0.737,0.01,1.0
0.7666,128.181881,37.925722,6999.7798536,0.868,-0.753,0.01,1.0
0.7833,128.181881,37.925767,6999.7438872,0.961,-0.769,0.011,1.0
0.8,128.181881,37.925813,6999.706701600001,1.062,-0.785,0.011,1.0
0.8166,128.181881,37.925858,6999.6682968000005,1.169,-0.801,0.012,1.0
0.8333,128.181881,37.925904,6999.6280632,1.285,-0.817,0.013,1.0
0.85,128.181881,37.925949,6999.586610400001,1.408,-0.832,0.013,1.0
0.8666,128.181881,37.925994,6999.543633600001,1.539,-0.848,0.014,1.0
0.8833,128.181881,37.92604,6999.499132800001,1.678,-0.864,0.014,1.0
0.9,128.181881,37.926085,6999.453108,1.826,-0.88,0.015,1.0
0.9166,128.181881,37.926131,6999.4055592,1.982,-0.896,0.015,1.0
0.9333,128.181881,37.926176,6999.3564864,2.147,-0.912,0.016,1.0
0.95,128.181881,37.926222,6999.3058896,2.322,-0.928,0.016,1.0
0.9666,128.181881,37.926267,6999.253464,2.506,-0.944,0.017,1.0
0.9833,128.181881,37.926312,6999.199819200001,2.699,-0.96,0.017,1.0
1.0,128.181881,37.926358,6999.144345600001,2.903,-0.976,0.018,1.0
1.0166,128.181881,37.926403,6999.087348,3.117,-0.993,0.018,1.0
1.0333,128.181881,37.926449,6999.0285216,3.34,-1.009,0.019,1.0
1.05,128.181881,37.926494,6998.9681712,3.575,-1.025,0.019,1.0
1.0666,128.181881,37.92654,6998.906296800001,3.82,-1.042,0.02,1.0
1.0833,128.181881,37.926586,6998.8425936,4.077,-1.058,0.02,1.0
1.1,128.181881,37.926631,6998.7770616,4.344,-1.075,0.021,1.0
1.1166,128.181881,37.926677,6998.710005600001,4.623,-1.092,0.021,1.0
1.1333,128.181881,37.926722,6998.6411208,4.913,-1.109,0.022,1.0
1.15,128.181881,37.926768,6998.5704072,5.215,-1.126,0.023,1.0
1.1666,128.181881,37.926813,6998.4981696,5.53,-1.143,0.023,1.0
1.1833,128.181881,37.926859,6998.4237984,5.856,-1.16,0.024,1.0
1.2,128.181881,37.926905,6998.3479032000005,6.195,-1.177,0.025,1.0
1.2166,128.181881,37.92695,6998.270179200001,6.546,-1.195,0.025,1.0
1.2333,128.181881,37.926996,6998.1906264,6.911,-1.212,0.026,1.0
1.25,128.181881,37.927042,6998.1092448,7.288,-1.23,0.027,1.0
1.2666,128.181881,37.927087,6998.0257296,7.679,-1.248,0.028,1.0
1.2833,128.181881,37.927133,6997.940690400001,8.083,-1.266,0.029,1.0
1.3,128.181881,37.927179,6997.8535176000005,8.502,-1.284,0.03,1.0
1.3166,128.181881,37.927224,6997.764516,8.934,-1.302,0.032,1.0
1.3333,128.181881,37.92727,6997.6733808,9.38,-1.321,0.033,1.0
1.35,128.181881,37.927316,6997.5804168,9.841,-1.339,0.034,1.0
1.3666,128.181881,37.927361,6997.485624000001,10.316,-1.358,0.036,1.0
1.3833,128.181881,37.927407,6997.388697600001,10.807,-1.377,0.038,1.0
1.4,128.181882,37.927453,6997.289637600001,11.312,-1.396,0.04,1.0
1.4166,128.181882,37.927499,6997.1887488,11.833,-1.416,0.041,1.0
1.4333,128.181882,37.927544,6997.085726400001,12.37,-1.435,0.043,1.0
1.45,128.181882,37.92759,6996.980570400001,12.923,-1.455,0.046,1.0
1.4666,128.181882,37.927636,6996.8732808,13.491,-1.475,0.048,1.0
1.4833,128.181882,37.927682,6996.7641624,14.075,-1.496,0.05,1.0
1.5,128.181882,37.927728,6996.6526056,14.676,-1.516,0.053,1.0
1.5166,128.181882,37.927774,6996.538915200001,15.293,-1.537,0.056,1.0
1.5333,128.181882,37.927819,6996.423396,15.926,-1.558,0.059,1.0
1.55,128.181882,37.927865,6996.305438400001,16.577,-1.58,0.062,1.0
1.5666,128.181882,37.927911,6996.1850424,17.245,-1.601,0.065,1.0
1.5833,128.181882,37.927957,6996.0628176,17.931,-1.623,0.069,1.0
1.6,128.181882,37.928003,6995.938154400001,18.634,-1.646,0.073,1.0
1.6166,128.181882,37.928049,6995.8119672,19.24,-1.666,0.07,1.0
1.6333,128.181882,37.928095,6995.6845608,19.749,-1.684,0.061,1.0
1.65,128.181882,37.928141,6995.55624,20.168,-1.701,0.049,1.0
1.6666,128.181882,37.928187,6995.4276144000005,20.507,-1.716,0.036,1.0
1.6833,128.181882,37.928233,6995.2983792,20.773,-1.732,0.024,1.0
1.7,128.181882,37.928279,6995.1694488,20.975,-1.748,0.014,1.0
1.7166,128.181883,37.928324,6995.0405184,21.121,-1.764,0.006,1.0
1.7333,128.181883,37.92837,6994.911588000001,21.218,-1.78,0.0,1.0
1.75,128.181883,37.928416,6994.782048,21.273,-1.796,359.995,1.0
1.7666,128.181883,37.928462,6994.652508,21.29,-1.811,359.992,1.0
1.7833,128.181883,37.928508,6994.5226632,21.274,-1.827,359.989,1.0
1.8,128.181883,37.928554,6994.3922088,21.228,-1.842,359.988,1.0
1.8166,128.181883,37.9286,6994.2611448,21.155,-1.857,359.988,1.0
1.8333,128.181884,37.928646,6994.129776,21.058,-1.872,359.988,1.0
1.85,128.181884,37.928692,6993.997492800001,20.938,-1.886,359.99,1.0
1.8666,128.181884,37.928739,6993.864904800001,20.797,-1.9,359.991,1.0
1.8833,128.181884,37.928785,6993.7317072,20.637,-1.914,359.994,1.0
1.9,128.181884,37.928831,6993.597900000001,20.458,-1.928,359.997,1.0
1.9166,128.181885,37.928877,6993.463483200001,20.26,-1.941,0.0,1.0
1.9333,128.181885,37.928923,6993.328456800001,20.046,-1.954,0.004,1.0
1.95,128.181885,37.928969,6993.1928208,19.815,-1.967,0.008,1.0
1.9666,128.181885,37.929015,6993.0565752,19.571,-1.979,0.012,1.0
1.9833,128.181886,37.929061,6992.919415200001,19.314,-1.992,0.017,1.0
2.0,128.181886,37.929107,6992.7813408,19.046,-2.004,0.023,1.0
2.0166,128.181886,37.929153,6992.642656800001,18.768,-2.016,0.029,1.0
2.0333,128.181886,37.929199,6992.503058400001,18.482,-2.028,0.035,1.0
2.05,128.181887,37.929246,6992.362850400001,18.189,-2.04,0.042,1.0
2.0666,128.181887,37.929292,6992.221728,17.891,-2.052,0.049,1.0
2.0833,128.181887,37.929338,6992.0796912000005,17.587,-2.064,0.057,1.0
2.1,128.181888,37.929384,6991.93674,17.28,-2.076,0.065,1.0
2.1166,128.181888,37.92943,6991.792569600001,16.97,-2.088,0.073,1.0
2.1333,128.181888,37.929476,6991.6477896,16.657,-2.1,0.081,1.0
2.15,128.181889,37.929523,6991.5020952,16.344,-2.111,0.089,1.0
2.1666,128.181889,37.929569,6991.355486400001,16.029,-2.123,0.098,1.0
2.1833,128.181889,37.929615,6991.2079632,15.713,-2.135,0.107,1.0
2.2,128.18189,37.929661,6991.0592208,15.398,-2.146,0.116,1.0
2.2166,128.18189,37.929707,6990.9095640000005,15.084,-2.158,0.125,1.0
2.2333,128.18189,37.929754,6990.758992800001,14.771,-2.169,0.134,1.0
2.25,128.181891,37.9298,6990.6075072,14.46,-2.181,0.143,1.0
2.2666,128.181891,37.929846,6990.4548024,14.151,-2.192,0.153,1.0
2.2833,128.181891,37.929892,6990.301183200001,13.845,-2.204,0.162,1.0
2.3,128.181892,37.929939,6990.1457352,13.652,-2.217,0.178,1.0
2.3166,128.181892,37.929985,6989.9884584,13.569,-2.232,0.2,1.0
2.3333,128.181893,37.930031,6989.8287432,13.596,-2.248,0.226,1.0
2.35,128.181893,37.930078,6989.6662848,13.731,-2.265,0.253,1.0
2.3666,128.181893,37.930124,6989.501083200001,13.974,-2.282,0.279,1.0
2.3833,128.181894,37.93017,6989.332528800001,14.32,-2.3,0.305,1.0
2.4,128.181894,37.930217,6989.1606216,14.765,-2.318,0.329,1.0
2.4166,128.181894,37.930263,6988.9844472,15.306,-2.337,0.352,1.0
2.4333,128.181895,37.930309,6988.804310400001,15.938,-2.357,0.374,1.0
2.45,128.181895,37.930356,6988.620211200001,16.658,-2.378,0.394,1.0
2.4666,128.181895,37.930402,6988.4318448,17.461,-2.399,0.413,1.0
2.4833,128.181896,37.930449,6988.2398207999995,18.344,-2.422,0.431,1.0
2.5,128.181896,37.930495,6988.0438343999995,19.303,-2.446,0.448,1.0
2.5166,128.181896,37.930542,6987.8438856,20.335,-2.47,0.463,1.0
2.5333,128.181897,37.930588,6987.640279200001,21.436,-2.496,0.477,1.0
2.55,128.181897,37.930635,6987.433015200001,22.602,-2.523,0.49,1.0
2.5666,128.181897,37.930681,6987.2227032,23.821,-2.551,0.501,1.0
2.5833,128.181898,37.930728,6987.009343199999,24.897,-2.575,0.501,1.0
2.6,128.181898,37.930774,6986.7935448,25.894,-2.596,0.493,1.0
2.6166,128.181898,37.930821,6986.5756128,26.83,-2.617,0.482,1.0
2.6333,128.181899,37.930867,6986.355852000001,27.723,-2.64,0.473,1.0
2.65,128.181899,37.930914,6986.1345672,28.588,-2.663,0.467,1.0
2.6666,128.1819,37.93096,6985.9117584000005,29.442,-2.689,0.463,1.0
2.6833,128.1819,37.931007,6985.686206400001,30.296,-2.716,0.462,1.0
2.7,128.1819,37.931054,6985.4585208,31.163,-2.745,0.463,1.0
2.7166,128.181901,37.9311,6985.228396800001,32.051,-2.774,0.465,1.0
2.7333,128.181901,37.931147,6984.9955296,32.965,-2.805,0.469,1.0
2.75,128.181901,37.931194,6984.759614400001,33.911,-2.837,0.473,1.0
2.7666,128.181902,37.93124,6984.521260800001,34.893,-2.869,0.478,1.0
2.7833,128.181902,37.931287,6984.2795544,35.913,-2.902,0.483,1.0
2.8,128.181902,37.931334,6984.0351048,36.974,-2.935,0.488,1.0
2.8166,128.181903,37.93138,6983.7876072,38.078,-2.968,0.492,1.0
2.8333,128.181903,37.931427,6983.5370616,39.227,-3.002,0.496,1.0
2.85,128.181903,37.931474,6983.2834680000005,40.421,-3.036,0.499,1.0
2.8666,128.181904,37.931521,6983.0265216,41.662,-3.07,0.501,1.0
2.8833,128.181904,37.931567,6982.7662224000005,42.952,-3.105,0.502,1.0
2.9,128.181904,37.931614,6982.502570400001,44.293,-3.141,0.503,1.0
2.9166,128.181905,37.931661,6982.235870400001,45.685,-3.177,0.503,1.0
2.9333,128.181905,37.931708,6981.9655128,47.131,-3.213,0.502,1.0
2.95,128.181905,37.931755,6981.6921072,48.63,-3.25,0.5,1.0
2.9666,128.181906,37.931802,6981.415044,50.181,-3.287,0.496,1.0
2.9833,128.181906,37.931848,6981.134932800001,51.781,-3.324,0.492,1.0
3.0,128.181906,37.931895,6980.8514688000005,53.43,-3.361,0.486,1.0
3.0166,128.181906,37.931942,6980.564956800001,55.124,-3.398,0.479,1.0
3.0333,128.181907,37.931989,6980.275092000001,56.863,-3.435,0.47,1.0
3.05,128.181907,37.932036,6979.9818744,58.645,-3.472,0.46,1.0
3.0666,128.181907,37.932083,6979.6859136,60.469,-3.508,0.448,1.0
3.0833,128.181907,37.93213,6979.386600000001,62.332,-3.544,0.435,1.0
3.1,128.181908,37.932177,6979.083933600001,64.233,-3.579,0.421,1.0
3.1166,128.181908,37.932224,6978.778524,66.171,-3.614,0.405,1.0
3.1333,128.181908,37.932271,6978.4700664,68.145,-3.649,0.388,1.0
3.15,128.181908,37.932318,6978.1585608000005,70.153,-3.682,0.37,1.0
3.1666,128.181908,37.932365,6977.8440072,72.194,-3.716,0.351,1.0
3.1833,128.181909,37.932412,6977.5264056000005,74.267,-3.748,0.331,1.0
3.2,128.181909,37.932459,6977.206060800001,76.372,-3.78,0.31,1.0
3.2166,128.181909,37.932506,6976.8829728,78.506,-3.81,0.288,1.0
3.2333,128.181909,37.932554,6976.5568368,80.668,-3.84,0.265,1.0
3.25,128.181909,37.932601,6976.2279576,82.859,-3.869,0.241,1.0
3.2666,128.181909,37.932648,6975.8963352,85.076,-3.897,0.216,1.0
3.2833,128.18191,37.932695,6975.5616648000005,87.319,-3.924,0.191,1.0
3.3,128.18191,37.932742,6975.224556000001,89.587,-3.95,0.165,1.0
3.3166,128.18191,37.932789,6974.8850088,91.88,-3.975,0.138,1.0
3.3333,128.18191,37.932837,6974.5424136,94.195,-3.999,0.111,1.0
3.35,128.18191,37.932884,6974.19738,96.534,-4.021,0.084,1.0
3.3666,128.18191,37.932931,6973.849908,98.894,-4.043,0.056,1.0
3.3833,128.18191,37.932978,6973.499997600001,101.274,-4.064,0.032,1.0
3.4,128.18191,37.933026,6973.1476488,103.674,-4.087,0.02,1.0
3.4166,128.18191,37.933073,6972.792556800001,106.093,-4.114,0.025,1.0
3.4333,128.18191,37.93312,6972.4350264,108.528,-4.146,0.05,1.0
3.45,128.18191,37.933168,6972.0750576,110.98,-4.187,0.097,1.0
3.4666,128.18191,37.933215,6971.712650400001,113.447,-4.237,0.166,1.0
3.4833,128.18191,37.933262,6971.347804800001,115.928,-4.298,0.255,1.0
3.5,128.18191,37.93331,6970.979911200001,118.422,-4.372,0.362,1.0
3.5166,128.18191,37.933357,6970.609579200001,120.928,-4.46,0.485,1.0
3.5333,128.18191,37.933405,6970.2358944,123.432,-4.562,0.622,1.0
3.55,128.18191,37.933452,6969.858552000001,125.922,-4.677,0.772,1.0
3.5666,128.181911,37.933499,6969.476942400001,128.383,-4.807,0.932,1.0
3.5833,128.181911,37.933547,6969.091370400001,130.804,-4.952,1.101,1.0
3.6,128.181911,37.933594,6968.700312,133.175,-5.112,1.276,1.0
3.6166,128.181911,37.933642,6968.304072,135.486,-5.288,1.456,1.0
3.6333,128.181911,37.933689,6967.902040800001,137.732,-5.479,1.639,1.0
3.65,128.181912,37.933737,6967.4936088,139.904,-5.687,1.824,1.0
3.6666,128.181912,37.933784,6967.0781664,142.0,-5.91,2.009,1.0
3.6833,128.181912,37.933832,6966.655104,144.014,-6.148,2.192,1.0
3.7,128.181913,37.933879,6966.2244216,145.945,-6.401,2.373,1.0
3.7166,128.181913,37.933927,6965.784900000001,147.79,-6.668,2.55,1.0
3.7333,128.181914,37.933974,6965.336844,149.549,-6.949,2.723,1.0
3.75,128.181914,37.934022,6964.8793392,151.222,-7.243,2.89,1.0
3.7666,128.181915,37.934069,6964.411776,152.808,-7.549,3.052,1.0
3.7833,128.181916,37.934116,6963.9338496,154.31,-7.865,3.206,1.0
3.8,128.181917,37.934164,6963.4452552,155.727,-8.191,3.354,1.0
3.8166,128.181917,37.934211,6962.945383200001,157.063,-8.527,3.494,1.0
3.8333,128.181918,37.934259,6962.433624,158.319,-8.87,3.627,1.0
3.85,128.181919,37.934306,6961.9099776,159.497,-9.221,3.752,1.0
3.8666,128.18192,37.934354,6961.3738344,160.599,-9.575,3.868,1.0
3.8833,128.181921,37.934401,6960.8251944,161.63,-9.93,3.975,1.0
3.9,128.181922,37.934449,6960.263448,162.593,-10.28,4.071,1.0
3.9166,128.181923,37.934496,6959.6879856000005,163.49,-10.623,4.157,1.0
3.9333,128.181924,37.934544,6959.0994168,164.324,-10.958,4.232,1.0
3.95,128.181926,37.934591,6958.496827200001,165.1,-11.284,4.298,1.0
3.9666,128.181927,37.934638,6957.8805216,165.823,-11.601,4.354,1.0
3.9833,128.181928,37.934686,6957.2498904,166.496,-11.908,4.401,1.0
4.0,128.181929,37.934733,6956.604933600001,167.124,-12.207,4.441,1.0
4.0166,128.181931,37.93478,6955.946565600001,167.787,-12.498,4.468,1.0
4.0333,128.181932,37.934828,6955.2741768000005,168.483,-12.782,4.484,1.0
4.05,128.181933,37.934875,6954.5883768,169.204,-13.058,4.492,1.0
4.0666,128.181935,37.934922,6953.8891656000005,169.941,-13.326,4.494,1.0
4.0833,128.181936,37.93497,6953.176238400001,170.685,-13.588,4.492,1.0
4.1,128.181938,37.935017,6952.448376,171.425,-13.843,4.486,1.0
4.1166,128.181939,37.935064,6951.706188000001,172.155,-14.092,4.478,1.0
4.1333,128.181941,37.935112,6950.94876,172.866,-14.335,4.466,1.0
4.15,128.181942,37.935159,6950.1763968000005,173.555,-14.574,4.451,1.0
4.1666,128.181944,37.935206,6949.3890984,174.222,-14.808,4.433,1.0
4.1833,128.181946,37.935253,6948.586255200001,174.864,-15.037,4.412,1.0
4.2,128.181947,37.935301,6947.768172,175.479,-15.264,4.387,1.0
4.2166,128.181949,37.935348,6946.9342392,176.066,-15.487,4.36,1.0
4.2333,128.18195,37.935395,6946.0847616,176.623,-15.707,4.329,1.0
4.25,128.181952,37.935442,6945.2197392,177.15,-15.925,4.297,1.0
4.2666,128.181954,37.935489,6944.3388672,177.648,-16.14,4.261,1.0
4.2833,128.181956,37.935536,6943.4421456,178.117,-16.353,4.224,1.0
4.3,128.181957,37.935583,6942.529879200001,178.559,-16.565,4.184,1.0
4.3166,128.181959,37.93563,6941.602068,178.978,-16.774,4.142,1.0
4.3333,128.181961,37.935677,6940.6581024,179.376,-16.981,4.097,1.0
4.35,128.181962,37.935724,6939.698592000001,179.754,-17.187,4.051,1.0
4.3666,128.181964,37.935771,6938.7235368,-179.886,-17.391,4.003,1.0
4.3833,128.181966,37.935818,6937.732632,-179.545,-17.594,3.954,1.0
4.4,128.181968,37.935865,6936.725877600001,-179.221,-17.795,3.904,1.0
4.4166,128.181969,37.935912,6935.703273600001,-178.913,-17.994,3.853,1.0
4.4333,128.181971,37.935959,6934.665124800001,-178.619,-18.192,3.802,1.0
4.45,128.181973,37.936006,6933.6111264,-178.339,-18.389,3.75,1.0
4.4666,128.181975,37.936053,6932.541583200001,-178.07,-18.584,3.697,1.0
4.4833,128.181976,37.936099,6931.4561904,-177.811,-18.778,3.643,1.0
4.5,128.181978,37.936146,6930.354948,-177.561,-18.97,3.589,1.0
4.5166,128.18198,37.936193,6929.2384656,-177.32,-19.161,3.534,1.0
4.5333,128.181982,37.93624,6928.1058288,-177.087,-19.351,3.479,1.0
4.55,128.181983,37.936286,6926.957647200001,-176.862,-19.54,3.423,1.0
4.5666,128.181985,37.936333,6925.7939208,-176.644,-19.727,3.368,1.0
4.5833,128.181987,37.93638,6924.6143448,-176.434,-19.913,3.312,1.0
4.6,128.181989,37.936426,6923.4189192,-176.23,-20.098,3.256,1.0
4.6166,128.18199,37.936473,6922.2082536,-176.031,-20.282,3.2,1.0
4.6333,128.181992,37.936519,6920.981738400001,-175.836,-20.465,3.143,1.0
4.65,128.181994,37.936566,6919.7396784,-175.645,-20.648,3.086,1.0
4.6666,128.181995,37.936612,6918.4820736,-175.458,-20.829,3.029,1.0
4.6833,128.181997,37.936659,6917.2089240000005,-175.275,-21.009,2.971,1.0
4.7,128.181999,37.936705,6915.9199248,-175.095,-21.189,2.914,1.0
4.7166,128.182001,37.936752,6914.6153808,-174.92,-21.368,2.856,1.0
4.7333,128.182002,37.936798,6913.295292000001,-174.748,-21.546,2.799,1.0
4.75,128.182004,37.936844,6911.9593536,-174.579,-21.723,2.741,1.0
4.7666,128.182006,37.936891,6910.60848,-174.412,-21.9,2.683,1.0
4.7833,128.182007,37.936937,6909.241756800001,-174.246,-22.076,2.625,1.0
4.8,128.182009,37.936983,6907.8594888,-174.081,-22.252,2.566,1.0
4.8166,128.18201,37.93703,6906.461676,-173.918,-22.427,2.508,1.0
4.8333,128.182012,37.937076,6905.0486232,-173.755,-22.602,2.449,1.0
4.85,128.182014,37.937122,6903.6197208,-173.594,-22.776,2.39,1.0
4.8666,128.182015,37.937168,6902.175578400001,-173.435,-22.949,2.33,1.0
4.8833,128.182017,37.937214,6900.7158912,-173.277,-23.123,2.271,1.0
4.9,128.182018,37.93726,6899.2409640000005,-173.117,-23.295,2.211,1.0
4.9166,128.18202,37.937306,6897.751101600001,-172.951,-23.468,2.151,1.0
4.9333,128.182021,37.937352,6896.2456944000005,-172.78,-23.639,2.089,1.0
4.95,128.182023,37.937398,6894.725352,-172.603,-23.81,2.027,1.0
4.9666,128.182024,37.937444,6893.189464800001,-172.421,-23.981,1.964,1.0
4.9833,128.182026,37.93749,6891.638642400001,-172.234,-24.151,1.901,1.0
5.0,128.182027,37.937536,6890.0722752,-172.042,-24.321,1.837,1.0
5.0166,128.182029,37.937581,6888.4909728,-171.847,-24.49,1.774,1.0
5.0333,128.18203,37.937627,6886.8944304,-171.647,-24.659,1.709,1.0
5.05,128.182032,37.937673,6885.282647999999,-171.443,-24.828,1.645,1.0
5.0666,128.182033,37.937719,6883.6556256,-171.235,-24.996,1.579,1.0
5.0833,128.182034,37.937764,6882.0142776,-171.014,-25.164,1.513,1.0
5.1,128.182036,37.93781,6880.3579944,-170.779,-25.331,1.445,1.0
5.1166,128.182037,37.937855,6878.6867760000005,-170.531,-25.497,1.375,1.0
5.1333,128.182038,37.937901,6877.000927200001,-170.267,-25.663,1.304,1.0
5.15,128.182039,37.937947,6875.300448,-169.988,-25.828,1.232,1.0
5.1666,128.182041,37.937992,6873.585338400001,-169.691,-25.992,1.159,1.0
5.1833,128.182042,37.938037,6871.8555983999995,-169.375,-26.156,1.084,1.0
5.2,128.182043,37.938083,6870.1115328000005,-169.039,-26.319,1.008,1.0
5.2166,128.182044,37.938128,6868.352836800001,-168.68,-26.482,0.93,1.0
5.2333,128.182046,37.938174,6866.5801200000005,-168.295,-26.643,0.85,1.0
5.25,128.182047,37.938219,6864.7933824,-167.88,-26.804,0.769,1.0
5.2666,128.182048,37.938264,6862.9929288,-167.431,-26.963,0.686,1.0
5.2833,128.182049,37.938309,6861.179064000001,-166.921,-27.121,0.599,1.0
5.3,128.18205,37.938355,6859.351788000001,-166.342,-27.278,0.507,1.0
5.3166,128.182051,37.9384,6857.510491200001,-165.772,-27.433,0.418,1.0
5.3333,128.182052,37.938445,6855.6548688,-165.213,-27.589,0.331,1.0
5.35,128.182053,37.93849,6853.784616,-164.658,-27.744,0.244,1.0
5.3666,128.182054,37.938535,6851.8997328000005,-164.097,-27.899,0.156,1.0
5.3833,128.182055,37.93858,6850.001133600001,-163.522,-28.052,0.065,1.0
5.4,128.182056,37.938625,6848.0891232,-162.919,-28.204,359.97,1.0
5.4166,128.182056,37.93867,6846.1637016,-162.277,-28.352,359.87,1.0
5.4333,128.182057,37.938715,6844.225173600001,-161.581,-28.491,359.768,1.0
5.45,128.182058,37.93876,6842.2744536,-160.812,-28.613,359.667,1.0
5.4666,128.182059,37.938805,6840.311846400001,-159.96,-28.711,359.569,1.0
5.4833,128.182059,37.93885,6838.337656800001,-159.029,-28.779,359.477,1.0
5.5,128.18206,37.938894,6836.3524944,-158.022,-28.814,359.397,1.0
5.5166,128.182061,37.938939,6834.3560544,-156.941,-28.814,359.33,1.0
5.5333,128.182061,37.938984,6832.3492512,-155.79,-28.775,359.281,1.0
5.55,128.182062,37.939029,6830.3320848,-154.571,-28.696,359.25,1.0
5.5666,128.182062,37.939073,6828.30486,-153.287,-28.58,359.24,1.0
5.5833,128.182063,37.939118,6826.268186400001,-151.937,-28.428,359.25,1.0
5.6,128.182063,37.939163,6824.2226736,-150.523,-28.245,359.281,1.0
5.6166,128.182064,37.939208,6822.1689312,-149.044,-28.034,359.332,1.0
5.6333,128.182064,37.939252,6820.1066544000005,-147.498,-27.805,359.399,1.0
5.65,128.182065,37.939297,6818.0367576,-145.881,-27.569,359.475,1.0
5.6666,128.182065,37.939342,6815.959545600001,-144.192,-27.337,359.555,1.0
5.6833,128.182065,37.939386,6813.875628000001,-142.428,-27.113,359.635,1.0
5.7,128.182066,37.939431,6811.785309600001,-140.588,-26.902,359.713,1.0
5.7166,128.182066,37.939476,6809.6888952,-138.674,-26.704,359.788,1.0
5.7333,128.182066,37.939521,6807.5863848,-136.687,-26.519,359.86,1.0
5.75,128.182067,37.939565,6805.478692800001,-134.628,-26.348,359.928,1.0
5.7666,128.182067,37.93961,6803.3658192,-132.5,-26.19,359.993,1.0
5.7833,128.182067,37.939655,6801.2480688000005,-130.304,-26.044,0.054,1.0
5.8,128.182067,37.939699,6799.1254416,-128.043,-25.909,0.112,1.0
5.8166,128.182067,37.939744,6796.998547200001,-125.719,-25.784,0.166,1.0
5.8333,128.182068,37.939789,6794.8670808,-123.335,-25.67,0.216,1.0
5.85,128.182068,37.939834,6792.7313472000005,-120.894,-25.564,0.264,1.0
5.8666,128.182068,37.939879,6790.5916512,-118.397,-25.466,0.308,1.0
5.8833,128.182068,37.939923,6788.447688000001,-115.849,-25.376,0.349,1.0
5.9,128.182068,37.939968,6786.3000672,-113.251,-25.292,0.387,1.0
5.9166,128.182069,37.940013,6784.148484000001,-110.606,-25.215,0.422,1.0
5.9333,128.182069,37.940058,6781.992938400001,-107.918,-25.143,0.455,1.0
5.95,128.182069,37.940103,6779.8337352,-105.188,-25.077,0.485,1.0
5.9666,128.182069,37.940147,6777.670569600001,-102.42,-25.015,0.513,1.0
5.9833,128.18207,37.940192,6775.503746400001,-99.617,-24.958,0.539,1.0
6.0,128.18207,37.940237,6773.3326560000005,-96.777,-24.905,0.555,1.0
6.0166,128.18207,37.940282,6771.157908,-93.9,-24.857,0.556,1.0
6.0333,128.18207,37.940327,6768.979197600001,-90.987,-24.812,0.535,1.0
6.05,128.182071,37.940372,6766.7968296,-88.038,-24.769,0.49,1.0
6.0666,128.182071,37.940417,6764.6101944,-85.062,-24.726,0.419,1.0
6.0833,128.182071,37.940462,6762.4195968,-82.071,-24.681,0.323,1.0
6.1,128.182072,37.940507,6760.2256464,-79.081,-24.633,0.2,1.0
6.1166,128.182072,37.940552,6758.027733600001,-76.107,-24.579,0.052,1.0
6.1333,128.182072,37.940597,6755.8267728,-73.165,-24.517,359.88,1.0
6.15,128.182072,37.940642,6753.622459200001,-70.27,-24.444,359.685,1.0
6.1666,128.182073,37.940687,6751.4157072,-67.434,-24.358,359.467,1.0
6.1833,128.182073,37.940732,6749.206212,-64.669,-24.257,359.231,1.0
6.2,128.182073,37.940777,6746.994888000001,-61.988,-24.139,358.978,1.0
6.2166,128.182073,37.940822,6744.78204,-59.4,-24.004,358.712,1.0
6.2333,128.182073,37.940867,6742.5682776,-56.911,-23.85,358.436,1.0
6.25,128.182073,37.940912,6740.3536008,-54.527,-23.679,358.152,1.0
6.2666,128.182073,37.940957,6738.139228800001,-52.254,-23.489,357.864,1.0
6.2833,128.182072,37.941002,6735.9254664,-50.094,-23.281,357.573,1.0
6.3,128.182072,37.941048,6733.712618400001,-48.047,-23.056,357.283,1.0
6.3166,128.182072,37.941093,6731.5015992,-46.113,-22.816,356.996,1.0
6.3333,128.182071,37.941138,6729.2924088,-44.291,-22.561,356.713,1.0
6.35,128.182071,37.941183,6727.0859616,-42.578,-22.293,356.436,1.0
6.3666,128.18207,37.941228,6724.8825624,-40.97,-22.013,356.168,1.0
6.3833,128.18207,37.941274,6722.6828208,-39.463,-21.724,355.908,1.0
6.4,128.182069,37.941319,6720.4870416,-38.052,-21.427,355.658,1.0
6.4166,128.182068,37.941364,6718.2955296,-36.732,-21.123,355.418,1.0
6.4333,128.182067,37.94141,6716.1091992,-35.498,-20.815,355.189,1.0
6.45,128.182066,37.941455,6713.928355200001,-34.344,-20.503,354.972,1.0
6.4666,128.182065,37.941501,6711.7529976000005,-33.265,-20.193,354.769,1.0
6.4833,128.182064,37.941546,6709.5837360000005,-32.258,-19.887,354.58,1.0
6.5,128.182062,37.941592,6707.4205704000005,-31.316,-19.589,354.407,1.0
6.5166,128.182061,37.941637,6705.264415200001,-30.434,-19.299,354.249,1.0
6.5333,128.18206,37.941683,6703.114965600001,-29.609,-19.018,354.105,1.0
6.55,128.182058,37.941728,6700.9731360000005,-28.835,-18.747,353.975,1.0
6.5666,128.182056,37.941774,6698.8386216,-28.107,-18.484,353.856,1.0
6.5833,128.182055,37.94182,6696.712032,-27.419,-18.229,353.748,1.0
6.6,128.182053,37.941865,6694.5933672,-26.768,-17.983,353.651,1.0
6.6166,128.182051,37.941911,6692.482932000001,-26.15,-17.744,353.562,1.0
6.6333,128.182049,37.941957,6690.3810312000005,-25.563,-17.512,353.481,1.0
6.65,128.182047,37.942003,6688.287664800001,-25.005,-17.286,353.408,1.0
6.6666,128.182045,37.942049,6686.2034424,-24.474,-17.066,353.34,1.0
6.6833,128.182043,37.942095,6684.1280592,-23.967,-16.852,353.279,1.0
6.7,128.18204,37.942141,6682.061820000001,-23.484,-16.644,353.223,1.0
6.7166,128.182038,37.942187,6680.0038104000005,-22.944,-16.437,353.177,1.0
6.7333,128.182036,37.942233,6677.9543352,-22.347,-16.234,353.141,1.0
6.75,128.182033,37.942279,6675.9130896,-21.701,-16.033,353.113,1.0
6.7666,128.182031,37.942325,6673.8800736,-21.017,-15.836,353.089,1.0
6.7833,128.182028,37.942371,6671.8562016000005,-20.307,-15.644,353.066,1.0
6.8,128.182025,37.942417,6669.8417784,-19.584,-15.456,353.046,1.0
6.8166,128.182023,37.942463,6667.8371088,-18.86,-15.272,353.026,1.0
6.8333,128.18202,37.94251,6665.842192800001,-18.14,-15.091,353.008,1.0
6.85,128.182017,37.942556,6663.8579448,-17.434,-14.914,352.993,1.0
6.8666,128.182014,37.942602,6661.8843648,-16.748,-14.738,352.979,1.0
6.8833,128.182011,37.942649,6659.9217576,-16.089,-14.565,352.968,1.0
6.9,128.182008,37.942695,6657.970123200001,-15.46,-14.394,352.959,1.0
6.9166,128.182005,37.942742,6656.0294616,-14.86,-14.224,352.952,1.0
6.9333,128.182002,37.942788,6654.100382400001,-14.292,-14.056,352.947,1.0
6.95,128.181998,37.942835,6652.1825808,-13.755,-13.889,352.945,1.0
6.9666,128.181995,37.942881,6650.276056800001,-13.251,-13.723,352.945,1.0
6.9833,128.181992,37.942928,6648.381420000001,-12.779,-13.557,352.947,1.0
7.0,128.181988,37.942975,6646.4980608000005,-12.336,-13.392,352.95,1.0
7.0166,128.181985,37.943021,6644.6265888,-11.92,-13.228,352.956,1.0
7.0333,128.181981,37.943068,6642.7666992,-11.53,-13.065,352.963,1.0
7.05,128.181978,37.943115,6640.9186968,-11.166,-12.902,352.972,1.0
7.0666,128.181974,37.943162,6639.0813624,-10.791,-12.739,352.985,1.0
7.0833,128.18197,37.943209,6637.254696000001,-10.404,-12.577,353.001,1.0
7.1,128.181967,37.943256,6635.438392800001,-10.008,-12.415,353.021,1.0
7.1166,128.181963,37.943302,6633.6339768,-9.604,-12.254,353.042,1.0
7.1333,128.181959,37.943349,6631.8405336000005,-9.196,-12.095,353.063,1.0
7.15,128.181955,37.943396,6630.058672800001,-8.786,-11.936,353.085,1.0
7.1666,128.181952,37.943443,6628.2880896,-8.378,-11.779,353.107,1.0
7.1833,128.181948,37.943491,6626.5278696000005,-7.896,-11.621,353.136,1.0
7.2,128.181944,37.943538,6624.7783176,-7.348,-11.465,353.172,1.0
7.2166,128.18194,37.943585,6623.038824,-6.746,-11.309,353.211,1.0
7.2333,128.181936,37.943632,6621.309084,-6.104,-11.154,353.25,1.0
7.25,128.181932,37.943679,6619.5912312,-5.435,-11.001,353.289,1.0
7.2666,128.181928,37.943727,6617.8843512,-4.756,-10.849,353.327,1.0
7.2833,128.181924,37.943774,6616.1896632,-4.078,-10.698,353.364,1.0
7.3,128.18192,37.943821,6614.5071672,-3.411,-10.547,353.4,1.0
7.3166,128.181915,37.943869,6612.837168,-2.767,-10.397,353.436,1.0
7.3333,128.181911,37.943916,6611.1799704000005,-2.151,-10.248,353.473,1.0
7.35,128.181907,37.943963,6609.535269600001,-1.567,-10.098,353.511,1.0
7.3666,128.181903,37.944011,6607.903370400001,-1.016,-9.949,353.549,1.0
7.3833,128.181899,37.944058,6606.2842728000005,-0.499,-9.799,353.59,1.0
7.4,128.181895,37.944106,6604.677976800001,-0.017,-9.649,353.632,1.0
7.4166,128.18189,37.944154,6603.0844824000005,0.431,-9.499,353.675,1.0
7.4333,128.181886,37.944201,6601.5037896,0.849,-9.349,353.72,1.0
7.45,128.181882,37.944249,6599.9362032,1.235,-9.198,353.766,1.0
7.4666,128.181878,37.944297,6598.3811136,1.593,-9.047,353.814,1.0
7.4833,128.181873,37.944344,6596.8391304,1.924,-8.896,353.863,1.0
7.5,128.181869,37.944392,6595.309644,2.231,-8.745,353.913,1.0
7.5166,128.181865,37.94444,6593.793264000001,2.515,-8.594,353.964,1.0
7.5333,128.18186,37.944488,6592.2893808,2.779,-8.443,354.015,1.0
7.55,128.181856,37.944536,6590.7982992,3.025,-8.292,354.066,1.0
7.5666,128.181852,37.944583,6589.3200192,3.254,-8.142,354.118,1.0
7.5833,128.181848,37.944631,6587.854236,3.469,-7.993,354.17,1.0
7.6,128.181843,37.944679,6586.4015592000005,3.669,-7.844,354.222,1.0
7.6166,128.181839,37.944727,6584.961379200001,3.857,-7.695,354.274,1.0
7.6333,128.181835,37.944775,6583.5340008,4.033,-7.547,354.326,1.0
7.65,128.18183,37.944823,6582.119424,4.199,-7.399,354.378,1.0
7.6666,128.181826,37.944871,6580.7176488000005,4.355,-7.253,354.43,1.0
7.6833,128.181822,37.94492,6579.328675199999,4.502,-7.107,354.481,1.0
7.7,128.181817,37.944968,6577.9521984,4.642,-6.961,354.533,1.0
7.7166,128.181813,37.945016,6576.5885232,4.774,-6.816,354.584,1.0
7.7333,128.181809,37.945064,6575.2379544000005,4.9,-6.672,354.635,1.0
7.75,128.181805,37.945112,6573.8998824,5.019,-6.528,354.686,1.0
7.7666,128.1818,37.945161,6572.5743072,5.133,-6.385,354.736,1.0
7.7833,128.181796,37.945209,6571.261838400001,5.241,-6.243,354.786,1.0
7.8,128.181792,37.945257,6569.9621712,5.345,-6.101,354.836,1.0
7.8166,128.181788,37.945306,6568.675305600001,5.445,-5.959,354.885,1.0
7.8333,128.181783,37.945354,6567.400936800001,5.541,-5.818,354.934,1.0
7.85,128.181779,37.945402,6566.1396744,5.633,-5.678,354.983,1.0
7.8666,128.181775,37.945451,6564.8912136,5.722,-5.538,355.031,1.0
7.8833,128.181771,37.945499,6563.6552496,5.809,-5.398,355.079,1.0
7.9,128.181766,37.945548,6562.432392000001,5.892,-5.259,355.127,1.0
7.9166,128.181762,37.945596,6561.2220312,5.974,-5.121,355.174,1.0
7.9333,128.181758,37.945645,6560.0247768,6.054,-4.982,355.22,1.0
7.95,128.181754,37.945693,6558.840324000001,6.134,-4.844,355.265,1.0
7.9666,128.18175,37.945742,6557.6686728,6.215,-4.706,355.307,1.0
7.9833,128.181745,37.945791,6556.5098232,6.296,-4.568,355.348,1.0
8.0,128.181741,37.945839,6555.3637751999995,6.378,-4.43,355.386,1.0
8.0166,128.181737,37.945888,6554.230528800001,6.46,-4.292,355.421,1.0
8.0333,128.181733,37.945937,6553.1103888,6.542,-4.154,355.455,1.0
8.05,128.181729,37.945985,6552.003050400001,6.622,-4.016,355.485,1.0
8.0666,128.181725,37.946034,6550.9088184,6.699,-3.879,355.515,1.0
8.0833,128.181721,37.946083,6549.8276928000005,6.772,-3.741,355.544,1.0
8.1,128.181717,37.946132,6548.759368800001,6.841,-3.603,355.573,1.0
8.1166,128.181713,37.946181,6547.703846400001,6.903,-3.466,355.601,1.0
8.1333,128.181709,37.946229,6546.6617352,6.96,-3.329,355.629,1.0
8.15,128.181705,37.946278,6545.6324256,7.013,-3.191,355.657,1.0
8.1666,128.181701,37.946327,6544.6162224,7.06,-3.054,355.685,1.0
8.1833,128.181697,37.946376,6543.6128208,7.103,-2.917,355.713,1.0
8.2,128.181693,37.946425,6542.6225256,7.141,-2.78,355.741,1.0
8.2166,128.181689,37.946474,6541.6453368,7.174,-2.643,355.768,1.0
8.2333,128.181685,37.946523,6540.6812544,7.201,-2.506,355.796,1.0
8.25,128.181681,37.946572,6539.7302784,7.224,-2.369,355.822,1.0
8.2666,128.181677,37.946621,6538.7924088,7.242,-2.233,355.849,1.0
8.2833,128.181673,37.94667,6537.8676456,7.255,-2.096,355.875,1.0
8.3,128.181669,37.946719,6536.955988799999,7.261,-1.959,355.901,1.0
8.3166,128.181665,37.946768,6536.057438400001,7.263,-1.822,355.927,1.0
8.3333,128.181661,37.946817,6535.1719944,7.26,-1.686,355.952,1.0
8.35,128.181657,37.946866,6534.2999616,7.252,-1.549,355.977,1.0
8.3666,128.181654,37.946915,6533.4407304,7.237,-1.413,356.001,1.0
8.3833,128.18165,37.946964,6532.594910400001,7.219,-1.276,356.026,1.0
8.4,128.181646,37.947013,6531.7621968,7.195,-1.14,356.049,1.0
8.4166,128.181642,37.947063,6530.9425896,7.167,-1.003,356.073,1.0
8.4333,128.181639,37.947112,6530.1360888,7.134,-0.867,356.096,1.0
8.45,128.181635,37.947161,6529.3429992,7.096,-0.73,356.119,1.0
8.4666,128.181631,37.94721,6528.562711200001,7.055,-0.594,356.142,1.0
8.4833,128.181627,37.947259,6527.7958344,7.01,-0.457,356.164,1.0
8.5,128.181624,37.947309,6527.042064,6.961,-0.321,356.186,1.0
8.5166,128.18162,37.947358,6526.3017048,6.909,-0.185,356.207,1.0
8.5333,128.181616,37.947407,6525.574147200001,6.854,-0.049,356.228,1.0
8.55,128.181613,37.947456,6524.8600008,6.796,0.086,356.249,1.0
8.5666,128.181609,37.947506,6524.1589608,6.736,0.222,356.269,1.0
8.5833,128.181605,37.947555,6523.4707224,6.673,0.358,356.289,1.0
8.6,128.181602,37.947604,6522.796200000001,6.609,0.494,356.309,1.0
8.6166,128.181598,37.947654,6522.134479200001,6.543,0.63,356.329,1.0
8.6333,128.181595,37.947703,6521.485864800001,6.475,0.766,356.348,1.0
8.65,128.181591,37.947752,6520.8506615999995,6.407,0.902,356.366,1.0
8.6666,128.181588,37.947802,6520.228260000001,6.338,1.037,356.385,1.0
8.6833,128.181584,37.947851,6519.619269600001,6.267,1.173,356.403,1.0
8.7,128.181581,37.947901,6519.0233856,6.196,1.308,356.42,1.0
8.7166,128.181577,37.94795,6518.440608,6.124,1.444,356.438,1.0
8.7333,128.181574,37.947999,6517.8709368,6.052,1.579,356.454,1.0
8.75,128.18157,37.948049,6517.314372,5.979,1.714,356.471,1.0
8.7666,128.181567,37.948098,6516.7712184,5.907,1.85,356.487,1.0
8.7833,128.181563,37.948148,6516.2408663999995,5.834,1.985,356.503,1.0
8.8,128.18156,37.948197,6515.7236207999995,5.762,2.12,356.519,1.0
8.8166,128.181556,37.948247,6515.2197864,5.691,2.255,356.535,1.0
8.8333,128.181553,37.948296,6514.7287536,5.62,2.39,356.55,1.0
8.85,128.18155,37.948346,6514.2508272000005,5.55,2.525,356.565,1.0
8.8666,128.181546,37.948395,6513.786312,5.481,2.66,356.579,1.0
8.8833,128.181543,37.948445,6513.3345984,5.413,2.794,356.593,1.0
8.9,128.181539,37.948494,6512.8959912,5.345,2.929,356.607,1.0
8.9166,128.181536,37.948544,6512.4704904,5.279,3.064,356.621,1.0
8.9333,128.181533,37.948593,6512.0584008000005,5.213,3.198,356.634,1.0
8.95,128.18153,37.948643,6511.658808,5.149,3.333,356.648,1.0
8.9666,128.181526,37.948692,6511.2729312,5.085,3.468,356.661,1.0
8.9833,128.181523,37.948742,6510.899856000001,5.022,3.602,356.673,1.0
9.0,128.18152,37.948791,6510.540801600001,4.917,3.737,356.681,1.0
9.0166,128.181516,37.948841,6510.1960728,4.772,3.873,356.685,1.0
9.0333,128.181513,37.94889,6509.8662792000005,4.59,4.008,356.686,1.0
9.05,128.18151,37.94894,6509.550201600001,4.374,4.145,356.686,1.0
9.0666,128.181507,37.948989,6509.24784,4.129,4.281,356.686,1.0
9.0833,128.181503,37.949039,6508.9594992,3.861,4.418,356.686,1.0
9.1,128.1815,37.949088,6508.684569600001,3.577,4.555,356.687,1.0
9.1166,128.181497,37.949138,6508.423356,3.281,4.692,356.688,1.0
9.1333,128.181494,37.949187,6508.1755536,2.978,4.829,356.688,1.0
9.15,128.181491,37.949237,6507.9408576,2.671,4.967,356.689,1.0
9.1666,128.181488,37.949286,6507.719572800001,2.363,5.104,356.688,1.0
9.1833,128.181484,37.949336,6507.5110896,2.059,5.241,356.688,1.0
9.2,128.181481,37.949386,6507.3160176,1.761,5.378,356.686,1.0
9.2166,128.181478,37.949435,6507.1337472000005,1.469,5.515,356.684,1.0
9.2333,128.181475,37.949485,6506.964888,1.184,5.652,356.68,1.0
9.25,128.181472,37.949534,6506.8088304,0.908,5.788,356.676,1.0
9.2666,128.181469,37.949584,6506.665574400001,0.641,5.924,356.67,1.0
9.2833,128.181465,37.949633,6506.535424800001,0.385,6.06,356.664,1.0
9.3,128.181462,37.949683,6506.418076800001,0.138,6.195,356.657,1.0
9.3166,128.181459,37.949732,6506.3138352,-0.098,6.33,356.649,1.0
9.3333,128.181456,37.949782,6506.2223952,-0.325,6.465,356.64,1.0
9.35,128.181453,37.949831,6506.143756800001,-0.543,6.599,356.63,1.0
9.3666,128.18145,37.949881,6506.077920000001,-0.751,6.733,356.619,1.0
9.3833,128.181446,37.94993,6506.0251896,-0.952,6.867,356.608,1.0
9.4,128.181443,37.94998,6505.985565600001,-1.145,7.0,356.595,1.0
9.4166,128.18144,37.950029,6505.958438400001,-1.331,7.134,356.582,1.0
9.4333,128.181437,37.950079,6505.944417600001,-1.51,7.267,356.569,1.0
9.45,128.181434,37.950128,6505.9431984,-1.682,7.4,356.555,1.0
9.4666,128.18143,37.950178,6505.9550856000005,-1.849,7.533,356.541,1.0
9.4833,128.181427,37.950227,6505.979469600001,-2.01,7.665,356.526,1.0
9.5,128.181424,37.950277,6506.016960000001,-2.165,7.798,356.511,1.0
9.5166,128.181421,37.950326,6506.067252000001,-2.315,7.93,356.495,1.0
9.5333,128.181418,37.950376,6506.1306504,-2.46,8.062,356.479,1.0
9.55,128.181414,37.950425,6506.2065456,-2.601,8.195,356.462,1.0
9.5666,128.181411,37.950475,6506.2955472,-2.739,8.327,356.445,1.0
9.5833,128.181408,37.950524,6506.397045600001,-2.872,8.459,356.428,1.0
9.6,128.181405,37.950574,6506.511650400001,-3.002,8.591,356.41,1.0
9.6166,128.181401,37.950623,6506.639056800001,-3.128,8.723,356.392,1.0
9.6333,128.181398,37.950673,6506.7792648,-3.252,8.854,356.373,1.0
9.65,128.181395,37.950722,6506.932274400001,-3.373,8.986,356.355,1.0
9.6666,128.181391,37.950771,6507.098085600001,-3.491,9.118,356.335,1.0
9.6833,128.181388,37.950821,6507.2766984,-3.607,9.25,356.316,1.0
9.7,128.181385,37.95087,6507.4681128,-3.72,9.381,356.296,1.0
9.7166,128.181381,37.95092,6507.6723288,-3.831,9.513,356.276,1.0
9.7333,128.181378,37.950969,6507.8890416,-3.94,9.645,356.256,1.0
9.75,128.181375,37.951018,6508.118860800001,-4.047,9.776,356.235,1.0
9.7666,128.181371,37.951068,6508.3611768,-4.152,9.908,356.214,1.0
9.7833,128.181368,37.951117,6508.6162944,-4.256,10.039,356.193,1.0
9.8,128.181365,37.951166,6508.8842136,-4.358,10.171,356.172,1.0
9.8166,128.181361,37.951216,6509.1646296,-4.458,10.302,356.15,1.0
9.8333,128.181358,37.951265,6509.458152000001,-4.557,10.433,356.128,1.0
9.85,128.181354,37.951314,6509.7641711999995,-4.655,10.565,356.106,1.0
9.8666,128.181351,37.951363,6510.082687200001,-4.751,10.696,356.083,1.0
9.8833,128.181347,37.951413,6510.414004800001,-4.845,10.827,356.06,1.0
9.9,128.181344,37.951462,6510.758124000001,-4.939,10.958,356.038,1.0
9.9166,128.181341,37.951511,6511.11474,-5.031,11.09,356.014,1.0
9.9333,128.181337,37.95156,6511.4838528,-5.122,11.221,355.991,1.0
9.95,128.181333,37.95161,6511.8657672,-5.212,11.352,355.967,1.0
9.9666,128.18133,37.951659,6512.260178400001,-5.302,11.483,355.943,1.0
9.9833,128.181326,37.951708,6512.667391200001,-5.39,11.613,355.919,1.0
10.0,128.181323,37.951757,6513.0871008,-5.477,11.744,355.895,1.0
10.0166,128.181319,37.951806,6513.5193072,-5.563,11.875,355.87,1.0
10.0333,128.181316,37.951855,6513.964315200001,-5.649,12.006,355.846,1.0
10.05,128.181312,37.951904,6514.421515200001,-5.733,12.137,355.821,1.0
10.0666,128.181308,37.951953,6514.8915168,-5.816,12.267,355.796,1.0
10.0833,128.181305,37.952003,6515.374015200001,-5.899,12.398,355.77,1.0
10.1,128.181301,37.952052,6515.869010400001,-5.981,12.528,355.745,1.0
10.1166,128.181297,37.952101,6516.3765023999995,-6.062,12.659,355.719,1.0
10.1333,128.181294,37.95215,6516.8964912,-6.142,12.789,355.693,1.0
10.15,128.18129,37.952199,6517.428672,-6.222,12.919,355.667,1.0
10.1666,128.181286,37.952248,6517.973654400001,-6.3,13.05,355.641,1.0
10.1833,128.181283,37.952297,6518.5311336,-6.378,13.18,355.614,1.0
10.2,128.181279,37.952345,6519.1008048,-6.456,13.31,355.587,1.0
10.2166,128.181275,37.952394,6519.6829728,-6.532,13.44,355.561,1.0
10.2333,128.181271,37.952443,6520.277637600001,-6.609,13.57,355.533,1.0
10.25,128.181267,37.952492,6520.8844944,-6.684,13.7,355.506,1.0
10.2666,128.181264,37.952541,6521.503848,-6.759,13.83,355.479,1.0
10.2833,128.18126,37.95259,6522.1356984,-6.833,13.959,355.451,1.0
10.3,128.181256,37.952639,6522.779740800001,-6.907,14.089,355.423,1.0
10.3166,128.181252,37.952687,6523.43628,-6.98,14.219,355.395,1.0
10.3333,128.181248,37.952736,6524.105011200001,-7.053,14.348,355.367,1.0
10.35,128.181244,37.952785,6524.7859344,-7.125,14.478,355.339,1.0
10.3666,128.18124,37.952834,6525.4793544,-7.197,14.607,355.31,1.0
10.3833,128.181236,37.952882,6526.1849664,-7.267,14.737,355.282,1.0
10.4,128.181232,37.952931,6526.9030752,-7.338,14.866,355.253,1.0
10.4166,128.181228,37.95298,6527.6330712,-7.408,14.995,355.224,1.0
10.4333,128.181224,37.953028,6528.375564000001,-7.477,15.124,355.195,1.0
10.45,128.18122,37.953077,6529.1302488,-7.546,15.254,355.166,1.0
10.4666,128.181216,37.953126,6529.8971255999995,-7.614,15.383,355.136,1.0
10.4833,128.181212,37.953174,6530.6761944,-7.682,15.512,355.107,1.0
10.5,128.181208,37.953223,6531.467150400001,-7.749,15.64,355.077,1.0
10.5166,128.181204,37.953271,6532.2706032,-7.816,15.769,355.047,1.0
10.5333,128.1812,37.95332,6533.086248,-7.882,15.898,355.017,1.0
10.55,128.181195,37.953368,6533.91378,-7.948,16.027,354.987,1.0
10.5666,128.181191,37.953417,6534.753504,-8.013,16.155,354.956,1.0
10.5833,128.181187,37.953465,6535.605420000001,-8.078,16.284,354.926,1.0
10.6,128.181183,37.953513,6536.4695280000005,-8.142,16.412,354.895,1.0
10.6166,128.181178,37.953562,6537.345523200001,-8.207,16.541,354.864,1.0
10.6333,128.181174,37.95361,6538.233710400001,-8.27,16.669,354.834,1.0
10.65,128.18117,37.953658,6539.1337848,-8.334,16.797,354.802,1.0
10.6666,128.181166,37.953707,6540.045746400001,-8.397,16.925,354.771,1.0
10.6833,128.181161,37.953755,6540.9699,-8.459,17.054,354.74,1.0
10.7,128.181157,37.953803,6541.9062456,-8.521,17.182,354.708,1.0
10.7166,128.181152,37.953851,6542.854173600001,-8.583,17.31,354.677,1.0
10.7333,128.181148,37.953899,6543.8142935999995,-8.645,17.437,354.645,1.0
10.75,128.181144,37.953947,6544.7863008,-8.706,17.565,354.613,1.0
10.7666,128.181139,37.953996,6545.7705000000005,-8.767,17.693,354.58,1.0
10.7833,128.181135,37.954044,6546.7662816,-8.829,17.821,354.548,1.0
10.8,128.18113,37.954092,6547.7739504,-8.889,17.948,354.516,1.0
10.8166,128.181126,37.95414,6548.793811200001,-8.95,18.076,354.483,1.0
10.8333,128.181121,37.954188,6549.825254400001,-9.01,18.203,354.45,1.0
10.85,128.181116,37.954236,6550.8685848,-9.07,18.331,354.417,1.0
10.8666,128.181112,37.954283,6551.9238024,-9.13,18.458,354.384,1.0
10.8833,128.181107,37.954331,6552.9906024,-9.189,18.585,354.351,1.0
10.9,128.181103,37.954379,6554.0692896,-9.248,18.713,354.318,1.0
10.9166,128.181098,37.954427,6555.159864,-9.307,18.84,354.285,1.0
10.9333,128.181093,37.954475,6556.2623256,-9.365,18.967,354.251,1.0
10.95,128.181088,37.954523,6557.3763696000005,-9.424,19.094,354.217,1.0
10.9666,128.181084,37.95457,6558.501996000001,-9.481,19.221,354.183,1.0
10.9833,128.181079,37.954618,6559.639509600001,-9.539,19.348,354.15,1.0
11.0,128.181074,37.954666,6560.788605600001,-9.596,19.474,354.115,1.0
11.0166,128.181069,37.954713,6561.949284000001,-9.653,19.601,354.081,1.0
11.0333,128.181064,37.954761,6563.1218496,-9.709,19.728,354.047,1.0
11.05,128.18106,37.954808,6564.3059976,-9.766,19.854,354.012,1.0
11.0666,128.181055,37.954856,6565.501728,-9.822,19.981,353.978,1.0
11.0833,128.18105,37.954903,6566.7087360000005,-9.877,20.107,353.943,1.0
11.1,128.181045,37.954951,6567.9276312,-9.933,20.233,353.908,1.0
11.1166,128.18104,37.954998,6569.1581088,-9.988,20.36,353.873,1.0
11.1333,128.181035,37.955046,6570.400168800001,-10.043,20.486,353.838,1.0
11.15,128.18103,37.955093,6571.653506400001,-10.098,20.612,353.802,1.0
11.1666,128.181025,37.95514,6572.9184264000005,-10.152,20.738,353.767,1.0
11.1833,128.18102,37.955187,6574.1949288000005,-10.206,20.864,353.731,1.0
11.2,128.181015,37.955235,6575.4827088,-10.26,20.99,353.696,1.0
11.2166,128.18101,37.955282,6576.7820712,-10.313,21.116,353.66,1.0
11.2333,128.181004,37.955329,6578.093016,-10.367,21.241,353.624,1.0
11.25,128.180999,37.955376,6579.415238400001,-10.42,21.367,353.588,1.0
11.2666,128.180994,37.955423,6580.748738400001,-10.473,21.492,353.552,1.0
11.2833,128.180989,37.95547,6582.093516,-10.525,21.618,353.515,1.0
11.3,128.180984,37.955517,6583.449876,-10.578,21.743,353.479,1.0
11.3166,128.180978,37.955564,6584.8175136,-10.63,21.869,353.442,1.0
11.3333,128.180973,37.955611,6586.196428800001,-10.682,21.994,353.406,1.0
11.35,128.180968,37.955658,6587.5866216,-10.733,22.119,353.369,1.0
11.3666,128.180962,37.955705,6588.9880920000005,-10.785,22.244,353.332,1.0
11.3833,128.180957,37.955752,6590.40084,-10.836,22.369,353.295,1.0
11.4,128.180952,37.955798,6591.8248656000005,-10.887,22.494,353.257,1.0
11.4166,128.180946,37.955845,6593.259864000001,-10.938,22.619,353.22,1.0
11.4333,128.180941,37.955892,6594.7064448,-10.989,22.744,353.183,1.0
11.45,128.180935,37.955938,6596.1639984,-11.04,22.869,353.145,1.0
11.4666,128.18093,37.955985,6597.632524800001,-11.09,22.994,353.107,1.0
11.4833,128.180924,37.956032,6599.112328800001,-11.14,23.118,353.07,1.0
11.5,128.180919,37.956078,6600.603410400001,-11.19,23.243,353.032,1.0
11.5166,128.180913,37.956125,6602.105464800001,-11.24,23.367,352.993,1.0
11.5333,128.180908,37.956171,6603.6184920000005,-11.289,23.491,352.955,1.0
11.55,128.180902,37.956217,6605.142492000001,-11.339,23.616,352.917,1.0
11.5666,128.180896,37.956264,6606.677769600001,-11.388,23.74,352.878,1.0
11.5833,128.180891,37.95631,6608.224020000001,-11.437,23.864,352.84,1.0
11.6,128.180885,37.956356,6609.7812432,-11.486,23.988,352.801,1.0
11.6166,128.180879,37.956402,6611.3491343999995,-11.535,24.112,352.762,1.0
11.6333,128.180873,37.956449,6612.9283032,-11.584,24.236,352.723,1.0
11.65,128.180868,37.956495,6614.5184448,-11.633,24.36,352.684,1.0
11.6666,128.180862,37.956541,6616.1192544000005,-11.681,24.484,352.645,1.0
11.6833,128.180856,37.956587,6617.731036800001,-11.729,24.607,352.606,1.0
11.7,128.18085,37.956633,6619.353792000001,-11.777,24.731,352.566,1.0
11.7166,128.180844,37.956679,6620.987215200001,-11.826,24.855,352.527,1.0
11.7333,128.180838,37.956725,6622.6316112,-11.873,24.978,352.487,1.0
11.75,128.180832,37.956771,6624.2866752,-11.921,25.101,352.447,1.0
11.7666,128.180826,37.956816,6625.952712,-11.969,25.225,352.407,1.0
11.7833,128.18082,37.956862,6627.6294168,-12.017,25.348,352.367,1.0
11.8,128.180814,37.956908,6629.3167896,-12.064,25.471,352.327,1.0
11.8166,128.180808,37.956954,6631.0148304,-12.112,25.594,352.286,1.0
11.8333,128.180802,37.956999,6632.723844,-12.159,25.717,352.246,1.0
11.85,128.180796,37.957045,6634.4432208,-12.206,25.84,352.205,1.0
11.8666,128.18079,37.95709,6636.173570400001,-12.253,25.963,352.165,1.0
11.8833,128.180784,37.957136,6637.914283200001,-12.3,26.086,352.124,1.0
11.9,128.180777,37.957181,6639.665664,-12.347,26.208,352.083,1.0
11.9166,128.180771,37.957227,6641.4277128,-12.394,26.331,352.042,1.0
11.9333,128.180765,37.957272,6643.200124800001,-12.44,26.453,352.0,1.0
11.95,128.180759,37.957317,6644.983204800001,-12.487,26.576,351.959,1.0
11.9666,128.180752,37.957363,6646.7769528,-12.534,26.698,351.918,1.0
11.9833,128.180746,37.957408,6648.581064,-12.58,26.82,351.876,1.0
12.0,128.18074,37.957453,6650.395538400001,-12.627,26.943,351.834,1.0
12.0166,128.180733,37.957498,6652.2206808,-12.673,27.065,351.792,1.0
12.0333,128.180727,37.957543,6654.0561864,-12.719,27.187,351.75,1.0
12.05,128.18072,37.957588,6655.9020552,-12.765,27.309,351.708,1.0
12.0666,128.180714,37.957633,6657.7582872,-12.811,27.431,351.666,1.0
12.0833,128.180707,37.957678,6659.6248824,-12.857,27.553,351.624,1.0
12.1,128.180701,37.957723,6661.5018408000005,-12.902,27.674,351.581,1.0
12.1166,128.180694,37.957768,6663.3891624,-12.948,27.796,351.539,1.0
12.1333,128.180688,37.957812,6665.286847200001,-12.993,27.917,351.496,1.0
12.15,128.180681,37.957857,6667.1948952,-13.038,28.039,351.453,1.0
12.1666,128.180674,37.957902,6669.113001600001,-13.083,28.16,351.41,1.0
12.1833,128.180668,37.957946,6671.0411664,-13.128,28.282,351.367,1.0
12.2,128.180661,37.957991,6672.9796944,-13.172,28.403,351.324,1.0
12.2166,128.180654,37.958035,6674.928585600001,-13.217,28.524,351.281,1.0
12.2333,128.180647,37.95808,6676.8875352000005,-13.261,28.645,351.237,1.0
12.25,128.180641,37.958124,6678.8565432,-13.305,28.766,351.194,1.0
12.2666,128.180634,37.958169,6680.835609600001,-13.349,28.887,351.15,1.0
12.2833,128.180627,37.958213,6682.8250392,-13.393,29.008,351.106,1.0
12.3,128.18062,37.958257,6684.8242224000005,-13.437,29.129,351.062,1.0
12.3166,128.180613,37.958301,6686.833464,-13.48,29.249,351.018,1.0
12.3333,128.180606,37.958346,6688.8530688,-13.524,29.37,350.974,1.0
12.35,128.180599,37.95839,6690.8824272,-13.567,29.49,350.93,1.0
12.3666,128.180592,37.958434,6692.921844,-13.61,29.611,350.886,1.0
12.3833,128.180585,37.958478,6694.971014400001,-13.653,29.731,350.841,1.0
12.4,128.180578,37.958522,6697.0302432,-13.696,29.851,350.796,1.0
12.4166,128.180571,37.958565,6699.0995304,-13.739,29.971,350.752,1.0
12.4333,128.180564,37.958609,6701.1785712,-13.782,30.092,350.707,1.0
12.45,128.180557,37.958653,6703.267365600001,-13.825,30.212,350.662,1.0
12.4666,128.18055,37.958697,6705.3662184,-13.867,30.331,350.617,1.0
12.4833,128.180543,37.95874,6707.4748248000005,-13.91,30.451,350.571,1.0
12.5,128.180536,37.958784,6709.5931848,-13.953,30.571,350.526,1.0
12.5166,128.180528,37.958828,6711.7212984,-13.995,30.691,350.481,1.0
12.5333,128.180521,37.958871,6713.859165600001,-14.037,30.81,350.435,1.0
12.55,128.180514,37.958914,6716.0067864,-14.08,30.93,350.389,1.0
12.5666,128.180507,37.958958,6718.164160800001,-14.122,31.049,350.343,1.0
12.5833,128.180499,37.959001,6720.330984000001,-14.164,31.169,350.297,1.0
12.6,128.180492,37.959044,6722.507560800001,-14.206,31.288,350.251,1.0
12.6166,128.180484,37.959088,6724.6938912000005,-14.249,31.407,350.205,1.0
12.6333,128.180477,37.959131,6726.889670400001,-14.291,31.526,350.158,1.0
12.65,128.18047,37.959174,6729.0952032,-14.333,31.645,350.112,1.0
12.6666,128.180462,37.959217,6731.3101848,-14.375,31.764,350.065,1.0
12.6833,128.180455,37.95926,6733.534615200001,-14.417,31.883,350.019,1.0
12.7,128.180447,37.959303,6735.7687992,-14.459,32.002,349.972,1.0
12.7166,128.18044,37.959346,6738.012127200001,-14.501,32.12,349.925,1.0
12.7333,128.180432,37.959388,6740.2652088,-14.543,32.239,349.877,1.0
12.75,128.180424,37.959431,6742.5277392,-14.585,32.357,349.83,1.0
12.7666,128.180417,37.959474,6744.799413600001,-14.627,32.476,349.783,1.0
12.7833,128.180409,37.959516,6747.0805368,-14.669,32.594,349.735,1.0
12.8,128.180401,37.959559,6749.3711088,-14.711,32.712,349.687,1.0
12.8166,128.180394,37.959602,6751.671129599999,-14.753,32.831,349.64,1.0
12.8333,128.180386,37.959644,6753.9802944,-14.795,32.949,349.592,1.0
12.85,128.180378,37.959686,6756.298908,-14.837,33.067,349.544,1.0
12.8666,128.18037,37.959729,6758.626665600001,-14.879,33.185,349.495,1.0
12.8833,128.180362,37.959771,6760.963872,-14.921,33.302,349.447,1.0
12.9,128.180355,37.959813,6763.3099176000005,-14.963,33.42,349.398,1.0
12.9166,128.180347,37.959855,6765.665412,-15.005,33.538,349.35,1.0
12.9333,128.180339,37.959897,6768.030050400001,-15.047,33.655,349.301,1.0
12.95,128.180331,37.95994,6770.403832800001,-15.089,33.773,349.252,1.0
12.9666,128.180323,37.959981,6772.7867592,-15.131,33.89,349.203,1.0
12.9833,128.180315,37.960023,6775.1788295999995,-15.173,34.008,349.154,1.0
13.0,128.180307,37.960065,6777.580044,-15.215,34.125,349.105,1.0
13.0166,128.180299,37.960107,6779.990097600001,-15.258,34.242,349.055,1.0
13.0333,128.180291,37.960149,6782.4092952,-15.3,34.359,349.005,1.0
13.0499,128.180283,37.96019,6784.837332,-15.342,34.476,348.956,1.0
13.0666,128.180275,37.960232,6787.2745128,-15.385,34.593,348.906,1.0
13.0833,128.180266,37.960274,6789.720532800001,-15.427,34.71,348.856,1.0
13.1,128.180258,37.960315,6792.175696800001,-15.47,34.826,348.805,1.0
13.1166,128.18025,37.960357,6794.6393952,-15.512,34.943,348.755,1.0
13.1333,128.180242,37.960398,6797.1122376,-15.555,35.059,348.705,1.0
13.15,128.180233,37.960439,6799.5939192000005,-15.598,35.176,348.654,1.0
13.1666,128.180225,37.96048,6802.0844400000005,-15.641,35.292,348.603,1.0
13.1833,128.180217,37.960522,6804.5838,-15.683,35.408,348.552,1.0
13.2,128.180208,37.960563,6807.0916944,-15.726,35.525,348.501,1.0
13.2166,128.1802,37.960604,6809.6087328,-15.769,35.641,348.45,1.0
13.2333,128.180192,37.960645,6812.1343056000005,-15.812,35.757,348.399,1.0
13.25,128.180183,37.960686,6814.6684128,-15.855,35.872,348.347,1.0
13.2666,128.180175,37.960727,6817.2113592000005,-15.899,35.988,348.295,1.0
13.2833,128.180166,37.960767,6819.76284,-15.942,36.104,348.243,1.0
13.3,128.180158,37.960808,6822.323160000001,-15.986,36.22,348.191,1.0
13.3166,128.180149,37.960849,6824.8920144,-16.029,36.335,348.139,1.0
13.3333,128.180141,37.960889,6827.4694032,-16.073,36.45,348.087,1.0
13.35,128.180132,37.96093,6830.0553264,-16.117,36.566,348.034,1.0
13.3666,128.180124,37.96097,6832.649784000001,-16.161,36.681,347.982,1.0
13.3833,128.180115,37.961011,6835.2530808,-16.205,36.796,347.929,1.0
13.4,128.180106,37.961051,6837.8643024,-16.249,36.911,347.876,1.0
13.4166,128.180098,37.961091,6840.4843632,-16.293,37.026,347.823,1.0
13.4333,128.180089,37.961132,6843.1126536,-16.337,37.141,347.77,1.0
13.45,128.18008,37.961172,6845.749478400001,-16.382,37.256,347.716,1.0
13.4666,128.180071,37.961212,6848.394837600001,-16.427,37.37,347.663,1.0
13.4833,128.180062,37.961252,6851.0481216,-16.471,37.485,347.609,1.0
13.5,128.180054,37.961292,6853.70994,-16.516,37.6,347.555,1.0
13.5166,128.180045,37.961332,6856.3802928000005,-16.561,37.714,347.501,1.0
13.5333,128.180036,37.961372,6859.0585704000005,-16.606,37.828,347.446,1.0
13.55,128.180027,37.961411,6861.7453824,-16.651,37.942,347.392,1.0
13.5666,128.180018,37.961451,6864.440424,-16.697,38.057,347.337,1.0
13.5833,128.180009,37.961491,6867.1433904000005,-16.742,38.171,347.283,1.0
13.6,128.18,37.96153,6869.854586400001,-16.787,38.284,347.228,1.0
13.6166,128.179991,37.96157,6872.574012,-16.833,38.398,347.173,1.0
13.6333,128.179982,37.961609,6875.3016672,-16.879,38.512,347.117,1.0
13.65,128.179973,37.961649,6878.037552000001,-16.925,38.626,347.062,1.0
13.6666,128.179964,37.961688,6880.7810568,-16.971,38.739,347.006,1.0
13.6833,128.179955,37.961727,6883.533096,-17.017,38.852,346.95,1.0
13.7,128.179946,37.961766,6886.2927552,-17.063,38.966,346.894,1.0
13.7166,128.179937,37.961805,6889.060644,-17.11,39.079,346.838,1.0
13.7333,128.179927,37.961844,6891.8364576,-17.156,39.192,346.782,1.0
13.75,128.179918,37.961883,6894.620196000001,-17.203,39.305,346.725,1.0
13.7666,128.179909,37.961922,6897.412164,-17.25,39.419,346.668,1.0
13.7833,128.1799,37.961961,6900.211752000001,-17.298,39.533,346.611,1.0
13.8,128.17989,37.962,6903.0192648,-17.345,39.647,346.553,1.0
13.8166,128.179881,37.962039,6905.834397600001,-17.393,39.761,346.495,1.0
13.8333,128.179872,37.962077,6908.657760000001,-17.441,39.876,346.437,1.0
13.85,128.179862,37.962116,6911.488742400001,-17.489,39.992,346.378,1.0
13.8666,128.179853,37.962154,6914.3273448,-17.538,40.108,346.319,1.0
13.8833,128.179844,37.962193,6917.173872,-17.587,40.224,346.259,1.0
13.9,128.179834,37.962231,6920.028324000001,-17.637,40.34,346.199,1.0
13.9166,128.179825,37.962269,6922.890396000001,-17.686,40.457,346.138,1.0
13.9333,128.179815,37.962307,6925.760088000001,-17.736,40.575,346.077,1.0
13.95,128.179806,37.962346,6928.6374000000005,-17.787,40.692,346.016,1.0
13.9666,128.179796,37.962384,6931.5226368,-17.837,40.81,345.954,1.0
13.9833,128.179786,37.962422,6934.4154935999995,-17.888,40.928,345.892,1.0
14.0,128.179777,37.96246,6937.315665600001,-17.939,41.047,345.83,1.0
14.0166,128.179767,37.962497,6940.2237624,-17.991,41.165,345.767,1.0
14.0333,128.179758,37.962535,6943.139479200001,-18.042,41.284,345.704,1.0
14.05,128.179748,37.962573,6946.062511200001,-18.094,41.403,345.64,1.0
14.0666,128.179738,37.962611,6948.9931632,-18.147,41.522,345.577,1.0
14.0833,128.179729,37.962648,6951.9314352,-18.199,41.641,345.513,1.0
14.1,128.179719,37.962686,6954.877327200001,-18.252,41.761,345.448,1.0
14.1166,128.179709,37.962723,6957.8305344,-18.305,41.88,345.383,1.0
14.1333,128.179699,37.962761,6960.7913616,-18.359,42.0,345.318,1.0
14.15,128.179689,37.962798,6963.759504000001,-18.412,42.119,345.253,1.0
14.1666,128.17968,37.962835,6966.7352664,-18.466,42.239,345.187,1.0
14.1833,128.17967,37.962872,6969.718344,-18.521,42.359,345.121,1.0
14.2,128.17966,37.962909,6972.7087368,-18.575,42.479,345.054,1.0
14.2166,128.17965,37.962946,6975.7067496,-18.63,42.598,344.988,1.0
14.2333,128.17964,37.962983,6978.7117728,-18.685,42.718,344.92,1.0
14.25,128.17963,37.96302,6981.724416,-18.741,42.838,344.853,1.0
14.2666,128.17962,37.963057,6984.744374400001,-18.796,42.958,344.785,1.0
14.2833,128.17961,37.963094,6987.771648,-18.852,43.078,344.717,1.0
14.3,128.1796,37.96313,6990.8062368,-18.909,43.198,344.649,1.0
14.3166,128.17959,37.963167,6993.847836,-18.965,43.318,344.58,1.0
14.3333,128.17958,37.963203,6996.8970552,-19.022,43.438,344.511,1.0
14.35,128.17957,37.96324,6999.9532848,-19.08,43.559,344.441,1.0
14.3666,128.17956,37.963276,7003.016524800001,-19.137,43.679,344.372,1.0
14.3833,128.179549,37.963313,7006.0873848,-19.195,43.799,344.302,1.0
14.4,128.179539,37.963349,7009.1652552000005,-19.253,43.919,344.231,1.0
14.4166,128.179529,37.963385,7012.250136000001,-19.312,44.039,344.16,1.0
14.4333,128.179519,37.963421,7015.342332,-19.371,44.16,344.089,1.0
14.45,128.179508,37.963457,7018.441538400001,-19.43,44.28,344.018,1.0
14.4666,128.179498,37.963493,7021.548060000001,-19.489,44.4,343.946,1.0
14.4833,128.179488,37.963529,7024.6612872000005,-19.549,44.52,343.873,1.0
14.5,128.179478,37.963564,7027.7818296,-19.609,44.641,343.801,1.0
14.5166,128.179467,37.9636,7030.9093824,-19.67,44.761,343.728,1.0
14.5333,128.179457,37.963636,7034.0439456,-19.731,44.881,343.654,1.0
14.55,128.179446,37.963671,7037.1855192,-19.792,45.002,343.581,1.0
14.5666,128.179436,37.963707,7040.3341032,-19.854,45.122,343.507,1.0
14.5833,128.179426,37.963742,7043.489392800001,-19.915,45.243,343.432,1.0
14.6,128.179415,37.963778,7046.651997600001,-19.978,45.363,343.357,1.0
14.6166,128.179405,37.963813,7049.8213080000005,-20.04,45.483,343.282,1.0
14.6333,128.179394,37.963848,7052.997628800001,-20.103,45.604,343.207,1.0
14.65,128.179383,37.963883,7056.180655200001,-20.167,45.724,343.13,1.0
14.6666,128.179373,37.963918,7059.370692,-20.231,45.845,343.054,1.0
14.6833,128.179362,37.963953,7062.5677392,-20.295,45.965,342.977,1.0
14.7,128.179352,37.963988,7065.771187200001,-20.359,46.086,342.9,1.0
14.7166,128.179341,37.964023,7068.981645600001,-20.424,46.206,342.822,1.0
