Time,Longitude,Latitude,Altitude,Roll (deg),Pitch (deg),Yaw (deg),Health
0.0,128.181881,37.968463,7002.830292000001,0.0,-0.003,179.999,1.0
0.0166,128.181881,37.968418,7002.8116992000005,0.0,-0.012,180.0,1.0
0.0333,128.181881,37.968374,7002.793411200001,-0.087,-0.025,179.988,1.0
0.05,128.181881,37.968329,7002.775428000001,-0.258,-0.041,179.965,1.0
0.0666,128.181881,37.968284,7002.7577496,-0.516,-0.059,179.935,1.0
0.0833,128.181881,37.968239,7002.7409856,-0.864,-0.077,179.902,1.0
0.1,128.181881,37.968194,7002.725745600001,-1.3,-0.096,179.867,1.0
0.1166,128.181881,37.968149,7002.712029599999,-1.824,-0.114,179.832,1.0
0.1333,128.181881,37.968104,7002.700142400001,-2.432,-0.132,179.798,1.0
0.15,128.181881,37.968059,7002.6903888,-3.122,-0.15,179.764,1.0
0.1666,128.181881,37.968014,7002.683378400001,-3.891,-0.166,179.732,1.0
0.1833,128.181881,37.967969,7002.677892000001,-4.734,-0.182,179.7,1.0
0.2,128.181881,37.967924,7002.674844,-5.65,-0.198,179.67,1.0
0.2166,128.181881,37.967879,7002.6739296,-6.634,-0.212,179.64,1.0
0.2333,128.181881,37.967834,7002.674844,-7.684,-0.227,179.612,1.0
0.25,128.181881,37.967789,7002.677587200001,-8.797,-0.24,179.584,1.0
0.2666,128.181881,37.967744,7002.682464,-9.971,-0.25,179.557,1.0
0.2833,128.181881,37.967699,7002.689474400001,-11.201,-0.253,179.529,1.0
0.3,128.181881,37.967654,7002.6983136,-12.487,-0.249,179.501,1.0
0.3166,128.181881,37.967609,7002.709286400001,-13.826,-0.235,179.471,1.0
0.3333,128.181881,37.967564,7002.722088,-15.214,-0.212,179.439,1.0
0.35,128.181881,37.967519,7002.7370232,-16.651,-0.178,179.405,1.0
0.3666,128.181881,37.967474,7002.754396800001,-18.132,-0.133,179.367,1.0
0.3833,128.181882,37.967429,7002.7735992,-19.657,-0.078,179.326,1.0
0.4,128.181882,37.967384,7002.7949352000005,-21.222,-0.014,179.281,1.0
0.4166,128.181882,37.967339,7002.8187096,-22.826,0.06,179.23,1.0
0.4333,128.181882,37.967294,7002.8449224000005,-24.466,0.143,179.175,1.0
0.45,128.181882,37.967249,7002.873268800001,-26.14,0.234,179.113,1.0
0.4666,128.181883,37.967204,7002.9043584,-27.846,0.333,179.046,1.0
0.4833,128.181883,37.967159,7002.9378864,-29.582,0.438,178.971,1.0
0.5,128.181883,37.967114,7002.9741576,-31.347,0.549,178.891,1.0
0.5166,128.181884,37.967069,7003.0128672,-33.139,0.665,178.802,1.0
0.5333,128.181884,37.967024,7003.054624800001,-34.958,0.785,178.707,1.0
0.55,128.181884,37.966979,7003.0988208,-36.801,0.907,178.605,1.0
0.5666,128.181885,37.966934,7003.14576,-38.668,1.031,178.495,1.0
0.5833,128.181885,37.966889,7003.1957472,-40.559,1.156,178.379,1.0
0.6,128.181886,37.966844,7003.2484776,-42.472,1.28,178.255,1.0
0.6166,128.181887,37.966799,7003.303646400001,-44.408,1.404,178.123,1.0
0.6333,128.181887,37.966754,7003.361863200001,-46.364,1.526,177.985,1.0
0.65,128.181888,37.966709,7003.4228232000005,-48.342,1.646,177.839,1.0
0.6666,128.181889,37.966664,7003.4862216,-50.341,1.764,177.685,1.0
0.6833,128.18189,37.966619,7003.5523632,-52.361,1.878,177.524,1.0
0.7,128.181891,37.966574,7003.6209432,-54.401,1.989,177.355,1.0
0.7166,128.181892,37.966529,7003.6919616,-56.459,2.096,177.178,1.0
0.7333,128.181893,37.966484,7003.764504000001,-58.528,2.2,176.994,1.0
0.75,128.181894,37.966439,7003.838570400001,-60.599,2.299,176.802,1.0
0.7666,128.181896,37.966394,7003.914160800001,-62.665,2.394,176.603,1.0
0.7833,128.181897,37.966349,7003.990970400001,-64.719,2.484,176.396,1.0
0.8,128.181898,37.966304,7004.0686944,-66.756,2.569,176.183,1.0
0.8166,128.1819,37.966259,7004.1467232,-68.771,2.649,175.962,1.0
0.8333,128.181902,37.966214,7004.2256664,-70.758,2.722,175.734,1.0
0.85,128.181903,37.966169,7004.304609600001,-72.715,2.788,175.499,1.0
0.8666,128.181905,37.966124,7004.3838576,-74.639,2.847,175.258,1.0
0.8833,128.181907,37.966079,7004.462800800001,-76.527,2.898,175.011,1.0
0.9,128.181909,37.966034,7004.5414392,-78.378,2.941,174.759,1.0
0.9166,128.181911,37.965989,7004.619468,-80.19,2.975,174.501,1.0
0.9333,128.181913,37.965944,7004.696582400001,-81.964,3.0,174.24,1.0
0.95,128.181915,37.965899,7004.7730872,-83.697,3.015,173.977,1.0
0.9666,128.181918,37.965854,7004.848068,-85.391,3.021,173.714,1.0
0.9833,128.18192,37.965809,7004.9218296,-87.045,3.017,173.453,1.0
1.0,128.181923,37.965764,7004.9940672,-88.66,3.003,173.194,1.0
1.0166,128.181925,37.965719,7005.0644760000005,-90.235,2.98,172.94,1.0
1.0333,128.181928,37.965674,7005.132751200001,-91.772,2.948,172.689,1.0
1.05,128.181931,37.965629,7005.198892800001,-93.269,2.907,172.443,1.0
1.0666,128.181934,37.965584,7005.2625960000005,-94.727,2.858,172.201,1.0
1.0833,128.181936,37.965539,7005.323556,-96.146,2.801,171.964,1.0
1.1,128.18194,37.965494,7005.3817728,-97.526,2.736,171.731,1.0
1.1166,128.181943,37.965449,7005.436941600001,-98.866,2.665,171.502,1.0
1.1333,128.181946,37.965404,7005.4890624,-100.167,2.586,171.278,1.0
1.15,128.181949,37.965359,7005.5375256,-101.428,2.501,171.058,1.0
1.1666,128.181953,37.965314,7005.5823312,-102.649,2.41,170.841,1.0
1.1833,128.181957,37.965269,7005.6234792000005,-103.831,2.313,170.629,1.0
1.2,128.18196,37.965224,7005.6609696000005,-104.972,2.211,170.42,1.0
1.2166,128.181964,37.965179,7005.693888000001,-106.074,2.104,170.215,1.0
1.2333,128.181968,37.965134,7005.722844,-107.136,1.991,170.014,1.0
1.25,128.181972,37.965089,7005.747532800001,-108.16,1.874,169.817,1.0
1.2666,128.181976,37.965044,7005.7673448000005,-109.145,1.753,169.624,1.0
1.2833,128.18198,37.964999,7005.7825848,-110.092,1.628,169.435,1.0
1.3,128.181984,37.964954,7005.792948,-111.002,1.5,169.251,1.0
1.3166,128.181989,37.964909,7005.7984344,-111.876,1.368,169.071,1.0
1.3333,128.181993,37.964864,7005.7987391999995,-112.716,1.234,168.897,1.0
1.35,128.181998,37.964819,7005.7938624,-113.522,1.097,168.729,1.0
1.3666,128.182002,37.964774,7005.7834992,-114.296,0.959,168.567,1.0
1.3833,128.182007,37.964728,7005.7676496,-115.038,0.819,168.411,1.0
1.4,128.182012,37.964683,7005.746008800001,-115.75,0.678,168.26,1.0
1.4166,128.182017,37.964638,7005.718881600001,-116.432,0.536,168.116,1.0
1.4333,128.182022,37.964593,7005.6856584,-117.153,0.39,167.98,1.0
1.45,128.182027,37.964548,7005.6457296,-117.906,0.24,167.851,1.0
1.4666,128.182033,37.964503,7005.5990952,-118.682,0.089,167.729,1.0
1.4833,128.182038,37.964458,7005.545450400001,-119.469,-0.062,167.612,1.0
1.5,128.182043,37.964413,7005.485404800001,-120.256,-0.213,167.499,1.0
1.5166,128.182049,37.964369,7005.4186536,-121.033,-0.364,167.39,1.0
1.5333,128.182055,37.964324,7005.345501600001,-121.788,-0.513,167.284,1.0
1.55,128.18206,37.964279,7005.265644,-122.514,-0.663,167.18,1.0
1.5666,128.182066,37.964234,7005.1793856,-123.205,-0.812,167.078,1.0
1.5833,128.182072,37.964189,7005.0867264,-123.857,-0.96,166.977,1.0
1.6,128.182078,37.964144,7004.9873615999995,-124.466,-1.109,166.879,1.0
1.6166,128.182084,37.964099,7004.8812912,-125.034,-1.257,166.782,1.0
1.6333,128.182091,37.964054,7004.7685152,-125.561,-1.405,166.687,1.0
1.65,128.182097,37.964009,7004.649033600001,-126.05,-1.553,166.594,1.0
1.6666,128.182103,37.963964,7004.5225416,-126.502,-1.7,166.504,1.0
1.6833,128.18211,37.963919,7004.3887343999995,-126.922,-1.847,166.415,1.0
1.7,128.182116,37.963874,7004.2479168,-127.314,-1.992,166.332,1.0
1.7166,128.182123,37.963829,7004.099784000001,-127.681,-2.133,166.254,1.0
1.7333,128.18213,37.963784,7003.9446408,-128.024,-2.269,166.184,1.0
1.75,128.182136,37.963739,7003.7818776,-128.343,-2.4,166.122,1.0
1.7666,128.182143,37.963694,7003.612104,-128.636,-2.523,166.069,1.0
1.7833,128.18215,37.963649,7003.4353200000005,-128.904,-2.637,166.022,1.0
1.8,128.182157,37.963604,7003.2515256,-129.143,-2.742,165.98,1.0
1.8166,128.182164,37.963559,7003.060416,-129.35,-2.838,165.942,1.0
1.8333,128.182171,37.963514,7002.862905600001,-129.517,-2.926,165.908,1.0
1.85,128.182179,37.963469,7002.6586896,-129.642,-3.007,165.878,1.0
1.8666,128.182186,37.963424,7002.448072800001,-129.719,-3.084,165.85,1.0
1.8833,128.182193,37.963379,7002.2307504,-129.749,-3.157,165.824,1.0
1.9,128.182201,37.963334,7002.0067224,-129.731,-3.228,165.799,1.0
1.9166,128.182208,37.96329,7001.7762936,-129.669,-3.296,165.775,1.0
1.9333,128.182216,37.963245,7001.5391592000005,-129.563,-3.364,165.75,1.0
1.95,128.182223,37.9632,7001.2953192,-129.42,-3.432,165.725,1.0
1.9666,128.182231,37.963155,7001.044773600001,-129.24,-3.5,165.699,1.0
1.9833,128.182239,37.96311,7000.7875224,-129.031,-3.569,165.671,1.0
2.0,128.182247,37.963065,7000.5235656,-128.796,-3.638,165.641,1.0
2.0166,128.182255,37.96302,7000.2525984,-128.539,-3.709,165.61,1.0
2.0333,128.182263,37.962975,6999.9746208,-128.264,-3.781,165.576,1.0
2.05,128.182271,37.96293,6999.689937600001,-127.975,-3.853,165.541,1.0
2.0666,128.182279,37.962885,6999.3979392,-127.676,-3.927,165.503,1.0
2.0833,128.182287,37.96284,6999.0989304,-127.369,-4.001,165.463,1.0
2.1,128.182295,37.962795,6998.793216,-127.058,-4.076,165.422,1.0
2.1166,128.182304,37.96275,6998.4801864,-126.745,-4.152,165.378,1.0
2.1333,128.182312,37.962705,6998.1601464000005,-126.432,-4.228,165.333,1.0
2.15,128.182321,37.962661,6997.833096,-126.12,-4.304,165.286,1.0
2.1666,128.18233,37.962616,6997.4987304,-125.812,-4.38,165.238,1.0
2.1833,128.182338,37.962571,6997.1576592,-125.509,-4.456,165.188,1.0
2.2,128.182347,37.962526,6996.8092728,-125.213,-4.532,165.136,1.0
2.2166,128.182356,37.962481,6996.4538760000005,-124.925,-4.608,165.084,1.0
2.2333,128.182365,37.962436,6996.091164,-124.645,-4.684,165.031,1.0
2.25,128.182374,37.962391,6995.721441600001,-124.376,-4.76,164.976,1.0
2.2666,128.182383,37.962346,6995.3450136,-124.116,-4.835,164.921,1.0
2.2833,128.182392,37.962302,6994.961270400001,-123.868,-4.91,164.864,1.0
2.3,128.182401,37.962257,6994.5705168,-123.63,-4.984,164.807,1.0
2.3166,128.182411,37.962212,6994.1727528,-123.406,-5.058,164.75,1.0
2.3333,128.18242,37.962167,6993.7679784,-123.193,-5.132,164.692,1.0
2.35,128.18243,37.962122,6993.3561936,-122.994,-5.205,164.633,1.0
2.3666,128.182439,37.962078,6992.9373984,-122.807,-5.278,164.573,1.0
2.3833,128.182449,37.962033,6992.5115928000005,-122.634,-5.35,164.514,1.0
2.4,128.182459,37.961988,6992.0787768,-122.473,-5.422,164.453,1.0
2.4166,128.182469,37.961943,6991.639255200001,-122.327,-5.494,164.393,1.0
2.4333,128.182479,37.961898,6991.192723200001,-122.194,-5.566,164.331,1.0
2.45,128.182489,37.961854,6990.7391808,-122.075,-5.637,164.27,1.0
2.4666,128.182499,37.961809,6990.278628000001,-121.97,-5.708,164.208,1.0
2.4833,128.182509,37.961764,6989.811369600001,-121.878,-5.779,164.147,1.0
2.5,128.18252,37.961719,6989.3371008,-121.801,-5.85,164.084,1.0
2.5166,128.18253,37.961675,6988.8561264,-121.736,-5.92,164.022,1.0
2.5333,128.182541,37.96163,6988.368141600001,-121.684,-5.99,163.96,1.0
2.55,128.182551,37.961585,6987.873451200001,-121.646,-6.06,163.897,1.0
2.5666,128.182562,37.961541,6987.371750400001,-121.619,-6.13,163.834,1.0
2.5833,128.182573,37.961496,6986.863344,-121.605,-6.2,163.772,1.0
2.6,128.182583,37.961451,6986.348232,-121.603,-6.27,163.709,1.0
2.6166,128.182594,37.961407,6985.8264144,-121.612,-6.34,163.646,1.0
2.6333,128.182605,37.961362,6985.2975864,-121.632,-6.41,163.583,1.0
2.65,128.182616,37.961317,6984.7620528,-121.662,-6.479,163.52,1.0
2.6666,128.182628,37.961273,6984.2201184000005,-121.702,-6.549,163.458,1.0
2.6833,128.182639,37.961228,6983.671173600001,-121.752,-6.619,163.395,1.0
2.7,128.18265,37.961184,6983.1155232,-121.812,-6.688,163.333,1.0
2.7166,128.182662,37.961139,6982.5531672,-121.879,-6.757,163.271,1.0
2.7333,128.182673,37.961094,6981.9844104,-121.947,-6.825,163.212,1.0
2.75,128.182685,37.96105,6981.4095576,-122.011,-6.888,163.157,1.0
2.7666,128.182696,37.961005,6980.828304000001,-122.06,-6.947,163.107,1.0
2.7833,128.182708,37.960961,6980.2412592,-122.085,-7.001,163.062,1.0
2.8,128.18272,37.960916,6979.648728,-122.073,-7.048,163.023,1.0
2.8166,128.182732,37.960872,6979.050710400001,-122.011,-7.09,162.99,1.0
2.8333,128.182743,37.960827,6978.447206400001,-121.888,-7.126,162.961,1.0
2.85,128.182755,37.960782,6977.8385208,-121.695,-7.156,162.936,1.0
2.8666,128.182767,37.960738,6977.2246536,-121.498,-7.185,162.918,1.0
2.8833,128.182779,37.960693,6976.6049952,-121.298,-7.214,162.904,1.0
2.9,128.182792,37.960649,6975.9795456,-121.095,-7.243,162.893,1.0
2.9166,128.182804,37.960604,6975.348304800001,-120.886,-7.271,162.884,1.0
2.9333,128.182816,37.96056,6974.710968,-120.669,-7.299,162.876,1.0
2.95,128.182828,37.960515,6974.0681448000005,-120.439,-7.326,162.867,1.0
2.9666,128.182841,37.960471,6973.4198352,-120.196,-7.352,162.858,1.0
2.9833,128.182853,37.960426,6972.7660392,-119.936,-7.377,162.847,1.0
3.0,128.182866,37.960382,6972.106756800001,-119.658,-7.403,162.834,1.0
3.0166,128.182878,37.960337,6971.4422928,-119.36,-7.428,162.82,1.0
3.0333,128.182891,37.960293,6970.7723424000005,-119.041,-7.453,162.803,1.0
3.05,128.182904,37.960248,6970.0972104,-118.702,-7.479,162.784,1.0
3.0666,128.182916,37.960204,6969.4168968,-118.342,-7.504,162.764,1.0
3.0833,128.182929,37.960159,6968.731401600001,-117.961,-7.53,162.741,1.0
3.1,128.182942,37.960115,6968.040724800001,-117.56,-7.555,162.717,1.0
3.1166,128.182955,37.96007,6967.3451712,-117.139,-7.581,162.692,1.0
3.1333,128.182968,37.960026,6966.6447408,-116.7,-7.607,162.664,1.0
3.15,128.182981,37.959981,6965.939128800001,-116.242,-7.632,162.636,1.0
3.1666,128.182994,37.959937,6965.22864,-115.767,-7.658,162.605,1.0
3.1833,128.183007,37.959892,6964.513274400001,-115.275,-7.683,162.574,1.0
3.2,128.183021,37.959848,6963.7930320000005,-114.767,-7.708,162.542,1.0
3.2166,128.183034,37.959803,6963.0679128,-114.244,-7.733,162.509,1.0
3.2333,128.183047,37.959759,6962.3382216,-113.708,-7.757,162.475,1.0
3.25,128.183061,37.959714,6961.6039584,-113.159,-7.781,162.44,1.0
3.2666,128.183074,37.95967,6960.8648184,-112.598,-7.804,162.404,1.0
3.2833,128.183088,37.959625,6960.121106400001,-112.026,-7.828,162.367,1.0
3.3,128.183101,37.959581,6959.3725176,-111.444,-7.85,162.33,1.0
3.3166,128.183115,37.959536,6958.6196616,-110.854,-7.873,162.292,1.0
3.3333,128.183129,37.959492,6957.862233600001,-110.255,-7.895,162.253,1.0
3.35,128.183143,37.959448,6957.100538400001,-109.65,-7.916,162.213,1.0
3.3666,128.183157,37.959403,6956.3342712,-109.038,-7.937,162.173,1.0
3.3833,128.18317,37.959359,6955.563432000001,-108.421,-7.957,162.132,1.0
3.4,128.183184,37.959314,6954.7886304,-107.8,-7.977,162.091,1.0
3.4166,128.183199,37.95927,6954.009256800001,-107.176,-7.996,162.048,1.0
3.4333,128.183213,37.959225,6953.2259208,-106.55,-8.015,162.005,1.0
3.45,128.183227,37.959181,6952.4383176,-105.922,-8.033,161.962,1.0
3.4666,128.183241,37.959137,6951.646447200001,-105.294,-8.051,161.917,1.0
3.4833,128.183255,37.959092,6950.8506144,-104.666,-8.069,161.872,1.0
3.5,128.18327,37.959048,6950.050819200001,-104.039,-8.086,161.826,1.0
3.5166,128.183284,37.959003,6949.2470616,-103.413,-8.102,161.78,1.0
3.5333,128.183299,37.958959,6948.4393416,-102.788,-8.118,161.733,1.0
3.55,128.183313,37.958915,6947.627964,-102.165,-8.133,161.687,1.0
3.5666,128.183328,37.95887,6946.812624000001,-101.546,-8.147,161.639,1.0
3.5833,128.183343,37.958826,6945.9933216,-100.929,-8.161,161.592,1.0
3.6,128.183358,37.958781,6945.1706664,-100.316,-8.174,161.543,1.0
3.6166,128.183372,37.958737,6944.3443536,-99.708,-8.187,161.495,1.0
3.6333,128.183387,37.958693,6943.5143832,-99.104,-8.199,161.446,1.0
3.65,128.183402,37.958648,6942.680755200001,-98.506,-8.211,161.396,1.0
3.6666,128.183417,37.958604,6941.843774400001,-97.913,-8.222,161.346,1.0
3.6833,128.183433,37.95856,6941.0034408,-97.327,-8.233,161.296,1.0
3.7,128.183448,37.958515,6940.159754400001,-96.746,-8.243,161.245,1.0
3.7166,128.183463,37.958471,6939.3130200000005,-96.173,-8.253,161.194,1.0
3.7333,128.183478,37.958427,6938.462628,-95.606,-8.262,161.143,1.0
3.75,128.183494,37.958382,6937.609188,-95.046,-8.27,161.092,1.0
3.7666,128.183509,37.958338,6936.7527,-94.494,-8.278,161.04,1.0
3.7833,128.183525,37.958294,6935.893164,-93.949,-8.286,160.988,1.0
3.8,128.18354,37.95825,6935.03058,-93.411,-8.293,160.936,1.0
3.8166,128.183556,37.958205,6934.164948,-92.882,-8.299,160.884,1.0
3.8333,128.183572,37.958161,6933.2965728,-92.36,-8.305,160.832,1.0
3.85,128.183588,37.958117,6932.4254544000005,-91.846,-8.311,160.78,1.0
3.8666,128.183604,37.958073,6931.551288000001,-91.34,-8.316,160.728,1.0
3.8833,128.18362,37.958028,6930.674378400001,-90.841,-8.321,160.676,1.0
3.9,128.183636,37.957984,6929.7950304,-90.35,-8.325,160.624,1.0
3.9166,128.183652,37.95794,6928.9126344,-89.867,-8.329,160.573,1.0
3.9333,128.183668,37.957896,6928.028104800001,-89.39,-8.332,160.523,1.0
3.95,128.183684,37.957851,6927.140832,-88.921,-8.335,160.472,1.0
3.9666,128.183701,37.957807,6926.2511208,-88.46,-8.338,160.422,1.0
3.9833,128.183717,37.957763,6925.3589712,-88.007,-8.34,160.371,1.0
4.0,128.183734,37.957719,6924.464383200001,-87.563,-8.342,160.321,1.0
4.0166,128.18375,37.957674,6923.567356800001,-87.129,-8.344,160.27,1.0
4.0333,128.183767,37.95763,6922.6681968,-86.703,-8.346,160.218,1.0
4.05,128.183783,37.957586,6921.7669032,-86.287,-8.347,160.167,1.0
4.0666,128.1838,37.957542,6920.8631712,-85.881,-8.348,160.115,1.0
4.0833,128.183817,37.957498,6919.957305600001,-85.485,-8.349,160.063,1.0
4.1,128.183834,37.957454,6919.049611200001,-85.098,-8.349,160.01,1.0
4.1166,128.183851,37.957409,6918.1394784,-84.721,-8.35,159.958,1.0
4.1333,128.183868,37.957365,6917.2275168,-84.352,-8.35,159.906,1.0
4.15,128.183885,37.957321,6916.3137264,-83.992,-8.349,159.855,1.0
4.1666,128.183902,37.957277,6915.3978024,-83.641,-8.349,159.803,1.0
4.1833,128.18392,37.957233,6914.4800496,-83.298,-8.348,159.751,1.0
4.2,128.183937,37.957189,6913.5601632,-82.965,-8.347,159.698,1.0
4.2166,128.183954,37.957145,6912.6387528,-82.641,-8.346,159.646,1.0
4.2333,128.183972,37.957101,6911.7155136,-82.325,-8.345,159.593,1.0
4.25,128.18399,37.957056,6910.790445600001,-82.019,-8.344,159.54,1.0
4.2666,128.184007,37.957012,6909.8635488,-81.721,-8.342,159.487,1.0
4.2833,128.184025,37.956968,6908.935128,-81.43,-8.34,159.435,1.0
4.3,128.184043,37.956924,6908.005183200001,-81.148,-8.338,159.382,1.0
4.3166,128.184061,37.95688,6907.073409600001,-80.874,-8.336,159.33,1.0
4.3333,128.184078,37.956836,6906.1398072,-80.607,-8.334,159.277,1.0
4.35,128.184096,37.956792,6905.2049856,-80.349,-8.332,159.225,1.0
4.3666,128.184115,37.956748,6904.2683352,-80.098,-8.33,159.173,1.0
4.3833,128.184133,37.956704,6903.329856,-79.775,-8.323,159.122,1.0
4.4,128.184151,37.95666,6902.389548,-79.383,-8.313,159.072,1.0
4.4166,128.184169,37.956616,6901.447716,-78.934,-8.3,159.023,1.0
4.4333,128.184187,37.956572,6900.504055200001,-78.44,-8.288,158.974,1.0
4.45,128.184206,37.956528,6899.558870400001,-77.915,-8.277,158.925,1.0
4.4666,128.184224,37.956484,6898.6124664,-77.377,-8.267,158.876,1.0
4.4833,128.184243,37.95644,6897.6648432,-76.841,-8.26,158.825,1.0
4.5,128.184261,37.956396,6896.716305600001,-76.32,-8.254,158.772,1.0
4.5166,128.18428,37.956352,6895.7665488,-75.825,-8.249,158.718,1.0
4.5333,128.184299,37.956308,6894.816182400001,-75.359,-8.246,158.662,1.0
4.55,128.184317,37.956264,6893.864901600001,-74.926,-8.242,158.606,1.0
4.5666,128.184336,37.95622,6892.913011200001,-74.531,-8.238,158.547,1.0
4.5833,128.184355,37.956176,6891.960206400001,-74.172,-8.234,158.488,1.0
4.6,128.184374,37.956132,6891.006792000001,-73.849,-8.23,158.428,1.0
4.6166,128.184393,37.956088,6890.0527680000005,-73.558,-8.225,158.367,1.0
4.6333,128.184413,37.956044,6889.097829599999,-73.297,-8.219,158.308,1.0
4.65,128.184432,37.956,6888.1422816,-73.063,-8.213,158.248,1.0
4.6666,128.184451,37.955956,6887.186428800001,-72.857,-8.207,158.189,1.0
4.6833,128.184471,37.955912,6886.229661599999,-72.674,-8.201,158.131,1.0
4.7,128.18449,37.955868,6885.2725896,-72.514,-8.194,158.074,1.0
4.7166,128.18451,37.955824,6884.3146032,-72.375,-8.188,158.017,1.0
4.7333,128.184529,37.95578,6883.356312,-72.257,-8.181,157.961,1.0
4.75,128.184549,37.955736,6882.3977159999995,-72.158,-8.175,157.905,1.0
4.7666,128.184569,37.955692,6881.4382056,-72.077,-8.168,157.85,1.0
4.7833,128.184589,37.955648,6880.4783904000005,-72.013,-8.162,157.795,1.0
4.8,128.184609,37.955605,6879.517965600001,-71.965,-8.156,157.741,1.0
4.8166,128.184629,37.955561,6878.5569312,-71.931,-8.15,157.686,1.0
4.8333,128.184649,37.955517,6877.595592000001,-71.913,-8.144,157.631,1.0
4.85,128.184669,37.955473,6876.6336432,-71.908,-8.138,157.576,1.0
4.8666,128.184689,37.955429,6875.6710848,-71.915,-8.132,157.52,1.0
4.8833,128.184709,37.955385,6874.7082216,-71.933,-8.126,157.464,1.0
4.9,128.18473,37.955341,6873.7447488,-71.961,-8.121,157.407,1.0
4.9166,128.18475,37.955298,6872.7806664,-71.998,-8.116,157.349,1.0
4.9333,128.184771,37.955254,6871.8159744,-72.042,-8.112,157.292,1.0
4.95,128.184791,37.95521,6870.8509776,-72.093,-8.109,157.234,1.0
4.9666,128.184812,37.955166,6869.8853712,-72.15,-8.107,157.177,1.0
4.9833,128.184833,37.955122,6868.9191552,-72.213,-8.105,157.12,1.0
5.0,128.184853,37.955079,6867.9523296,-72.28,-8.104,157.062,1.0
5.0166,128.184874,37.955035,6866.9848944000005,-72.352,-8.104,157.005,1.0
5.0333,128.184895,37.954991,6866.016849600001,-72.427,-8.104,156.949,1.0
5.05,128.184916,37.954947,6865.048500000001,-72.505,-8.106,156.893,1.0
5.0666,128.184937,37.954904,6864.0792360000005,-72.587,-8.107,156.838,1.0
5.0833,128.184958,37.95486,6863.1090576,-72.67,-8.11,156.784,1.0
5.1,128.18498,37.954816,6862.138574400001,-72.757,-8.113,156.73,1.0
5.1166,128.185001,37.954772,6861.167176800001,-72.845,-8.117,156.677,1.0
5.1333,128.185022,37.954729,6860.1954744,-72.935,-8.12,156.624,1.0
5.15,128.185044,37.954685,6859.2225528,-73.027,-8.125,156.572,1.0
5.1666,128.185065,37.954641,6858.2493264,-73.121,-8.13,156.52,1.0
5.1833,128.185087,37.954597,6857.2751856,-73.215,-8.135,156.468,1.0
5.2,128.185108,37.954554,6856.3001304,-73.312,-8.14,156.417,1.0
5.2166,128.18513,37.95451,6855.3247704000005,-73.409,-8.146,156.366,1.0
5.2333,128.185152,37.954466,6854.348191200001,-73.507,-8.151,156.316,1.0
5.25,128.185173,37.954423,6853.3710024,-73.605,-8.157,156.266,1.0
5.2666,128.185195,37.954379,6852.3928992,-73.704,-8.164,156.218,1.0
5.2833,128.185217,37.954335,6851.4138816,-73.802,-8.17,156.17,1.0
5.3,128.185239,37.954292,6850.4342544,-73.9,-8.177,156.122,1.0
5.3166,128.185261,37.954248,6849.453408,-73.998,-8.183,156.074,1.0
5.3333,128.185283,37.954204,6848.471952000001,-74.096,-8.19,156.026,1.0
5.35,128.185306,37.954161,6847.4895816,-74.192,-8.196,155.978,1.0
5.3666,128.185328,37.954117,6846.506296800001,-74.287,-8.202,155.93,1.0
5.3833,128.18535,37.954073,6845.522097600001,-74.38,-8.209,155.883,1.0
5.4,128.185373,37.95403,6844.5366792,-74.471,-8.215,155.836,1.0
5.4166,128.185395,37.953986,6843.550651200001,-74.561,-8.221,155.789,1.0
5.4333,128.185417,37.953943,6842.563404,-74.649,-8.227,155.741,1.0
5.45,128.18544,37.953899,6841.575547200001,-74.735,-8.233,155.693,1.0
5.4666,128.185463,37.953855,6840.5864712,-74.819,-8.239,155.645,1.0
5.4833,128.185485,37.953812,6839.5964808,-74.902,-8.244,155.596,1.0
5.5,128.185508,37.953768,6838.6052712,-74.982,-8.25,155.547,1.0
5.5166,128.185531,37.953725,6837.613147200001,-75.061,-8.256,155.497,1.0
5.5333,128.185554,37.953681,6836.620108800001,-75.139,-8.261,155.448,1.0
5.55,128.185577,37.953638,6835.626156,-75.216,-8.267,155.397,1.0
5.5666,128.1856,37.953594,6834.630984000001,-75.292,-8.272,155.347,1.0
5.5833,128.185623,37.95355,6833.634897600001,-75.366,-8.277,155.296,1.0
5.6,128.185646,37.953507,6832.637592000001,-75.438,-8.283,155.246,1.0
5.6166,128.185669,37.953463,6831.639372000001,-75.509,-8.288,155.195,1.0
5.6333,128.185693,37.95342,6830.640237600001,-75.579,-8.294,155.145,1.0
5.65,128.185716,37.953376,6829.639884000001,-75.648,-8.299,155.094,1.0
5.6666,128.185739,37.953333,6828.638311200001,-75.716,-8.305,155.043,1.0
5.6833,128.185763,37.953289,6827.635824000001,-75.783,-8.311,154.993,1.0
5.7,128.185786,37.953246,6826.6324224,-75.847,-8.316,154.943,1.0
5.7166,128.18581,37.953202,6825.627496800001,-75.911,-8.322,154.893,1.0
5.7333,128.185833,37.953159,6824.6219616,-75.973,-8.328,154.842,1.0
5.75,128.185857,37.953115,6823.6149024,-76.035,-8.334,154.792,1.0
5.7666,128.185881,37.953072,6822.606928800001,-76.096,-8.34,154.741,1.0
5.7833,128.185905,37.953028,6821.5980408000005,-76.155,-8.346,154.69,1.0
5.8,128.185929,37.952985,6820.587628800001,-76.213,-8.352,154.64,1.0
5.8166,128.185952,37.952942,6819.5763024,-76.271,-8.358,154.589,1.0
5.8333,128.185976,37.952898,6818.5640616,-76.328,-8.364,154.538,1.0
5.85,128.186001,37.952855,6817.550296800001,-76.384,-8.37,154.486,1.0
5.8666,128.186025,37.952811,6816.5356176000005,-76.439,-8.377,154.435,1.0
5.8833,128.186049,37.952768,6815.5197192000005,-76.492,-8.383,154.385,1.0
5.9,128.186073,37.952724,6814.502906400001,-76.545,-8.39,154.334,1.0
5.9166,128.186097,37.952681,6813.484569600001,-76.597,-8.396,154.283,1.0
5.9333,128.186122,37.952638,6812.465318400001,-76.649,-8.403,154.231,1.0
5.95,128.186146,37.952594,6811.444848,-76.699,-8.409,154.18,1.0
5.9666,128.186171,37.952551,6810.4231584,-76.748,-8.416,154.129,1.0
5.9833,128.186195,37.952507,6809.4002496,-76.795,-8.422,154.078,1.0
6.0,128.18622,37.952464,6808.3764264,-76.842,-8.429,154.026,1.0
6.0166,128.186244,37.952421,6807.351079200001,-76.888,-8.436,153.975,1.0
6.0333,128.186269,37.952377,6806.324817600001,-76.932,-8.442,153.924,1.0
6.05,128.186294,37.952334,6805.2973368,-76.976,-8.449,153.873,1.0
6.0666,128.186319,37.952291,6804.2686368,-77.018,-8.456,153.822,1.0
6.0833,128.186344,37.952247,6803.2387176,-77.06,-8.463,153.77,1.0
6.1,128.186369,37.952204,6802.2075792000005,-77.1,-8.47,153.718,1.0
6.1166,128.186394,37.952161,6801.1752216,-77.139,-8.477,153.667,1.0
6.1333,128.186419,37.952117,6800.1419496,-77.178,-8.484,153.615,1.0
6.15,128.186444,37.952074,6799.1071536,-77.216,-8.491,153.564,1.0
6.1666,128.186469,37.952031,6798.0714431999995,-77.253,-8.498,153.512,1.0
6.1833,128.186494,37.951987,6797.034208800001,-77.288,-8.505,153.461,1.0
6.2,128.18652,37.951944,6795.9957552000005,-77.322,-8.512,153.41,1.0
6.2166,128.186545,37.951901,6794.956387200001,-77.357,-8.52,153.358,1.0
6.2333,128.18657,37.951858,6793.915800000001,-77.391,-8.527,153.305,1.0
6.25,128.186596,37.951814,6792.873688799999,-77.424,-8.534,153.253,1.0
6.2666,128.186621,37.951771,6791.8306632,-77.458,-8.541,153.2,1.0
6.2833,128.186647,37.951728,6790.7864184,-77.491,-8.549,153.147,1.0
6.3,128.186673,37.951685,6789.7409544,-77.524,-8.556,153.094,1.0
6.3166,128.186698,37.951641,6788.6939664,-77.557,-8.563,153.041,1.0
6.3333,128.186724,37.951598,6787.6460640000005,-77.589,-8.57,152.988,1.0
6.35,128.18675,37.951555,6786.5969424,-77.619,-8.578,152.935,1.0
6.3666,128.186776,37.951512,6785.546601600001,-77.65,-8.585,152.883,1.0
6.3833,128.186802,37.951469,6784.4947368,-77.68,-8.593,152.83,1.0
6.4,128.186828,37.951425,6783.4419576,-77.71,-8.6,152.777,1.0
6.4166,128.186854,37.951382,6782.3876544,-77.738,-8.608,152.725,1.0
6.4333,128.18688,37.951339,6781.3324368,-77.767,-8.616,152.672,1.0
6.45,128.186906,37.951296,6780.276000000001,-77.796,-8.623,152.619,1.0
6.4666,128.186933,37.951253,6779.218344,-77.825,-8.631,152.566,1.0
6.4833,128.186959,37.95121,6778.159164000001,-77.853,-8.639,152.512,1.0
6.5,128.186985,37.951166,6777.099069600001,-77.881,-8.647,152.459,1.0
6.5166,128.187012,37.951123,6776.037451200001,-77.909,-8.655,152.406,1.0
6.5333,128.187038,37.95108,6774.9749184,-77.937,-8.663,152.352,1.0
6.55,128.187065,37.951037,6773.910861599999,-77.965,-8.67,152.299,1.0
6.5666,128.187092,37.950994,6772.8458904,-77.993,-8.678,152.245,1.0
6.5833,128.187118,37.950951,6771.7793952,-78.021,-8.686,152.191,1.0
6.6,128.187145,37.950908,6770.7119856,-78.051,-8.694,152.136,1.0
6.6166,128.187172,37.950865,6769.643052000001,-78.081,-8.702,152.081,1.0
6.6333,128.187199,37.950822,6768.573204,-78.112,-8.71,152.026,1.0
6.65,128.187226,37.950779,6767.501832000001,-78.144,-8.718,151.971,1.0
6.6666,128.187253,37.950736,6766.4292408,-78.175,-8.726,151.916,1.0
6.6833,128.18728,37.950693,6765.3557352,-78.207,-8.735,151.861,1.0
6.7,128.187307,37.95065,6764.2807056,-78.239,-8.743,151.806,1.0
6.7166,128.187334,37.950607,6763.204456800001,-78.272,-8.751,151.75,1.0
6.7333,128.187361,37.950564,6762.1269888,-78.305,-8.759,151.695,1.0
6.75,128.187388,37.950521,6761.048301600001,-78.339,-8.768,151.64,1.0
6.7666,128.187416,37.950478,6759.9683952000005,-78.373,-8.776,151.584,1.0
6.7833,128.187443,37.950435,6758.887269600001,-78.408,-8.785,151.528,1.0
6.8,128.18747,37.950392,6757.804924800001,-78.443,-8.793,151.472,1.0
6.8166,128.187498,37.950349,6756.721360800001,-78.48,-8.802,151.416,1.0
6.8333,128.187526,37.950306,6755.6365776,-78.517,-8.81,151.359,1.0
6.85,128.187553,37.950263,6754.5505752,-78.555,-8.819,151.302,1.0
6.8666,128.187581,37.95022,6753.4630488,-78.594,-8.828,151.245,1.0
6.8833,128.187609,37.950177,6752.374608,-78.634,-8.836,151.188,1.0
6.9,128.187636,37.950134,6751.2849479999995,-78.673,-8.845,151.132,1.0
6.9166,128.187664,37.950091,6750.193764000001,-78.714,-8.854,151.075,1.0
6.9333,128.187692,37.950048,6749.101665600001,-78.756,-8.863,151.017,1.0
6.95,128.18772,37.950005,6748.0080431999995,-78.798,-8.872,150.96,1.0
6.9666,128.187748,37.949962,6746.9132016,-78.84,-8.881,150.903,1.0
6.9833,128.187776,37.94992,6745.817140800001,-78.882,-8.89,150.846,1.0
7.0,128.187805,37.949877,6744.719860800001,-78.926,-8.899,150.789,1.0
7.0166,128.187833,37.949834,6743.6213616,-78.97,-8.908,150.731,1.0
7.0333,128.187861,37.949791,6742.5216432,-79.015,-8.917,150.673,1.0
7.05,128.187889,37.949748,6741.420400800001,-79.06,-8.927,150.615,1.0
7.0666,128.187918,37.949705,6740.318244,-79.107,-8.936,150.557,1.0
7.0833,128.187946,37.949663,6739.2145632,-79.154,-8.945,150.499,1.0
7.1,128.187975,37.94962,6738.109968000001,-79.201,-8.955,150.44,1.0
7.1166,128.188003,37.949577,6737.0038488,-79.251,-8.964,150.381,1.0
7.1333,128.188032,37.949534,6735.896510400001,-79.301,-8.974,150.322,1.0
7.15,128.188061,37.949492,6734.7879528,-79.353,-8.984,150.262,1.0
7.1666,128.18809,37.949449,6733.6778712,-79.404,-8.993,150.203,1.0
7.1833,128.188118,37.949406,6732.5668752,-79.457,-9.003,150.143,1.0
7.2,128.188147,37.949363,6731.4543552000005,-79.51,-9.013,150.084,1.0
7.2166,128.188176,37.949321,6730.3406159999995,-79.563,-9.023,150.025,1.0
7.2333,128.188205,37.949278,6729.2256576,-79.615,-9.033,149.967,1.0
7.25,128.188234,37.949235,6728.10948,-79.669,-9.043,149.907,1.0
7.2666,128.188264,37.949193,6726.991778400001,-79.724,-9.053,149.847,1.0
7.2833,128.188293,37.94915,6725.8728576,-79.78,-9.063,149.787,1.0
7.3,128.188322,37.949107,6724.7527176,-79.836,-9.073,149.726,1.0
7.3166,128.188351,37.949065,6723.6313584,-79.894,-9.083,149.665,1.0
7.3333,128.188381,37.949022,6722.50878,-79.953,-9.093,149.603,1.0
7.35,128.18841,37.948979,6721.3846776,-80.012,-9.104,149.542,1.0
7.3666,128.18844,37.948937,6720.2593560000005,-80.073,-9.114,149.481,1.0
7.3833,128.188469,37.948894,6719.132815200001,-80.135,-9.125,149.419,1.0
7.4,128.188499,37.948852,6718.0047504,-80.197,-9.135,149.357,1.0
7.4166,128.188529,37.948809,6716.8754664,-80.259,-9.146,149.295,1.0
7.4333,128.188558,37.948767,6715.7449632,-80.321,-9.156,149.235,1.0
7.45,128.188588,37.948724,6714.6132408,-80.385,-9.167,149.173,1.0
7.4666,128.188618,37.948682,6713.4799944,-80.449,-9.178,149.111,1.0
7.4833,128.188648,37.948639,6712.3455288000005,-80.515,-9.189,149.048,1.0
7.5,128.188678,37.948597,6711.2095392,-80.582,-9.2,148.984,1.0
7.5166,128.188708,37.948554,6710.0723304,-80.651,-9.211,148.92,1.0
7.5333,128.188738,37.948512,6708.9339024,-80.72,-9.222,148.855,1.0
7.55,128.188768,37.948469,6707.7942552,-80.79,-9.233,148.791,1.0
7.5666,128.188799,37.948427,6706.6530840000005,-80.861,-9.244,148.727,1.0
7.5833,128.188829,37.948384,6705.510388799999,-80.933,-9.256,148.662,1.0
7.6,128.188859,37.948342,6704.366474400001,-81.005,-9.267,148.598,1.0
7.6166,128.18889,37.9483,6703.221340800001,-81.077,-9.279,148.535,1.0
7.6333,128.18892,37.948257,6702.0746832,-81.149,-9.29,148.471,1.0
7.65,128.188951,37.948215,6700.926806400001,-81.222,-9.302,148.406,1.0
7.6666,128.188981,37.948173,6699.777405600001,-81.295,-9.314,148.342,1.0
7.6833,128.189012,37.94813,6698.6264808000005,-81.369,-9.325,148.278,1.0
7.7,128.189043,37.948088,6697.474641600001,-81.442,-9.337,148.214,1.0
7.7166,128.189074,37.948046,6696.320973600001,-81.517,-9.349,148.149,1.0
7.7333,128.189105,37.948003,6695.1660864000005,-81.591,-9.361,148.084,1.0
7.75,128.189135,37.947961,6694.00998,-81.666,-9.374,148.019,1.0
7.7666,128.189166,37.947919,6692.8523496,-81.742,-9.386,147.954,1.0
7.7833,128.189198,37.947877,6691.6931952,-81.819,-9.398,147.887,1.0
7.8,128.189229,37.947834,6690.5328216,-81.896,-9.41,147.821,1.0
7.8166,128.18926,37.947792,6689.370924000001,-81.973,-9.423,147.754,1.0
7.8333,128.189291,37.94775,6688.2075024,-82.052,-9.435,147.687,1.0
7.85,128.189322,37.947708,6687.0428616,-82.131,-9.448,147.619,1.0
7.8666,128.189354,37.947666,6685.876696800001,-82.211,-9.46,147.551,1.0
7.8833,128.189385,37.947623,6684.709008,-82.291,-9.473,147.484,1.0
7.9,128.189417,37.947581,6683.5401,-82.372,-9.486,147.415,1.0
7.9166,128.189448,37.947539,6682.369668,-82.453,-9.499,147.347,1.0
7.9333,128.18948,37.947497,6681.197712,-82.534,-9.512,147.28,1.0
7.95,128.189512,37.947455,6680.024232000001,-82.615,-9.525,147.213,1.0
7.9666,128.189544,37.947413,6678.849228000001,-82.696,-9.538,147.146,1.0
7.9833,128.189575,37.947371,6677.6730048,-82.777,-9.551,147.079,1.0
8.0,128.189607,37.947329,6676.4952576,-82.859,-9.565,147.011,1.0
8.0166,128.189639,37.947287,6675.3159864,-82.941,-9.578,146.942,1.0
8.0333,128.189671,37.947245,6674.1351912,-83.023,-9.592,146.874,1.0
8.05,128.189703,37.947203,6672.952872,-83.105,-9.605,146.805,1.0
8.0666,128.189735,37.947161,6671.769333600001,-83.189,-9.619,146.735,1.0
8.0833,128.189768,37.947119,6670.5839664,-83.273,-9.633,146.664,1.0
8.1,128.1898,37.947077,6669.3970752,-83.358,-9.647,146.593,1.0
8.1166,128.189832,37.947035,6668.208964800001,-83.443,-9.661,146.521,1.0
8.1333,128.189865,37.946993,6667.0190256,-83.529,-9.675,146.45,1.0
8.15,128.189897,37.946951,6665.8278672,-83.615,-9.689,146.378,1.0
8.1666,128.18993,37.94691,6664.63488,-83.701,-9.703,146.308,1.0
8.1833,128.189962,37.946868,6663.440673600001,-83.787,-9.717,146.236,1.0
8.2,128.189995,37.946826,6662.2446384,-83.873,-9.731,146.164,1.0
8.2166,128.190028,37.946784,6661.047079200001,-83.96,-9.746,146.092,1.0
8.2333,128.190061,37.946742,6659.847996,-84.047,-9.76,146.019,1.0
8.25,128.190093,37.946701,6658.6473888,-84.135,-9.775,145.946,1.0
8.2666,128.190126,37.946659,6657.4452576,-84.223,-9.79,145.873,1.0
8.2833,128.190159,37.946617,6656.2416023999995,-84.311,-9.805,145.8,1.0
8.3,128.190193,37.946575,6655.0361184,-84.4,-9.819,145.727,1.0
8.3166,128.190226,37.946534,6653.829110400001,-84.488,-9.834,145.653,1.0
8.3333,128.190259,37.946492,6652.6205784,-84.577,-9.85,145.578,1.0
8.35,128.190292,37.946451,6651.4105224,-84.667,-9.865,145.503,1.0
8.3666,128.190325,37.946409,6650.1986376,-84.757,-9.88,145.427,1.0
8.3833,128.190359,37.946367,6648.985228800001,-84.847,-9.896,145.353,1.0
8.4,128.190392,37.946326,6647.770296000001,-84.937,-9.911,145.278,1.0
8.4166,128.190426,37.946284,6646.5538392,-85.027,-9.927,145.202,1.0
8.4333,128.19046,37.946243,6645.3355536,-85.118,-9.942,145.126,1.0
8.45,128.190493,37.946201,6644.1154392,-85.208,-9.958,145.05,1.0
8.4666,128.190527,37.94616,6642.8938008000005,-85.298,-9.974,144.974,1.0
8.4833,128.190561,37.946118,6641.670638400001,-85.389,-9.99,144.898,1.0
8.5,128.190595,37.946077,6640.445647200001,-85.48,-10.006,144.822,1.0
8.5166,128.190629,37.946035,6639.219132,-85.571,-10.023,144.744,1.0
8.5333,128.190663,37.945994,6637.990788000001,-85.662,-10.039,144.667,1.0
8.55,128.190697,37.945953,6636.760615200001,-85.753,-10.055,144.589,1.0
8.5666,128.190731,37.945911,6635.5289184,-85.844,-10.072,144.511,1.0
8.5833,128.190765,37.94587,6634.2956976000005,-85.935,-10.088,144.432,1.0
8.6,128.190799,37.945829,6633.0603432,-86.027,-10.105,144.353,1.0
8.6166,128.190834,37.945787,6631.823464800001,-86.118,-10.122,144.274,1.0
8.6333,128.190868,37.945746,6630.5850624,-86.21,-10.139,144.195,1.0
8.65,128.190903,37.945705,6629.3445264,-86.302,-10.156,144.115,1.0
8.6666,128.190937,37.945664,6628.1024664,-86.393,-10.173,144.034,1.0
8.6833,128.190972,37.945622,6626.8585776,-86.485,-10.191,143.954,1.0
8.7,128.191007,37.945581,6625.613164800001,-86.577,-10.208,143.873,1.0
8.7166,128.191041,37.94554,6624.3656184,-86.669,-10.226,143.791,1.0
8.7333,128.191076,37.945499,6623.116548,-86.761,-10.243,143.71,1.0
8.75,128.191111,37.945458,6621.8656488,-86.852,-10.261,143.628,1.0
8.7666,128.191146,37.945417,6620.6129208,-86.944,-10.279,143.547,1.0
8.7833,128.191181,37.945376,6619.358059200001,-87.035,-10.297,143.465,1.0
8.8,128.191216,37.945335,6618.1016736,-87.127,-10.315,143.382,1.0
8.8166,128.191251,37.945294,6616.8434592,-87.218,-10.333,143.299,1.0
8.8333,128.191287,37.945253,6615.5834159999995,-87.309,-10.351,143.215,1.0
8.85,128.191322,37.945212,6614.321544,-87.4,-10.369,143.131,1.0
8.8666,128.191357,37.945171,6613.0578432,-87.492,-10.388,143.047,1.0
8.8833,128.191393,37.94513,6611.7923136,-87.583,-10.407,142.962,1.0
8.9,128.191428,37.945089,6610.524650400001,-87.674,-10.425,142.877,1.0
8.9166,128.191464,37.945049,6609.2554632,-87.765,-10.444,142.792,1.0
8.9333,128.1915,37.945008,6607.984142400001,-87.856,-10.463,142.706,1.0
8.95,128.191536,37.944967,6606.710992800001,-87.946,-10.482,142.619,1.0
8.9666,128.191571,37.944926,6605.4360144,-88.037,-10.501,142.532,1.0
8.9833,128.191607,37.944886,6604.1589023999995,-88.128,-10.521,142.445,1.0
9.0,128.191643,37.944845,6602.8799616,-88.219,-10.54,142.357,1.0
9.0166,128.191679,37.944804,6601.599192000001,-88.309,-10.56,142.269,1.0
9.0333,128.191715,37.944764,6600.3162888,-88.4,-10.579,142.181,1.0
9.05,128.191752,37.944723,6599.0315568000005,-88.49,-10.599,142.093,1.0
9.0666,128.191788,37.944682,6597.744996,-88.58,-10.619,142.004,1.0
9.0833,128.191824,37.944642,6596.456301600001,-88.67,-10.639,141.915,1.0
9.1,128.191861,37.944601,6595.165778400001,-88.76,-10.659,141.825,1.0
9.1166,128.191897,37.944561,6593.8731216,-88.85,-10.68,141.735,1.0
9.1333,128.191934,37.94452,6592.5783312,-88.939,-10.7,141.643,1.0
9.15,128.19197,37.94448,6591.281712,-89.029,-10.721,141.552,1.0
9.1666,128.192007,37.94444,6589.983264,-89.118,-10.741,141.46,1.0
9.1833,128.192044,37.944399,6588.6823776,-89.207,-10.762,141.368,1.0
9.2,128.192081,37.944359,6587.3796624,-89.296,-10.783,141.275,1.0
9.2166,128.192118,37.944319,6586.0751184,-89.384,-10.804,141.182,1.0
9.2333,128.192155,37.944278,6584.768136000001,-89.473,-10.825,141.088,1.0
9.25,128.192192,37.944238,6583.459324800001,-89.561,-10.847,140.994,1.0
9.2666,128.192229,37.944198,6582.14838,-89.649,-10.868,140.9,1.0
9.2833,128.192266,37.944158,6580.835301600001,-89.737,-10.89,140.806,1.0
9.3,128.192303,37.944118,6579.5200896,-89.824,-10.912,140.71,1.0
9.3166,128.192341,37.944078,6578.202744,-89.911,-10.934,140.615,1.0
9.3333,128.192378,37.944037,6576.883264800001,-89.998,-10.956,140.518,1.0
9.35,128.192416,37.943997,6575.561652000001,-90.085,-10.978,140.42,1.0
9.3666,128.192453,37.943957,6574.238210400001,-90.172,-11.0,140.323,1.0
9.3833,128.192491,37.943917,6572.9123304,-90.259,-11.022,140.225,1.0
9.4,128.192529,37.943878,6571.5843168,-90.345,-11.045,140.127,1.0
9.4166,128.192567,37.943838,6570.254169600001,-90.432,-11.068,140.028,1.0
9.4333,128.192605,37.943798,6568.9218888,-90.518,-11.091,139.93,1.0
9.45,128.192643,37.943758,6567.5871696,-90.605,-11.114,139.83,1.0
9.4666,128.192681,37.943718,6566.2506216,-90.692,-11.137,139.73,1.0
9.4833,128.192719,37.943678,6564.9116352,-90.778,-11.16,139.629,1.0
9.5,128.192757,37.943639,6563.570210400001,-90.864,-11.184,139.527,1.0
9.5166,128.192795,37.943599,6562.226956800001,-90.95,-11.207,139.425,1.0
9.5333,128.192834,37.943559,6560.8812648,-91.037,-11.231,139.323,1.0
9.55,128.192872,37.94352,6559.5331344,-91.123,-11.255,139.22,1.0
9.5666,128.192911,37.94348,6558.1831752,-91.209,-11.279,139.117,1.0
9.5833,128.192949,37.943441,6556.8304728,-91.295,-11.303,139.013,1.0
9.6,128.192988,37.943401,6555.475636800001,-91.381,-11.328,138.908,1.0
9.6166,128.193027,37.943362,6554.1186672,-91.466,-11.352,138.802,1.0
9.6333,128.193066,37.943322,6552.7592592,-91.551,-11.377,138.695,1.0
9.65,128.193105,37.943283,6551.3974128,-91.636,-11.401,138.587,1.0
9.6666,128.193144,37.943244,6550.033128000001,-91.721,-11.426,138.479,1.0
9.6833,128.193183,37.943204,6548.6667096,-91.806,-11.451,138.371,1.0
9.7,128.193222,37.943165,6547.2978528,-91.89,-11.477,138.262,1.0
9.7166,128.193261,37.943126,6545.9265576,-91.974,-11.502,138.152,1.0
9.7333,128.193301,37.943087,6544.552824,-92.058,-11.528,138.042,1.0
9.75,128.19334,37.943048,6543.176956800001,-92.142,-11.554,137.931,1.0
9.7666,128.19338,37.943009,6541.798346400001,-92.225,-11.579,137.821,1.0
9.7833,128.193419,37.94297,6540.4176024,-92.309,-11.606,137.709,1.0
9.8,128.193459,37.942931,6539.034115200001,-92.392,-11.632,137.597,1.0
9.8166,128.193499,37.942892,6537.6481896,-92.475,-11.658,137.484,1.0
9.8333,128.193538,37.942853,6536.2598256,-92.557,-11.685,137.37,1.0
9.85,128.193578,37.942814,6534.869023200001,-92.639,-11.711,137.255,1.0
9.8666,128.193618,37.942775,6533.475782400001,-92.72,-11.738,137.139,1.0
9.8833,128.193658,37.942736,6532.0801032,-92.801,-11.765,137.023,1.0
9.9,128.193699,37.942698,6530.6816808,-92.882,-11.792,136.906,1.0
9.9166,128.193739,37.942659,6529.280820000001,-92.962,-11.82,136.788,1.0
9.9333,128.193779,37.94262,6527.877216,-93.043,-11.847,136.67,1.0
9.95,128.19382,37.942582,6526.471173600001,-93.122,-11.875,136.552,1.0
9.9666,128.19386,37.942543,6525.062692800001,-93.202,-11.903,136.432,1.0
9.9833,128.193901,37.942505,6523.651468800001,-93.281,-11.931,136.312,1.0
10.0,128.193941,37.942466,6522.2375016000005,-93.36,-11.959,136.192,1.0
10.0166,128.193982,37.942428,6520.821096000001,-93.439,-11.988,136.07,1.0
10.0333,128.194023,37.94239,6519.402252000001,-93.517,-12.016,135.948,1.0
10.05,128.194064,37.942351,6517.9803600000005,-93.595,-12.045,135.825,1.0
10.0666,128.194105,37.942313,6516.556029599999,-93.673,-12.074,135.702,1.0
10.0833,128.194146,37.942275,6515.1289560000005,-93.75,-12.103,135.577,1.0
10.1,128.194187,37.942237,6513.6991392,-93.826,-12.132,135.451,1.0
10.1166,128.194229,37.942199,6512.266579200001,-93.902,-12.162,135.325,1.0
10.1333,128.19427,37.942161,6510.831276,-93.978,-12.191,135.198,1.0
10.15,128.194311,37.942123,6509.393229599999,-94.053,-12.221,135.07,1.0
10.1666,128.194353,37.942085,6507.95244,-94.128,-12.251,134.942,1.0
10.1833,128.194395,37.942047,6506.5089072,-94.203,-12.282,134.812,1.0
10.2,128.194436,37.942009,6505.0626312,-94.277,-12.312,134.682,1.0
10.2166,128.194478,37.941971,6503.6133072,-94.35,-12.343,134.55,1.0
10.2333,128.19452,37.941934,6502.1615448,-94.423,-12.374,134.418,1.0
10.25,128.194562,37.941896,6500.7067344,-94.495,-12.405,134.285,1.0
10.2666,128.194604,37.941858,6499.2491808,-94.567,-12.437,134.151,1.0
10.2833,128.194646,37.941821,6497.788579200001,-94.637,-12.469,134.016,1.0
10.3,128.194688,37.941783,6496.3252344,-94.707,-12.501,133.88,1.0
10.3166,128.194731,37.941746,6494.8588416,-94.777,-12.533,133.743,1.0
10.3333,128.194773,37.941709,6493.3897056000005,-94.845,-12.566,133.606,1.0
10.35,128.194816,37.941671,6491.9175216,-94.913,-12.599,133.467,1.0
10.3666,128.194858,37.941634,6490.4422896,-94.98,-12.632,133.328,1.0
10.3833,128.194901,37.941597,6488.9643144,-95.047,-12.665,133.187,1.0
10.4,128.194944,37.94156,6487.4829864,-95.112,-12.699,133.045,1.0
10.4166,128.194987,37.941523,6485.998915200001,-95.176,-12.733,132.903,1.0
10.4333,128.19503,37.941486,6484.511796000001,-95.239,-12.767,132.76,1.0
10.45,128.195073,37.941449,6483.021628800001,-95.302,-12.802,132.616,1.0
10.4666,128.195116,37.941412,6481.528718400001,-95.363,-12.837,132.471,1.0
10.4833,128.195159,37.941375,6480.0321504,-95.424,-12.872,132.325,1.0
10.5,128.195203,37.941338,6478.5328392,-95.483,-12.907,132.178,1.0
10.5166,128.195246,37.941302,6477.030479999999,-95.54,-12.943,132.029,1.0
10.5333,128.19529,37.941265,6475.524768,-95.597,-12.979,131.88,1.0
10.55,128.195333,37.941228,6474.0160080000005,-95.653,-13.015,131.73,1.0
10.5666,128.195377,37.941192,6472.5042,-95.707,-13.051,131.58,1.0
10.5833,128.195421,37.941156,6470.9890392,-95.761,-13.088,131.428,1.0
10.6,128.195465,37.941119,6469.4708304,-95.812,-13.125,131.275,1.0
10.6166,128.195509,37.941083,6467.9492688,-95.863,-13.162,131.121,1.0
10.6333,128.195553,37.941047,6466.4246592,-95.912,-13.199,130.965,1.0
10.65,128.195597,37.941011,6464.8966968,-95.959,-13.237,130.808,1.0
10.6666,128.195641,37.940975,6463.365381600001,-96.005,-13.275,130.651,1.0
10.6833,128.195686,37.940939,6461.8310184,-96.051,-13.313,130.493,1.0
10.7,128.19573,37.940903,6460.293302399999,-96.095,-13.351,130.334,1.0
10.7166,128.195775,37.940867,6458.7519288,-96.138,-13.39,130.174,1.0
10.7333,128.19582,37.940831,6457.2075072,-96.179,-13.429,130.013,1.0
10.75,128.195864,37.940795,6455.659732800001,-96.219,-13.468,129.85,1.0
10.7666,128.195909,37.94076,6454.1086056,-96.257,-13.507,129.686,1.0
10.7833,128.195954,37.940724,6452.5541256,-96.294,-13.547,129.52,1.0
10.8,128.195999,37.940689,6450.995988000001,-96.329,-13.587,129.353,1.0
10.8166,128.196045,37.940653,6449.434497600001,-96.362,-13.627,129.185,1.0
10.8333,128.19609,37.940618,6447.8696544,-96.394,-13.668,129.016,1.0
10.85,128.196135,37.940583,6446.3014584,-96.425,-13.708,128.845,1.0
10.8666,128.196181,37.940548,6444.729604800001,-96.454,-13.749,128.674,1.0
10.8833,128.196226,37.940513,6443.1543984,-96.482,-13.79,128.502,1.0
10.9,128.196272,37.940478,6441.5758392,-96.509,-13.831,128.329,1.0
10.9166,128.196318,37.940443,6439.9936224,-96.534,-13.873,128.153,1.0
10.9333,128.196364,37.940408,6438.407748,-96.558,-13.914,127.977,1.0
10.95,128.19641,37.940373,6436.8185207999995,-96.58,-13.956,127.799,1.0
10.9666,128.196456,37.940338,6435.225636,-96.601,-13.998,127.619,1.0
10.9833,128.196502,37.940304,6433.6290936,-96.62,-14.041,127.439,1.0
11.0,128.196548,37.940269,6432.0291984,-96.638,-14.083,127.257,1.0
11.0166,128.196595,37.940235,6430.4253408,-96.655,-14.126,127.073,1.0
11.0333,128.196641,37.940201,6428.8181304,-96.67,-14.169,126.889,1.0
11.05,128.196688,37.940167,6427.2072624,-96.684,-14.212,126.702,1.0
11.0666,128.196735,37.940132,6425.5927368,-96.696,-14.256,126.514,1.0
11.0833,128.196781,37.940098,6423.9748584,-96.707,-14.299,126.325,1.0
11.1,128.196828,37.940065,6422.3530176,-96.716,-14.343,126.134,1.0
11.1166,128.196875,37.940031,6420.727519200001,-96.724,-14.387,125.941,1.0
11.1333,128.196923,37.939997,6419.0983632,-96.731,-14.431,125.748,1.0
11.15,128.19697,37.939963,6417.4652448,-96.736,-14.475,125.552,1.0
11.1666,128.197017,37.93993,6415.8287736,-96.739,-14.52,125.355,1.0
11.1833,128.197065,37.939896,6414.18834,-96.741,-14.565,125.157,1.0
11.2,128.197112,37.939863,6412.5442488,-96.742,-14.61,124.957,1.0
11.2166,128.19716,37.93983,6410.896500000001,-96.742,-14.655,124.756,1.0
11.2333,128.197208,37.939797,6409.2450936,-96.741,-14.7,124.554,1.0
11.25,128.197255,37.939764,6407.589724800001,-96.738,-14.745,124.35,1.0
11.2666,128.197303,37.939731,6405.9303936,-96.734,-14.791,124.144,1.0
11.2833,128.197351,37.939698,6404.267404800001,-96.729,-14.837,123.936,1.0
11.3,128.1974,37.939665,6402.6007584,-96.722,-14.883,123.727,1.0
11.3166,128.197448,37.939632,6400.9301496,-96.714,-14.929,123.516,1.0
11.3333,128.197496,37.9396,6399.255578400001,-96.704,-14.975,123.303,1.0
11.35,128.197545,37.939568,6397.5773496,-96.694,-15.021,123.089,1.0
11.3666,128.197593,37.939535,6395.895158400001,-96.682,-15.068,122.873,1.0
11.3833,128.197642,37.939503,6394.209309600001,-96.669,-15.114,122.656,1.0
11.4,128.197691,37.939471,6392.5191936,-96.655,-15.161,122.437,1.0
11.4166,128.19774,37.939439,6390.825420000001,-96.64,-15.208,122.219,1.0
11.4333,128.197789,37.939407,6389.127684000001,-96.625,-15.254,122.004,1.0
11.45,128.197838,37.939376,6387.4262904,-96.61,-15.3,121.792,1.0
11.4666,128.197887,37.939344,6385.7206295999995,-96.595,-15.345,121.583,1.0
11.4833,128.197937,37.939312,6384.011311200001,-96.581,-15.39,121.377,1.0
11.5,128.197986,37.939281,6382.2980304,-96.566,-15.435,121.174,1.0
11.5166,128.198036,37.93925,6380.5807872000005,-96.552,-15.479,120.975,1.0
11.5333,128.198086,37.939219,6378.859581600001,-96.539,-15.524,120.777,1.0
11.55,128.198135,37.939188,6377.134413600001,-96.526,-15.567,120.582,1.0
11.5666,128.198185,37.939157,6375.405283200001,-96.512,-15.611,120.388,1.0
11.5833,128.198235,37.939126,6373.6721904000005,-96.5,-15.654,120.197,1.0
11.6,128.198285,37.939095,6371.93544,-96.488,-15.697,120.007,1.0
11.6166,128.198336,37.939065,6370.1944224,-96.476,-15.74,119.818,1.0
11.6333,128.198386,37.939034,6368.449747200001,-96.464,-15.783,119.631,1.0
11.65,128.198436,37.939004,6366.700804800001,-96.454,-15.825,119.445,1.0
11.6666,128.198487,37.938974,6364.9482048,-96.443,-15.867,119.26,1.0
11.6833,128.198538,37.938944,6363.1913376,-96.433,-15.91,119.076,1.0
11.7,128.198588,37.938914,6361.4308128,-96.424,-15.952,118.893,1.0
11.7166,128.198639,37.938884,6359.6663256,-96.415,-15.994,118.711,1.0
11.7333,128.19869,37.938855,6357.897876,-96.406,-16.035,118.529,1.0
11.75,128.198741,37.938825,6356.125464000001,-96.398,-16.077,118.348,1.0
11.7666,128.198792,37.938796,6354.3490896,-96.391,-16.119,118.167,1.0
11.7833,128.198844,37.938767,6352.5687528,-96.384,-16.161,117.987,1.0
11.8,128.198895,37.938737,6350.7844536,-96.377,-16.202,117.807,1.0
11.8166,128.198946,37.938708,6348.9961920000005,-96.371,-16.244,117.628,1.0
11.8333,128.198998,37.93868,6347.203968000001,-96.366,-16.286,117.449,1.0
11.85,128.19905,37.938651,6345.408086400001,-96.362,-16.327,117.271,1.0
11.8666,128.199101,37.938622,6343.607937600001,-96.358,-16.369,117.092,1.0
11.8833,128.199153,37.938594,6341.8038264,-96.356,-16.411,116.914,1.0
11.9,128.199205,37.938565,6339.9960576,-96.354,-16.453,116.736,1.0
11.9166,128.199257,37.938537,6338.1840216,-96.353,-16.494,116.559,1.0
11.9333,128.199309,37.938509,6336.368023200001,-96.354,-16.536,116.381,1.0
11.95,128.199362,37.938481,6334.548672,-96.238,-16.574,116.224,1.0
11.9666,128.199414,37.938453,6332.7250536,-96.019,-16.607,116.108,1.0
11.9833,128.199466,37.938425,6330.8980824,-95.702,-16.633,116.053,1.0
12.0,128.199519,37.938398,6329.0677584000005,-95.3,-16.651,116.078,1.0
12.0166,128.199571,37.93837,6327.2340816000005,-94.82,-16.662,116.202,1.0
12.0333,128.199624,37.938343,6325.397052000001,-94.271,-16.664,116.431,1.0
12.05,128.199677,37.938315,6323.5569744,-93.647,-16.662,116.739,1.0
12.0666,128.19973,37.938288,6321.7141536,-92.945,-16.656,117.101,1.0
12.0833,128.199782,37.93826,6319.8685896,-92.159,-16.651,117.49,1.0
12.1,128.199835,37.938233,6318.020587200001,-91.285,-16.648,117.881,1.0
12.1166,128.199888,37.938206,6316.170146400001,-90.315,-16.648,118.249,1.0
12.1333,128.199941,37.938179,6314.3172672,-89.244,-16.652,118.571,1.0
12.15,128.199994,37.938151,6312.4625592,-88.083,-16.66,118.841,1.0
12.1666,128.200047,37.938124,6310.6054128000005,-86.848,-16.672,119.068,1.0
12.1833,128.200101,37.938097,6308.746437600001,-85.555,-16.69,119.267,1.0
12.2,128.200154,37.93807,6306.885633600001,-84.219,-16.712,119.447,1.0
12.2166,128.200207,37.938043,6305.022696,-82.853,-16.739,119.617,1.0
12.2333,128.20026,37.938016,6303.1582344,-81.466,-16.768,119.779,1.0
12.25,128.200314,37.937989,6301.2913344,-80.067,-16.797,119.934,1.0
12.2666,128.200367,37.937962,6299.422605600001,-78.666,-16.821,120.083,1.0
12.2833,128.200421,37.937936,6297.552048,-77.262,-16.842,120.225,1.0
12.3,128.200474,37.937909,6295.6799664,-75.851,-16.861,120.361,1.0
12.3166,128.200528,37.937882,6293.806360800001,-74.431,-16.88,120.49,1.0
12.3333,128.200581,37.937855,6291.932145600001,-73.165,-16.912,120.609,1.0
12.35,128.200635,37.937828,6290.056711200001,-72.036,-16.956,120.717,1.0
12.3666,128.200688,37.937802,6288.1797528,-71.016,-17.002,120.819,1.0
12.3833,128.200742,37.937775,6286.30188,-70.078,-17.043,120.916,1.0
12.4,128.200796,37.937748,6284.422483200001,-69.193,-17.075,121.011,1.0
12.4166,128.20085,37.937722,6282.5418672000005,-68.332,-17.1,121.103,1.0
12.4333,128.200903,37.937695,6280.6594224,-67.472,-17.119,121.193,1.0
12.45,128.200957,37.937668,6278.7751488,-66.595,-17.135,121.278,1.0
12.4666,128.201011,37.937642,6276.8893512,-65.691,-17.15,121.36,1.0
12.4833,128.201065,37.937615,6275.0017248,-64.751,-17.164,121.439,1.0
12.5,128.201119,37.937589,6273.1119648,-63.774,-17.178,121.513,1.0
12.5166,128.201173,37.937562,6271.220376,-62.756,-17.192,121.584,1.0
12.5333,128.201227,37.937535,6269.3266536,-61.697,-17.205,121.653,1.0
12.55,128.201281,37.937509,6267.430797600001,-60.594,-17.219,121.719,1.0
12.5666,128.201335,37.937482,6265.532808,-59.448,-17.232,121.783,1.0
12.5833,128.201389,37.937456,6263.6326848,-58.255,-17.245,121.846,1.0
12.6,128.201443,37.937429,6261.7301232,-57.015,-17.259,121.907,1.0
12.6166,128.201497,37.937402,6259.8251232,-55.725,-17.273,121.966,1.0
12.6333,128.201551,37.937376,6257.9176848,-54.385,-17.287,122.024,1.0
12.65,128.201606,37.937349,6256.007808,-52.993,-17.301,122.082,1.0
12.6666,128.20166,37.937323,6254.095492800001,-51.546,-17.316,122.138,1.0
12.6833,128.201714,37.937296,6252.180129599999,-50.045,-17.332,122.194,1.0
12.7,128.201768,37.937269,6250.262328000001,-48.487,-17.349,122.249,1.0
12.7166,128.201822,37.937243,6248.341478400001,-46.87,-17.367,122.304,1.0
12.7333,128.201877,37.937216,6246.4178856,-45.194,-17.385,122.359,1.0
12.75,128.201931,37.937189,6244.4912448000005,-43.458,-17.406,122.413,1.0
12.7666,128.201985,37.937163,6242.561251200001,-41.659,-17.427,122.467,1.0
12.7833,128.202039,37.937136,6240.6285144,-39.8,-17.45,122.52,1.0
12.8,128.202094,37.937109,6238.6930344,-37.882,-17.475,122.573,1.0
12.8166,128.202148,37.937082,6236.754201600001,-35.909,-17.503,122.625,1.0
12.8333,128.202202,37.937056,6234.8123208,-33.883,-17.532,122.676,1.0
12.85,128.202257,37.937029,6232.867696800001,-31.806,-17.565,122.726,1.0
12.8666,128.202311,37.937002,6230.920024800001,-29.681,-17.599,122.776,1.0
12.8833,128.202365,37.936975,6228.969304800001,-27.51,-17.636,122.824,1.0
12.9,128.20242,37.936949,6227.0155368000005,-25.295,-17.675,122.871,1.0
12.9166,128.202474,37.936922,6225.0590256,-23.037,-17.717,122.917,1.0
12.9333,128.202529,37.936895,6223.0994664,-20.739,-17.761,122.962,1.0
12.95,128.202583,37.936868,6221.137164000001,-18.403,-17.808,123.005,1.0
12.9666,128.202638,37.936841,6219.1718136,-16.028,-17.856,123.047,1.0
12.9833,128.202692,37.936814,6217.203415200001,-13.618,-17.908,123.087,1.0
13.0,128.202747,37.936788,6215.232273600001,-11.173,-17.961,123.125,1.0
13.0166,128.202801,37.936761,6213.2583888,-8.694,-18.017,123.16,1.0
13.0333,128.202856,37.936734,6211.281456000001,-6.183,-18.074,123.194,1.0
13.0499,128.20291,37.936707,6209.3014752,-3.641,-18.134,123.226,1.0
13.0666,128.202965,37.93668,6207.3187512,-1.068,-18.195,123.254,1.0
13.0833,128.203019,37.936653,6205.333284000001,1.533,-18.259,123.281,1.0
13.1,128.203074,37.936626,6203.344768800001,4.163,-18.323,123.304,1.0
13.1166,128.203128,37.936599,6201.3535104,6.821,-18.389,123.325,1.0
13.1333,128.203183,37.936572,6199.3595088,9.506,-18.453,123.344,1.0
13.15,128.203238,37.936545,6197.3630688,12.217,-18.503,123.362,1.0
13.1666,128.203292,37.936518,6195.364190400001,14.951,-18.531,123.384,1.0
13.1833,128.203347,37.936491,6193.363178400001,17.707,-18.533,123.412,1.0
13.2,128.203402,37.936464,6191.360337600001,20.484,-18.509,123.448,1.0
13.2166,128.203456,37.936437,6189.3559728,23.277,-18.46,123.495,1.0
13.2333,128.203511,37.93641,6187.3513032,26.067,-18.389,123.552,1.0
13.25,128.203566,37.936383,6185.346633600001,28.833,-18.297,123.62,1.0
13.2666,128.20362,37.936356,6183.342878400001,31.553,-18.186,123.7,1.0
13.2833,128.203675,37.936329,6181.340647200001,34.21,-18.058,123.794,1.0
13.3,128.20373,37.936302,6179.3402448,36.785,-17.916,123.904,1.0
13.3166,128.203785,37.936274,6177.3428904,39.266,-17.762,124.031,1.0
13.3333,128.203839,37.936247,6175.348584000001,41.643,-17.598,124.176,1.0
13.35,128.203894,37.93622,6173.3579352,43.909,-17.427,124.339,1.0
13.3666,128.203949,37.936192,6171.370944,46.06,-17.251,124.52,1.0
13.3833,128.204003,37.936165,6169.387610400001,48.095,-17.071,124.719,1.0
13.4,128.204058,37.936137,6167.408544,50.013,-16.891,124.935,1.0
13.4166,128.204113,37.936109,6165.43344,51.819,-16.712,125.166,1.0
13.4333,128.204167,37.936082,6163.4626032,53.514,-16.534,125.411,1.0
13.45,128.204222,37.936054,6161.4960336,55.104,-16.36,125.669,1.0
13.4666,128.204276,37.936026,6159.5334264,56.593,-16.191,125.939,1.0
13.4833,128.204331,37.935998,6157.5753912,57.989,-16.027,126.218,1.0
13.5,128.204385,37.93597,6155.621318400001,59.296,-15.869,126.506,1.0
13.5166,128.20444,37.935942,6153.671208,60.521,-15.718,126.801,1.0
13.5333,128.204494,37.935914,6151.7253648000005,61.67,-15.574,127.101,1.0
13.55,128.204548,37.935885,6149.7834840000005,62.748,-15.437,127.406,1.0
13.5666,128.204603,37.935857,6147.845565600001,63.762,-15.307,127.714,1.0
13.5833,128.204657,37.935828,6145.911609600001,64.716,-15.185,128.025,1.0
13.6,128.204711,37.935799,6143.981311200001,65.615,-15.069,128.338,1.0
13.6166,128.204765,37.935771,6142.054670400001,66.464,-14.961,128.65,1.0
13.6333,128.204819,37.935742,6140.1319920000005,67.268,-14.862,128.959,1.0
13.65,128.204873,37.935713,6138.2129712,68.03,-14.771,129.261,1.0
13.6666,128.204927,37.935684,6136.2969984,68.756,-14.69,129.555,1.0
13.6833,128.20498,37.935654,6134.384683200001,69.446,-14.616,129.841,1.0
13.7,128.205034,37.935625,6132.4757208,70.104,-14.551,130.12,1.0
13.7166,128.205087,37.935595,6130.570111200001,70.732,-14.492,130.393,1.0
13.7333,128.205141,37.935566,6128.6675496,71.332,-14.439,130.66,1.0
13.75,128.205194,37.935536,6126.768036,71.906,-14.393,130.921,1.0
13.7666,128.205248,37.935506,6124.871265600001,72.456,-14.351,131.178,1.0
13.7833,128.205301,37.935476,6122.9775432,72.982,-14.314,131.431,1.0
13.8,128.205354,37.935446,6121.086564,73.487,-14.282,131.679,1.0
13.8166,128.205407,37.935415,6119.198328,73.971,-14.254,131.924,1.0
13.8333,128.20546,37.935385,6117.3125304,74.436,-14.229,132.165,1.0
13.85,128.205512,37.935354,6115.4291712,74.883,-14.208,132.402,1.0
13.8666,128.205565,37.935324,6113.5482504,75.312,-14.19,132.637,1.0
13.8833,128.205618,37.935293,6111.6694632,75.726,-14.176,132.87,1.0
13.9,128.20567,37.935262,6109.7931144,76.123,-14.164,133.099,1.0
13.9166,128.205722,37.935231,6107.9185944,76.506,-14.154,133.327,1.0
13.9333,128.205775,37.9352,6106.046208,76.875,-14.147,133.552,1.0
13.95,128.205827,37.935168,6104.1756504,77.231,-14.143,133.775,1.0
13.9666,128.205879,37.935137,6102.3069216,77.675,-14.15,133.998,1.0
13.9833,128.205931,37.935105,6100.4397168,78.202,-14.17,134.222,1.0
14.0,128.205982,37.935074,6098.5731216,78.799,-14.195,134.444,1.0
14.0166,128.206034,37.935042,6096.7074408,79.454,-14.221,134.665,1.0
14.0333,128.206086,37.93501,6094.842064800001,80.146,-14.243,134.882,1.0
14.05,128.206137,37.934978,6092.977908,80.857,-14.263,135.098,1.0
14.0666,128.206188,37.934946,6091.114056,81.567,-14.281,135.312,1.0
14.0833,128.20624,37.934914,6089.2511184,82.261,-14.299,135.524,1.0
14.1,128.206291,37.934881,6087.3884856,82.927,-14.318,135.735,1.0
14.1166,128.206342,37.934849,6085.5264624,83.556,-14.339,135.946,1.0
14.1333,128.206392,37.934816,6083.6644392,84.146,-14.361,136.157,1.0
14.15,128.206443,37.934783,6081.802720799999,84.694,-14.386,136.368,1.0
14.1666,128.206493,37.93475,6079.940697600001,85.2,-14.413,136.579,1.0
14.1833,128.206544,37.934717,6078.078369600001,85.665,-14.443,136.79,1.0
14.2,128.206594,37.934684,6076.216041600001,86.092,-14.475,137.002,1.0
14.2166,128.206644,37.93465,6074.3527992,86.482,-14.509,137.214,1.0
14.2333,128.206694,37.934617,6072.489252000001,86.84,-14.545,137.426,1.0
14.25,128.206744,37.934583,6070.6247904,87.168,-14.583,137.639,1.0
14.2666,128.206794,37.93455,6068.7594144,87.468,-14.623,137.851,1.0
14.2833,128.206843,37.934516,6066.893124,87.744,-14.665,138.062,1.0
14.3,128.206892,37.934482,6065.0259192,87.997,-14.708,138.274,1.0
14.3166,128.206942,37.934448,6063.1574952,88.231,-14.752,138.485,1.0
14.3333,128.206991,37.934413,6061.287852,88.447,-14.797,138.695,1.0
14.35,128.20704,37.934379,6059.4169896,88.648,-14.843,138.905,1.0
14.3666,128.207089,37.934345,6057.5446032,88.834,-14.89,139.114,1.0
14.3833,128.207137,37.93431,6055.6706928,89.009,-14.937,139.322,1.0
