Time,Longitude,Latitude,Altitude,Roll (deg),Pitch (deg),Yaw (deg),Health
0.0,128.181881,37.923646,7000.146528,0.0,-0.003,0.0,1.0
0.0166,128.181881,37.923691,7000.1605488000005,0.0,-0.012,0.0,1.0
0.0333,128.181881,37.923736,7000.173960000001,0.0,-0.025,0.0,1.0
0.05,128.181881,37.923781,7000.186152000001,0.0,-0.039,0.0,1.0
0.0666,128.181881,37.923826,7000.1977344,0.0,-0.054,0.0,1.0
0.0833,128.181881,37.923871,7000.2084024,0.0,-0.069,359.999,1.0
0.1,128.181881,37.923916,7000.218156000001,0.0,-0.085,359.999,1.0
0.1166,128.181881,37.923961,7000.2273000000005,0.0,-0.099,359.999,1.0
0.1333,128.181881,37.924006,7000.235224800001,0.0,-0.112,359.999,1.0
0.15,128.181881,37.924051,7000.24254,0.0,-0.125,359.999,1.0
0.1666,128.181881,37.924096,7000.2489408,0.0,-0.136,359.999,1.0
0.1833,128.181881,37.924141,7000.2544272000005,0.0,-0.146,0.0,1.0
0.2,128.181881,37.924186,7000.2589992,0.0,-0.155,0.0,1.0
0.2166,128.181881,37.924231,7000.2626568000005,0.0,-0.163,0.0,1.0
0.2333,128.181881,37.924276,7000.2657048,0.0,-0.17,0.0,1.0
0.25,128.181881,37.924321,7000.267838400001,0.0,-0.176,0.0,1.0
0.2666,128.181881,37.924366,7000.2690575999995,0.0,-0.181,0.0,1.0
0.2833,128.181881,37.924411,7000.2696672,0.0,-0.186,0.0,1.0
0.3,128.181881,37.924456,7000.2690575999995,0.0,-0.19,0.0,1.0
0.3166,128.181881,37.924501,7000.267838400001,0.0,-0.195,0.0,1.0
0.3333,128.181881,37.924546,7000.266009600001,0.0,-0.199,0.0,1.0
0.35,128.181881,37.924591,7000.2632664,0.0,-0.202,0.0,1.0
0.3666,128.181881,37.924636,7000.2596088,0.001,-0.206,0.0,1.0
0.3833,128.181881,37.924682,7000.255341600001,0.001,-0.21,0.0,1.0
0.4,128.181881,37.924727,7000.2501600000005,0.001,-0.214,0.0,1.0
0.4166,128.181881,37.924772,7000.2443688,0.001,-0.217,0.0,1.0
0.4333,128.181881,37.924817,7000.2376632000005,0.001,-0.221,0.0,1.0
0.45,128.181881,37.924862,7000.2300432,0.001,-0.225,0.0,1.0
0.4666,128.181881,37.924907,7000.2218136,0.002,-0.229,0.0,1.0
0.4833,128.181881,37.924952,7000.2129744,0.002,-0.233,0.0,1.0
0.5,128.181881,37.924998,7000.2032208,0.002,-0.238,0.001,1.0
0.5166,128.181881,37.925043,7000.1928576,0.002,-0.242,0.001,1.0
0.5333,128.181881,37.925088,7000.1818848,0.002,-0.246,0.001,1.0
0.55,128.181881,37.925133,7000.169997600001,0.002,-0.251,0.001,1.0
0.5666,128.181881,37.925179,7000.157500800001,0.003,-0.255,0.001,1.0
0.5833,128.181881,37.925224,7000.1440896,0.003,-0.26,0.001,1.0
0.6,128.181881,37.925269,7000.1300688,0.003,-0.264,0.001,1.0
0.6166,128.181881,37.925314,7000.115438400001,0.003,-0.269,0.001,1.0
0.6333,128.181881,37.92536,7000.1001984,0.003,-0.273,0.001,1.0
0.65,128.181881,37.925405,7000.084044,0.003,-0.278,0.0,1.0
0.6666,128.181881,37.92545,7000.06728,0.003,-0.282,0.0,1.0
0.6833,128.181881,37.925495,7000.0499064000005,0.003,-0.287,0.001,1.0
0.7,128.181881,37.925541,7000.0316184,0.003,-0.291,0.001,1.0
0.7166,128.181881,37.925586,7000.012720799999,0.004,-0.295,0.001,1.0
0.7333,128.181881,37.925631,6999.993213600001,0.004,-0.3,0.001,1.0
0.75,128.181881,37.925677,6999.9730968,0.007,-0.305,0.002,1.0
0.7666,128.181881,37.925722,6999.9520656,0.011,-0.31,0.003,1.0
0.7833,128.181881,37.925767,6999.930120000001,0.017,-0.316,0.004,1.0
0.8,128.181881,37.925813,6999.907869600001,0.023,-0.321,0.005,1.0
0.8166,128.181881,37.925858,6999.885009600001,0.029,-0.326,0.006,1.0
0.8333,128.181881,37.925903,6999.86154,0.034,-0.33,0.006,1.0
0.85,128.181881,37.925949,6999.837765600001,0.034,-0.335,0.005,1.0
0.8666,128.181881,37.925994,6999.813991200001,0.025,-0.34,0.003,1.0
0.8833,128.181881,37.92604,6999.7902168,0.002,-0.346,0.0,1.0
0.9,128.181881,37.926085,6999.7652232,-0.025,-0.352,359.996,1.0
0.9166,128.181881,37.92613,6999.7402296,-0.059,-0.358,359.992,1.0
0.9333,128.181881,37.926176,6999.7146264,-0.099,-0.366,359.988,1.0
0.95,128.181881,37.926221,6999.6890232000005,-0.147,-0.373,359.983,1.0
0.9666,128.181881,37.926267,6999.662810400001,-0.202,-0.381,359.978,1.0
0.9833,128.181881,37.926312,6999.636292800001,-0.264,-0.389,359.972,1.0
1.0,128.181881,37.926358,6999.609470400001,-0.335,-0.396,359.966,1.0
1.0166,128.181881,37.926403,6999.5823432,-0.412,-0.404,359.96,1.0
1.0333,128.181881,37.926449,6999.554606400001,-0.496,-0.412,359.954,1.0
1.05,128.181881,37.926494,6999.5265648,-0.587,-0.42,359.947,1.0
1.0666,128.181881,37.92654,6999.496999200001,-0.575,-0.432,359.944,1.0
1.0833,128.181881,37.926585,6999.4662144,-0.462,-0.449,359.945,1.0
1.1,128.181881,37.926631,6999.433296,-0.247,-0.47,359.948,1.0
1.1166,128.181881,37.926676,6999.400377600001,-0.129,-0.492,359.938,1.0
1.1333,128.181881,37.926722,6999.3668496,-0.102,-0.515,359.916,1.0
1.15,128.181881,37.926767,6999.3330168,-0.17,-0.538,359.887,1.0
1.1666,128.181881,37.926813,6999.2994888,-0.336,-0.562,359.854,1.0
1.1833,128.181881,37.926858,6999.266570400001,-0.599,-0.584,359.82,1.0
1.2,128.181881,37.926904,6999.2345663999995,-0.958,-0.607,359.786,1.0
1.2166,128.181881,37.926949,6999.2034768,-1.409,-0.628,359.753,1.0
1.2333,128.181881,37.926995,6999.174215999999,-1.948,-0.648,359.72,1.0
1.25,128.181881,37.927041,6999.1467840000005,-2.573,-0.668,359.689,1.0
1.2666,128.181881,37.927086,6999.121485600001,-3.28,-0.687,359.659,1.0
1.2833,128.181881,37.927132,6999.0983208,-4.064,-0.704,359.629,1.0
1.3,128.181881,37.927177,6999.0772896,-4.923,-0.721,359.601,1.0
1.3166,128.181881,37.927223,6999.058392000001,-5.854,-0.737,359.574,1.0
1.3333,128.181881,37.927269,6999.0413232,-6.853,-0.753,359.547,1.0
1.35,128.181881,37.927314,6999.0260832,-7.917,-0.767,359.522,1.0
1.3666,128.181881,37.92736,6999.012976800001,-9.045,-0.781,359.497,1.0
1.3833,128.181881,37.927405,6999.0016992,-10.232,-0.795,359.474,1.0
1.4,128.181881,37.927451,6998.992250400001,-11.476,-0.808,359.451,1.0
1.4166,128.181881,37.927497,6998.9846304,-12.775,-0.821,359.428,1.0
1.4333,128.181881,37.927542,6998.9785344,-14.127,-0.833,359.407,1.0
1.45,128.181881,37.927588,6998.9742672,-15.528,-0.845,359.387,1.0
1.4666,128.181881,37.927633,6998.9715240000005,-16.977,-0.857,359.367,1.0
1.4833,128.18188,37.927679,6998.9703048,-18.472,-0.868,359.348,1.0
1.5,128.18188,37.927725,6998.970914400001,-20.01,-0.88,359.329,1.0
1.5166,128.18188,37.92777,6998.9727432,-21.59,-0.892,359.312,1.0
1.5333,128.18188,37.927816,6998.976096,-23.21,-0.903,359.295,1.0
1.55,128.18188,37.927862,6998.9809728,-24.867,-0.915,359.279,1.0
1.5666,128.18188,37.927907,6998.9870688,-26.56,-0.927,359.264,1.0
1.5833,128.181879,37.927953,6998.994079200001,-28.285,-0.939,359.249,1.0
1.6,128.181879,37.927998,6999.0013944,-30.033,-0.95,359.236,1.0
1.6166,128.181879,37.928044,6999.009624,-31.794,-0.962,359.225,1.0
1.6333,128.181878,37.92809,6999.0175488,-33.561,-0.973,359.216,1.0
1.65,128.181878,37.928135,6999.0257784000005,-35.327,-0.984,359.209,1.0
1.6666,128.181878,37.928181,6999.0340080000005,-37.088,-0.995,359.203,1.0
1.6833,128.181877,37.928227,6999.041628000001,-38.837,-1.005,359.199,1.0
1.7,128.181877,37.928272,6999.049248,-40.571,-1.015,359.196,1.0
1.7166,128.181877,37.928318,6999.0559536,-42.287,-1.025,359.194,1.0
1.7333,128.181876,37.928364,6999.0620496,-43.981,-1.035,359.194,1.0
1.75,128.181876,37.928409,6999.0675360000005,-45.652,-1.044,359.194,1.0
1.7666,128.181875,37.928455,6999.072108,-47.296,-1.054,359.196,1.0
1.7833,128.181875,37.928501,6999.0757656000005,-48.913,-1.063,359.198,1.0
1.8,128.181874,37.928547,6999.078204,-50.501,-1.073,359.201,1.0
1.8166,128.181874,37.928592,6999.079728000001,-52.058,-1.082,359.204,1.0
1.8333,128.181873,37.928638,6999.079728000001,-53.584,-1.091,359.208,1.0
1.85,128.181872,37.928684,6999.0785088,-55.076,-1.1,359.213,1.0
1.8666,128.181872,37.92873,6999.0757656000005,-56.532,-1.108,359.218,1.0
1.8833,128.181871,37.928775,6999.0714984,-57.953,-1.116,359.223,1.0
1.9,128.18187,37.928821,6999.0654024,-59.336,-1.125,359.229,1.0
1.9166,128.18187,37.928867,6999.0577824,-60.679,-1.132,359.235,1.0
1.9333,128.181869,37.928913,6999.048333600001,-61.982,-1.14,359.242,1.0
1.95,128.181868,37.928958,6999.0367512,-63.241,-1.147,359.248,1.0
1.9666,128.181867,37.929004,6999.02334,-64.457,-1.153,359.255,1.0
1.9833,128.181867,37.92905,6999.0077952,-65.626,-1.16,359.263,1.0
2.0,128.181866,37.929096,6998.9901168,-66.746,-1.166,359.27,1.0
2.0166,128.181865,37.929142,6998.97,-67.817,-1.171,359.278,1.0
2.0333,128.181864,37.929187,6998.9477496,-68.835,-1.176,359.286,1.0
2.05,128.181863,37.929233,6998.923060800001,-69.798,-1.181,359.293,1.0
2.0666,128.181863,37.929279,6998.895933600001,-70.704,-1.185,359.301,1.0
2.0833,128.181862,37.929325,6998.8660632,-71.551,-1.189,359.31,1.0
2.1,128.181861,37.929371,6998.8337544000005,-72.335,-1.193,359.318,1.0
2.1166,128.18186,37.929417,6998.7983976000005,-72.98,-1.191,359.328,1.0
2.1333,128.181859,37.929463,6998.760297600001,-73.491,-1.185,359.339,1.0
2.15,128.181858,37.929509,6998.718844800001,-73.869,-1.177,359.351,1.0
2.1666,128.181858,37.929555,6998.6746488,-74.118,-1.168,359.364,1.0
2.1833,128.181857,37.9296,6998.6274048000005,-74.242,-1.16,359.376,1.0
2.2,128.181856,37.929646,6998.576808,-74.246,-1.151,359.389,1.0
2.2166,128.181855,37.929692,6998.522858400001,-74.135,-1.142,359.403,1.0
2.2333,128.181854,37.929738,6998.465860800001,-73.916,-1.134,359.416,1.0
2.25,128.181854,37.929784,6998.405510400001,-73.592,-1.124,359.431,1.0
2.2666,128.181853,37.92983,6998.342112,-73.224,-1.113,359.446,1.0
2.2833,128.181852,37.929877,6998.275665600001,-72.811,-1.1,359.462,1.0
2.3,128.181851,37.929923,6998.2080000000005,-72.496,-1.097,359.46,1.0
2.3166,128.181851,37.929969,6998.137896,-72.268,-1.102,359.426,1.0
2.3333,128.18185,37.930015,6998.0653536,-72.139,-1.104,359.348,1.0
2.35,128.181849,37.930061,6997.990982400001,-72.114,-1.095,359.216,1.0
2.3666,128.181848,37.930107,6997.9147824,-72.193,-1.068,359.02,1.0
2.3833,128.181847,37.930153,6997.8373632,-72.376,-1.019,358.754,1.0
2.4,128.181846,37.930199,6997.758420000001,-72.66,-0.948,358.415,1.0
2.4166,128.181845,37.930245,6997.6782576,-73.04,-0.859,358.017,1.0
2.4333,128.181844,37.930291,6997.5974856,-73.515,-0.756,357.57,1.0
2.45,128.181843,37.930337,6997.516104,-74.078,-0.646,357.091,1.0
2.4666,128.181842,37.930384,6997.434112800001,-74.728,-0.535,356.597,1.0
2.4833,128.181841,37.93043,6997.3518168,-75.458,-0.428,356.105,1.0
2.5,128.181839,37.930476,6997.269216,-76.266,-0.331,355.631,1.0
2.5166,128.181838,37.930522,6997.186615200001,-77.147,-0.249,355.193,1.0
2.5333,128.181836,37.930568,6997.1034048,-78.099,-0.184,354.806,1.0
2.55,128.181834,37.930614,6997.0201944,-79.117,-0.141,354.488,1.0
2.5666,128.181832,37.93066,6996.9360696,-80.199,-0.119,354.253,1.0
2.5833,128.181831,37.930706,6996.8510304,-81.342,-0.121,354.115,1.0
2.6,128.181828,37.930752,6996.7653816,-82.546,-0.14,354.06,1.0
2.6166,128.181826,37.930798,6996.6782088,-83.81,-0.172,354.072,1.0
2.6333,128.181824,37.930845,6996.5898168,-85.132,-0.213,354.136,1.0
2.65,128.181821,37.930891,6996.499596000001,-86.513,-0.259,354.235,1.0
2.6666,128.181819,37.930937,6996.407546400001,-87.953,-0.307,354.354,1.0
2.6833,128.181816,37.930983,6996.3130584,-89.453,-0.355,354.476,1.0
2.7,128.181814,37.931029,6996.2164368,-91.012,-0.402,354.585,1.0
2.7166,128.181811,37.931075,6996.117072,-92.629,-0.448,354.665,1.0
2.7333,128.181808,37.931121,6996.014964000001,-94.305,-0.495,354.706,1.0
2.75,128.181805,37.931167,6995.909808,-96.038,-0.544,354.707,1.0
2.7666,128.181802,37.931213,6995.8012992,-97.826,-0.596,354.672,1.0
2.7833,128.181798,37.931259,6995.6891328,-99.668,-0.652,354.604,1.0
2.8,128.181795,37.931305,6995.573308800001,-101.561,-0.715,354.505,1.0
2.8166,128.181792,37.931351,6995.4535224,-103.503,-0.787,354.377,1.0
2.8333,128.181788,37.931397,6995.329164000001,-105.487,-0.867,354.224,1.0
2.85,128.181785,37.931443,6995.200538400001,-107.491,-0.957,354.047,1.0
2.8666,128.181781,37.93149,6995.0673408,-109.491,-1.058,353.847,1.0
2.8833,128.181777,37.931536,6994.9292663999995,-111.467,-1.17,353.626,1.0
2.9,128.181773,37.931582,6994.786315200001,-113.4,-1.295,353.386,1.0
2.9166,128.181769,37.931628,6994.638182400001,-115.275,-1.434,353.128,1.0
2.9333,128.181765,37.931674,6994.484563200001,-117.076,-1.587,352.854,1.0
2.95,128.181761,37.93172,6994.3254576,-118.793,-1.756,352.566,1.0
2.9666,128.181757,37.931766,6994.161170400001,-120.418,-1.942,352.266,1.0
2.9833,128.181753,37.931812,6993.9907872,-121.942,-2.145,351.956,1.0
3.0,128.181748,37.931858,6993.814308,-123.362,-2.364,351.636,1.0
3.0166,128.181744,37.931904,6993.6320376,-124.672,-2.598,351.312,1.0
3.0333,128.18174,37.93195,6993.4436712,-125.872,-2.841,350.992,1.0
3.05,128.181735,37.931996,6993.2492088,-126.961,-3.09,350.68,1.0
3.0666,128.18173,37.932042,6993.0480408,-127.94,-3.342,350.38,1.0
3.0833,128.181726,37.932088,6992.8398624,-128.862,-3.596,350.097,1.0
3.1,128.181721,37.932134,6992.6246736,-129.707,-3.85,349.83,1.0
3.1166,128.181716,37.93218,6992.402474400001,-130.458,-4.1,349.578,1.0
3.1333,128.181711,37.932226,6992.173264800001,-131.112,-4.345,349.341,1.0
3.15,128.181706,37.932272,6991.93674,-131.672,-4.585,349.118,1.0
3.1666,128.181701,37.932318,6991.693509600001,-132.132,-4.807,348.92,1.0
3.1833,128.181696,37.932365,6991.442964000001,-132.497,-5.0,348.757,1.0
3.2,128.181691,37.932411,6991.1851032,-132.781,-5.15,348.637,1.0
3.2166,128.181686,37.932457,6990.9205368,-132.988,-5.252,348.561,1.0
3.2333,128.18168,37.932503,6990.648655200001,-133.122,-5.307,348.528,1.0
3.25,128.181675,37.932549,6990.370068,-133.183,-5.319,348.538,1.0
3.2666,128.18167,37.932595,6990.0847752,-133.17,-5.295,348.584,1.0
3.2833,128.181664,37.932641,6989.794605600001,-133.259,-5.239,348.692,1.0
3.3,128.181659,37.932687,6989.4971208,-133.447,-5.16,348.851,1.0
3.3166,128.181653,37.932733,6989.1932352,-133.738,-5.065,349.044,1.0
3.3333,128.181647,37.932779,6988.8823392,-134.138,-4.961,349.256,1.0
3.35,128.181641,37.932826,6988.564737600001,-134.648,-4.857,349.472,1.0
3.3666,128.181636,37.932872,6988.2401256,-135.267,-4.754,349.686,1.0
3.3833,128.18163,37.932918,6987.908808,-135.996,-4.656,349.893,1.0
3.4,128.181624,37.932964,6987.57048,-136.831,-4.564,350.091,1.0
3.4166,128.181618,37.93301,6987.225141600001,-137.771,-4.478,350.279,1.0
3.4333,128.181612,37.933056,6986.873097600001,-138.813,-4.399,350.455,1.0
3.45,128.181606,37.933102,6986.513738400001,-139.954,-4.326,350.621,1.0
3.4666,128.1816,37.933148,6986.147368800001,-141.192,-4.261,350.776,1.0
3.4833,128.181594,37.933195,6985.7739888,-142.524,-4.202,350.92,1.0
3.5,128.181587,37.933241,6985.3929888,-143.947,-4.149,351.054,1.0
3.5166,128.181581,37.933287,6985.0049784,-145.458,-4.104,351.178,1.0
3.5333,128.181575,37.933333,6984.609348,-147.054,-4.064,351.293,1.0
3.55,128.181569,37.933379,6984.2064024,-148.734,-4.031,351.399,1.0
3.5666,128.181562,37.933425,6983.795532,-150.492,-4.004,351.497,1.0
3.5833,128.181556,37.933471,6983.3776512,-152.327,-3.982,351.587,1.0
3.6,128.181549,37.933517,6982.9524552,-154.235,-3.967,351.67,1.0
3.6166,128.181543,37.933563,6982.5205536,-156.213,-3.957,351.746,1.0
3.6333,128.181536,37.933609,6982.081336800001,-158.258,-3.96,351.813,1.0
3.65,128.18153,37.933656,6981.635414400001,-160.368,-3.982,351.869,1.0
3.6666,128.181523,37.933702,6981.1821768,-162.539,-4.026,351.916,1.0
3.6833,128.181517,37.933748,6980.7222336,-164.769,-4.094,351.954,1.0
3.7,128.18151,37.933794,6980.25528,-167.056,-4.186,351.985,1.0
3.7166,128.181503,37.93384,6979.781316,-169.396,-4.303,352.011,1.0
3.7333,128.181497,37.933886,6979.3000368,-171.785,-4.443,352.033,1.0
3.75,128.18149,37.933932,6978.8117472,-174.222,-4.606,352.055,1.0
3.7666,128.181483,37.933978,6978.316142400001,-176.701,-4.79,352.079,1.0
3.7833,128.181477,37.934024,6977.8129176,-179.218,-4.996,352.106,1.0
3.8,128.18147,37.93407,6977.3032920000005,178.245,-5.221,352.138,1.0
3.8166,128.181463,37.934116,6976.7863512,175.708,-5.463,352.176,1.0
3.8333,128.181456,37.934162,6976.2627048,173.187,-5.723,352.221,1.0
3.85,128.18145,37.934208,6975.7326576,170.695,-5.997,352.275,1.0
3.8666,128.181443,37.934255,6975.1956,168.246,-6.286,352.339,1.0
3.8833,128.181436,37.934301,6974.651836800001,165.849,-6.587,352.416,1.0
3.9,128.18143,37.934347,6974.101368000001,163.513,-6.9,352.506,1.0
3.9166,128.181423,37.934393,6973.5438888,161.243,-7.222,352.61,1.0
3.9333,128.181416,37.934439,6972.9790944,159.043,-7.551,352.73,1.0
3.95,128.18141,37.934485,6972.4069848,156.914,-7.884,352.865,1.0
3.9666,128.181403,37.934531,6971.827255200001,154.857,-8.219,353.015,1.0
3.9833,128.181396,37.934577,6971.2399056,152.871,-8.552,353.18,1.0
4.0,128.18139,37.934623,6970.6443264,150.955,-8.88,353.357,1.0
4.0166,128.181383,37.93467,6970.039908,149.101,-9.201,353.547,1.0
4.0333,128.181376,37.934716,6969.4269552000005,147.303,-9.511,353.746,1.0
4.05,128.18137,37.934762,6968.805163200001,145.553,-9.807,353.953,1.0
4.0666,128.181363,37.934808,6968.1739224,143.844,-10.089,354.166,1.0
4.0833,128.181357,37.934854,6967.5332328,142.169,-10.355,354.385,1.0
4.1,128.18135,37.9349,6966.8827896,140.522,-10.604,354.606,1.0
4.1166,128.181344,37.934946,6966.222897600001,138.896,-10.837,354.829,1.0
4.1333,128.181338,37.934993,6965.553252000001,137.287,-11.053,355.054,1.0
4.15,128.181332,37.935039,6964.8738528,135.688,-11.254,355.278,1.0
4.1666,128.181325,37.935085,6964.1843952,134.097,-11.438,355.502,1.0
4.1833,128.181319,37.935131,6963.4854888,132.51,-11.608,355.725,1.0
4.2,128.181313,37.935177,6962.776524000001,130.922,-11.764,355.946,1.0
4.2166,128.181307,37.935223,6962.0581104,129.332,-11.906,356.165,1.0
4.2333,128.181302,37.93527,6961.330248,127.737,-12.034,356.383,1.0
4.25,128.181296,37.935316,6960.592936800001,126.134,-12.151,356.598,1.0
4.2666,128.18129,37.935362,6959.846176800001,124.522,-12.255,356.81,1.0
4.2833,128.181285,37.935408,6959.090577600001,122.899,-12.349,357.02,1.0
4.3,128.181279,37.935454,6958.3273584,121.422,-12.43,357.21,1.0
4.3166,128.181274,37.9355,6957.5562144000005,120.086,-12.493,357.365,1.0
4.3333,128.181268,37.935547,6956.777755200001,118.893,-12.531,357.472,1.0
4.35,128.181263,37.935593,6955.9928952,117.843,-12.535,357.52,1.0
4.3666,128.181258,37.935639,6955.201634399999,116.932,-12.502,357.493,1.0
4.3833,128.181253,37.935685,6954.4045824,116.149,-12.445,357.405,1.0
4.4,128.181247,37.935731,6953.6017392,115.484,-12.372,357.273,1.0
4.4166,128.181242,37.935778,6952.793409600001,114.932,-12.291,357.112,1.0
4.4333,128.181237,37.935824,6951.9802032,114.486,-12.208,356.939,1.0
4.45,128.181232,37.93587,6951.162120000001,114.138,-12.131,356.771,1.0
4.4666,128.181227,37.935916,6950.33916,113.887,-12.061,356.612,1.0
4.4833,128.181222,37.935963,6949.511932800001,113.728,-11.997,356.465,1.0
4.5,128.181218,37.936009,6948.6807432,113.66,-11.939,356.327,1.0
4.5166,128.181213,37.936055,6947.8452864,113.679,-11.886,356.2,1.0
4.5333,128.181208,37.936102,6947.0058672000005,113.784,-11.838,356.081,1.0
4.55,128.181203,37.936148,6946.1624856,113.971,-11.795,355.971,1.0
4.5666,128.181198,37.936194,6945.315446400001,114.238,-11.754,355.868,1.0
4.5833,128.181193,37.936241,6944.4644448,114.583,-11.717,355.772,1.0
4.6,128.181188,37.936287,6943.609785600001,115.004,-11.682,355.682,1.0
4.6166,128.181183,37.936333,6942.751164,115.498,-11.65,355.597,1.0
4.6333,128.181178,37.93638,6941.8891896000005,116.063,-11.62,355.517,1.0
4.65,128.181173,37.936426,6941.0235576,116.698,-11.592,355.442,1.0
4.6666,128.181169,37.936473,6940.1545728,117.4,-11.565,355.371,1.0
4.6833,128.181164,37.936519,6939.2819304,118.167,-11.54,355.304,1.0
4.7,128.181159,37.936566,6938.4059352,118.997,-11.516,355.241,1.0
4.7166,128.181154,37.936612,6937.526587200001,119.889,-11.493,355.18,1.0
4.7333,128.181149,37.936659,6936.6438864,120.84,-11.471,355.122,1.0
4.75,128.181144,37.936705,6935.757832800001,121.849,-11.449,355.067,1.0
4.7666,128.181139,37.936752,6934.8687312,122.913,-11.428,355.014,1.0
4.7833,128.181134,37.936798,6933.9762768,124.033,-11.408,354.964,1.0
4.8,128.181129,37.936845,6933.0807744,125.204,-11.389,354.915,1.0
4.8166,128.181125,37.936892,6932.1819192,126.427,-11.369,354.869,1.0
4.8333,128.18112,37.936938,6931.2803208,127.7,-11.35,354.824,1.0
4.85,128.181115,37.936985,6930.3753696,129.02,-11.331,354.781,1.0
4.8666,128.18111,37.937031,6929.4676752,130.387,-11.313,354.739,1.0
4.8833,128.181105,37.937078,6928.5569328,131.8,-11.294,354.699,1.0
4.9,128.1811,37.937125,6927.643142400001,133.256,-11.276,354.659,1.0
4.9166,128.181095,37.937171,6926.726608800001,134.754,-11.257,354.622,1.0
4.9333,128.18109,37.937218,6925.807332,136.294,-11.239,354.585,1.0
4.95,128.181085,37.937265,6924.885312,137.873,-11.22,354.549,1.0
4.9666,128.18108,37.937312,6923.9605488,139.491,-11.202,354.515,1.0
4.9833,128.181075,37.937358,6923.0330424,141.147,-11.183,354.482,1.0
5.0,128.18107,37.937405,6922.1003544000005,142.631,-11.164,354.476,1.0
5.0166,128.181065,37.937452,6921.1643136,143.949,-11.157,354.507,1.0
5.0333,128.18106,37.937499,6920.223396,145.095,-11.181,354.578,1.0
5.05,128.181055,37.937546,6919.277601600001,146.067,-11.252,354.689,1.0
5.0666,128.18105,37.937592,6918.326016,146.864,-11.381,354.843,1.0
5.0833,128.181045,37.937639,6917.3680296,147.49,-11.575,355.039,1.0
5.1,128.18104,37.937686,6916.4036424000005,147.95,-11.823,355.266,1.0
5.1166,128.181035,37.937733,6915.4316352,148.253,-12.114,355.517,1.0
5.1333,128.18103,37.93778,6914.4517032,148.408,-12.432,355.78,1.0
5.15,128.181026,37.937826,6913.4632368,148.423,-12.761,356.047,1.0
5.1666,128.181021,37.937873,6912.4659312,148.307,-13.085,356.308,1.0
5.1833,128.181016,37.93792,6911.458872,148.069,-13.396,356.559,1.0
5.2,128.181012,37.937967,6910.4414496,147.716,-13.694,356.8,1.0
5.2166,128.181007,37.938014,6909.413359200001,147.254,-13.978,357.033,1.0
5.2333,128.181002,37.93806,6908.3739912,146.688,-14.249,357.258,1.0
5.25,128.180998,37.938107,6907.3230408,146.025,-14.508,357.477,1.0
5.2666,128.180994,37.938154,6906.2598984,145.269,-14.755,357.691,1.0
5.2833,128.180989,37.938201,6905.1842592,144.425,-14.992,357.902,1.0
5.3,128.180985,37.938248,6904.096428000001,143.496,-15.219,358.11,1.0
5.3166,128.180981,37.938294,6902.9967096,142.493,-15.437,358.317,1.0
5.3333,128.180977,37.938341,6901.8854088,141.433,-15.648,358.522,1.0
5.35,128.180973,37.938388,6900.7622208,140.329,-15.852,358.727,1.0
5.3666,128.180969,37.938434,6899.628060000001,139.194,-16.05,358.931,1.0
5.3833,128.180965,37.938481,6898.4826216,138.038,-16.242,359.135,1.0
5.4,128.180961,37.938528,6897.3262104000005,136.869,-16.428,359.34,1.0
5.4166,128.180958,37.938575,6896.1585216,135.693,-16.607,359.547,1.0
5.4333,128.180954,37.938621,6894.97986,134.515,-16.78,359.754,1.0
5.45,128.18095,37.938668,6893.7905304,133.339,-16.946,359.962,1.0
5.4666,128.180947,37.938714,6892.590228000001,132.166,-17.105,0.171,1.0
5.4833,128.180944,37.938761,6891.3792576,131.0,-17.257,0.381,1.0
5.5,128.180941,37.938808,6890.1576192,129.84,-17.402,0.592,1.0
5.5166,128.180937,37.938854,6888.9256176,128.687,-17.54,0.804,1.0
5.5333,128.180934,37.938901,6887.682948,127.54,-17.67,1.016,1.0
5.55,128.180932,37.938948,6886.4299152,126.4,-17.793,1.228,1.0
5.5666,128.180929,37.938994,6885.166824000001,125.266,-17.909,1.44,1.0
5.5833,128.180926,37.939041,6883.893674400001,124.137,-18.018,1.651,1.0
5.6,128.180924,37.939087,6882.6122952000005,123.136,-18.125,1.838,1.0
5.6166,128.180921,37.939134,6881.3220768,122.263,-18.222,1.986,1.0
5.6333,128.180919,37.93918,6880.023628800001,121.524,-18.298,2.082,1.0
5.65,128.180916,37.939227,6878.7166464,120.927,-18.342,2.117,1.0
5.6666,128.180914,37.939274,6877.4026536,120.474,-18.343,2.076,1.0
5.6833,128.180912,37.93932,6876.0786024,119.975,-18.279,1.968,1.0
5.7,128.18091,37.939367,6874.747236,119.425,-18.16,1.809,1.0
5.7166,128.180908,37.939413,6873.4079448,118.807,-18.005,1.612,1.0
5.7333,128.180906,37.93946,6872.061033600001,118.108,-17.83,1.391,1.0
5.75,128.180904,37.939506,6870.7074168,117.317,-17.649,1.161,1.0
5.7666,128.180903,37.939553,6869.3464848,116.427,-17.475,0.94,1.0
5.7833,128.180901,37.939599,6867.978847200001,115.434,-17.317,0.745,1.0
5.8,128.1809,37.939646,6866.604808800001,114.34,-17.176,0.575,1.0
5.8166,128.180898,37.939692,6865.224064800001,113.148,-17.05,0.426,1.0
5.8333,128.180897,37.939739,6863.8372248000005,111.864,-16.936,0.296,1.0
5.85,128.180895,37.939785,6862.444288799999,110.491,-16.833,0.179,1.0
5.8666,128.180894,37.939832,6861.0458664,109.034,-16.74,0.074,1.0
5.8833,128.180893,37.939878,6859.6419576,107.497,-16.655,359.979,1.0
5.9,128.180892,37.939925,6858.2328672,105.883,-16.577,359.894,1.0
5.9166,128.180891,37.939972,6856.8185952,104.196,-16.505,359.817,1.0
5.9333,128.18089,37.940018,6855.400056,102.44,-16.44,359.747,1.0
5.95,128.180889,37.940065,6853.976944800001,100.618,-16.381,359.684,1.0
5.9666,128.180889,37.940111,6852.5495664,98.733,-16.326,359.628,1.0
5.9833,128.180888,37.940158,6851.1182256,96.789,-16.275,359.578,1.0
6.0,128.180887,37.940204,6849.6832272,94.789,-16.229,359.534,1.0
6.0166,128.180887,37.940251,6848.2445712,92.737,-16.186,359.494,1.0
6.0333,128.180886,37.940297,6846.8025624,90.635,-16.147,359.46,1.0
6.05,128.180886,37.940344,6845.357505600001,88.486,-16.11,359.429,1.0
6.0666,128.180886,37.94039,6843.9094008,86.294,-16.076,359.403,1.0
6.0833,128.180885,37.940437,6842.4585528,84.061,-16.044,359.38,1.0
6.1,128.180885,37.940483,6841.0052663999995,81.789,-16.014,359.359,1.0
6.1166,128.180885,37.94053,6839.5495416,79.48,-15.985,359.342,1.0
6.1333,128.180885,37.940576,6838.0916832,77.138,-15.958,359.326,1.0
6.15,128.180885,37.940623,6836.6316912,74.763,-15.932,359.312,1.0
6.1666,128.180885,37.940669,6835.1701752,72.36,-15.907,359.3,1.0
6.1833,128.180885,37.940716,6833.7068304,69.929,-15.883,359.289,1.0
6.2,128.180885,37.940763,6832.2422664,67.473,-15.861,359.279,1.0
6.2166,128.180885,37.940809,6830.7761784,64.994,-15.839,359.27,1.0
6.2333,128.180885,37.940856,6829.309176,62.494,-15.819,359.262,1.0
6.25,128.180885,37.940902,6827.8412592,59.975,-15.799,359.254,1.0
6.2666,128.180885,37.940949,6826.3727328,57.44,-15.781,359.247,1.0
6.2833,128.180886,37.940996,6824.903596800001,54.889,-15.764,359.239,1.0
6.3,128.180886,37.941042,6823.434156,52.325,-15.747,359.231,1.0
6.3166,128.180886,37.941089,6821.964410400001,49.75,-15.732,359.223,1.0
6.3333,128.180887,37.941135,6820.4946648000005,47.164,-15.719,359.215,1.0
6.35,128.180887,37.941182,6819.025224000001,44.57,-15.707,359.207,1.0
6.3666,128.180888,37.941229,6817.556088000001,41.969,-15.696,359.198,1.0
6.3833,128.180888,37.941275,6816.0875616,39.362,-15.687,359.189,1.0
6.4,128.180889,37.941322,6814.6196448,36.751,-15.679,359.18,1.0
6.4166,128.180889,37.941369,6813.1523376000005,34.137,-15.673,359.17,1.0
6.4333,128.18089,37.941416,6811.6862496,31.52,-15.669,359.159,1.0
6.45,128.18089,37.941462,6810.2213808,28.902,-15.666,359.149,1.0
6.4666,128.180891,37.941509,6808.7577312,26.284,-15.666,359.138,1.0
6.4833,128.180892,37.941556,6807.2956056,23.666,-15.667,359.128,1.0
6.5,128.180892,37.941603,6805.8346992,21.049,-15.67,359.117,1.0
6.5166,128.180893,37.94165,6804.3759264,18.434,-15.675,359.106,1.0
6.5333,128.180894,37.941696,6802.918677600001,15.821,-15.682,359.096,1.0
6.55,128.180895,37.941743,6801.4632576,13.211,-15.691,359.086,1.0
6.5666,128.180895,37.94179,6800.0099712,10.604,-15.701,359.076,1.0
6.5833,128.180896,37.941837,6798.5585136,8.0,-15.714,359.067,1.0
6.6,128.180897,37.941884,6797.1094944,5.4,-15.728,359.058,1.0
6.6166,128.180898,37.941931,6795.6626088,2.804,-15.744,359.05,1.0
6.6333,128.180898,37.941978,6794.217856800001,0.212,-15.761,359.043,1.0
6.65,128.180899,37.942025,6792.775543199999,-2.375,-15.78,359.037,1.0
6.6666,128.1809,37.942072,6791.3353632,-4.959,-15.8,359.032,1.0
6.6833,128.180901,37.942119,6789.8967072,-7.333,-15.819,359.054,1.0
6.7,128.180901,37.942166,6788.458965600001,-9.507,-15.836,359.103,1.0
6.7166,128.180902,37.942213,6787.021833600001,-11.472,-15.85,359.169,1.0
6.7333,128.180903,37.94226,6785.5853112,-13.222,-15.863,359.243,1.0
6.75,128.180903,37.942307,6784.1490936,-14.754,-15.876,359.319,1.0
6.7666,128.180904,37.942354,6782.7122664,-16.074,-15.887,359.393,1.0
6.7833,128.180905,37.942401,6781.2748296,-17.189,-15.898,359.465,1.0
6.8,128.180905,37.942448,6779.8364784000005,-18.109,-15.907,359.533,1.0
6.8166,128.180906,37.942495,6778.3962984,-18.844,-15.915,359.6,1.0
6.8333,128.180907,37.942542,6776.9545944,-19.403,-15.921,359.664,1.0
6.85,128.180907,37.942589,6775.510452,-19.795,-15.927,359.726,1.0
6.8666,128.180908,37.942636,6774.0638712,-20.026,-15.932,359.787,1.0
6.8833,128.180908,37.942684,6772.614242400001,-20.106,-15.936,359.845,1.0
6.9,128.180909,37.942731,6771.1612608000005,-20.04,-15.94,359.902,1.0
6.9166,128.18091,37.942778,6769.7046216,-19.837,-15.945,359.958,1.0
6.9333,128.18091,37.942825,6768.244020000001,-19.502,-15.949,0.012,1.0
6.95,128.180911,37.942872,6766.7791512,-19.041,-15.955,0.065,1.0
6.9666,128.180912,37.94292,6765.309405600001,-18.462,-15.961,0.116,1.0
6.9833,128.180912,37.942967,6763.8356976000005,-17.768,-15.968,0.166,1.0
7.0,128.180913,37.943014,6762.3577224,-16.967,-15.976,0.215,1.0
7.0166,128.180913,37.943061,6760.8751752,-16.063,-15.986,0.262,1.0
7.0333,128.180914,37.943109,6759.388360800001,-15.062,-15.996,0.309,1.0
7.05,128.180915,37.943156,6757.8972792,-13.967,-16.008,0.354,1.0
7.0666,128.180915,37.943203,6756.4019304,-12.784,-16.022,0.398,1.0
7.0833,128.180916,37.943251,6754.9023144,-11.516,-16.037,0.441,1.0
7.1,128.180917,37.943298,6753.3984312,-10.168,-16.053,0.483,1.0
7.1166,128.180917,37.943345,6751.8902808,-8.745,-16.071,0.523,1.0
7.1333,128.180918,37.943393,6750.3778632,-7.248,-16.091,0.563,1.0
7.15,128.180919,37.94344,6748.8611784,-5.683,-16.112,0.601,1.0
7.1666,128.180919,37.943488,6747.340226400001,-4.052,-16.135,0.637,1.0
7.1833,128.18092,37.943535,6745.8150072,-2.358,-16.16,0.673,1.0
7.2,128.180921,37.943582,6744.2858256,-0.605,-16.186,0.707,1.0
7.2166,128.180921,37.94363,6742.752072,1.204,-16.213,0.739,1.0
7.2333,128.180922,37.943677,6741.214660800001,3.068,-16.243,0.77,1.0
7.25,128.180923,37.943725,6739.6726776000005,4.983,-16.274,0.8,1.0
7.2666,128.180923,37.943772,6738.1270368000005,6.948,-16.306,0.828,1.0
7.2833,128.180924,37.94382,6736.576824000001,8.959,-16.34,0.854,1.0
7.3,128.180925,37.943867,6735.0229536,11.014,-16.375,0.878,1.0
7.3166,128.180925,37.943915,6733.464816,13.113,-16.411,0.901,1.0
7.3333,128.180926,37.943963,6731.902411200001,15.251,-16.449,0.922,1.0
7.35,128.180926,37.94401,6730.3363488,17.429,-16.488,0.94,1.0
7.3666,128.180927,37.944058,6728.766324000001,19.643,-16.529,0.957,1.0
7.3833,128.180928,37.944105,6727.192032000001,21.893,-16.57,0.972,1.0
7.4,128.180928,37.944153,6725.6140824,24.178,-16.612,0.985,1.0
7.4166,128.180929,37.944201,6724.032170400001,26.494,-16.655,0.995,1.0
7.4333,128.18093,37.944248,6722.446296,28.842,-16.699,1.004,1.0
7.45,128.18093,37.944296,6720.856764,31.22,-16.743,1.01,1.0
7.4666,128.180931,37.944344,6719.263269600001,33.627,-16.788,1.014,1.0
7.4833,128.180931,37.944391,6717.6661176,36.061,-16.833,1.016,1.0
7.5,128.180932,37.944439,6716.0650032,38.522,-16.879,1.016,1.0
7.5166,128.180933,37.944487,6714.460231200001,41.008,-16.925,1.013,1.0
7.5333,128.180933,37.944535,6712.851496800001,43.519,-16.97,1.008,1.0
7.55,128.180934,37.944582,6711.239409600001,46.054,-17.016,1.001,1.0
7.5666,128.180934,37.94463,6709.6233600000005,48.612,-17.061,0.992,1.0
7.5833,128.180935,37.944678,6708.0039576,51.192,-17.106,0.98,1.0
7.6,128.180936,37.944726,6706.380592800001,53.793,-17.151,0.967,1.0
7.6166,128.180936,37.944774,6704.7538752,56.415,-17.195,0.952,1.0
7.6333,128.180937,37.944821,6703.123500000001,59.057,-17.238,0.934,1.0
7.65,128.180937,37.944869,6701.4894672,61.719,-17.281,0.915,1.0
7.6666,128.180938,37.944917,6699.8520816,64.399,-17.322,0.894,1.0
7.6833,128.180938,37.944965,6698.211038400001,67.098,-17.363,0.871,1.0
7.7,128.180939,37.945013,6696.566947200001,69.814,-17.402,0.846,1.0
7.7166,128.180939,37.945061,6694.9188936,72.547,-17.44,0.82,1.0
7.7333,128.18094,37.945109,6693.267792000001,75.296,-17.477,0.792,1.0
7.75,128.18094,37.945157,6691.613337600001,78.062,-17.513,0.764,1.0
7.7666,128.180941,37.945205,6689.9555304,80.843,-17.547,0.733,1.0
7.7833,128.180941,37.945253,6688.294370400001,83.639,-17.58,0.702,1.0
7.8,128.180942,37.945301,6686.6298576,86.449,-17.611,0.67,1.0
7.8166,128.180942,37.945349,6684.9622968,89.274,-17.64,0.637,1.0
7.8333,128.180943,37.945397,6683.291688000001,92.112,-17.669,0.603,1.0
7.85,128.180943,37.945445,6681.618031200001,94.964,-17.695,0.568,1.0
7.8666,128.180944,37.945493,6679.9410216,97.828,-17.72,0.533,1.0
7.8833,128.180944,37.945541,6678.261268800001,100.705,-17.743,0.497,1.0
7.9,128.180944,37.945589,6676.5781632,103.593,-17.765,0.461,1.0
7.9166,128.180945,37.945637,6674.892619200001,106.493,-17.785,0.425,1.0
7.9333,128.180945,37.945685,6673.2040272,109.404,-17.804,0.388,1.0
7.95,128.180946,37.945734,6671.512692,112.325,-17.821,0.351,1.0
7.9666,128.180946,37.945782,6669.8183088000005,115.257,-17.836,0.315,1.0
7.9833,128.180946,37.94583,6668.121792000001,118.198,-17.85,0.278,1.0
8.0,128.180947,37.945878,6666.4200936,120.909,-17.838,0.257,1.0
8.0166,128.180947,37.945926,6664.715956800001,123.38,-17.819,0.262,1.0
8.0333,128.180947,37.945975,6663.008772,125.597,-17.816,0.303,1.0
8.05,128.180948,37.946023,6661.2976248,127.556,-17.848,0.389,1.0
8.0666,128.180948,37.946071,6659.582210400001,129.262,-17.928,0.53,1.0
8.0833,128.180949,37.946119,6657.861614400001,130.723,-18.066,0.736,1.0
8.1,128.180949,37.946168,6656.135532,131.948,-18.271,1.012,1.0
8.1166,128.18095,37.946216,6654.402744,132.945,-18.547,1.363,1.0
8.1333,128.18095,37.946264,6652.6626408,133.727,-18.887,1.775,1.0
8.15,128.180951,37.946312,6650.9146128,134.305,-19.278,2.234,1.0
8.1666,128.180952,37.946361,6649.157440800001,134.702,-19.708,2.726,1.0
8.1833,128.180953,37.946409,6647.3908200000005,134.955,-20.161,3.233,1.0
8.2,128.180954,37.946457,6645.613836,135.101,-20.623,3.735,1.0
8.2166,128.180955,37.946505,6643.8261840000005,135.17,-21.075,4.217,1.0
8.2333,128.180956,37.946553,6642.0284736,135.195,-21.5,4.663,1.0
8.25,128.180957,37.946601,6640.2204,135.205,-21.881,5.055,1.0
8.2666,128.180959,37.946649,6638.4016584,135.222,-22.213,5.388,1.0
8.2833,128.18096,37.946697,6636.571944,135.26,-22.506,5.675,1.0
8.3,128.180962,37.946745,6634.7318663999995,135.33,-22.771,5.927,1.0
8.3166,128.180963,37.946793,6632.880816,135.442,-23.017,6.155,1.0
8.3333,128.180965,37.946841,6631.0194024,135.603,-23.252,6.366,1.0
8.35,128.180967,37.946889,6629.1473208,135.823,-23.48,6.564,1.0
8.3666,128.180969,37.946937,6627.264876,136.106,-23.702,6.749,1.0
8.3833,128.180971,37.946985,6625.3714584,136.457,-23.919,6.924,1.0
8.4,128.180973,37.947033,6623.467372800001,136.878,-24.132,7.089,1.0
8.4166,128.180975,37.947081,6621.5520096,137.367,-24.34,7.246,1.0
8.4333,128.180977,37.947128,6619.6256736000005,137.924,-24.543,7.394,1.0
8.45,128.180979,37.947176,6617.687145600001,138.453,-24.738,7.542,1.0
8.4666,128.180982,37.947224,6615.7361208,138.946,-24.925,7.689,1.0
8.4833,128.180984,37.947271,6613.772904,139.407,-25.106,7.833,1.0
8.5,128.180987,37.947319,6611.7968856,139.837,-25.284,7.972,1.0
8.5166,128.18099,37.947367,6609.8074560000005,140.242,-25.46,8.106,1.0
8.5333,128.180993,37.947414,6607.804615200001,140.626,-25.636,8.233,1.0
8.55,128.180996,37.947462,6605.788668,140.995,-25.812,8.355,1.0
8.5666,128.180999,37.947509,6603.7593096,141.353,-25.988,8.473,1.0
8.5833,128.181002,37.947556,6601.7162352000005,141.704,-26.163,8.587,1.0
8.6,128.181005,37.947604,6599.6600544,142.052,-26.339,8.697,1.0
8.6166,128.181009,37.947651,6597.5901576,142.399,-26.514,8.805,1.0
8.6333,128.181012,37.947698,6595.5068496,142.746,-26.689,8.909,1.0
8.65,128.181016,37.947745,6593.4098256,143.093,-26.864,9.012,1.0
8.6666,128.181019,37.947793,6591.2993904,143.442,-27.039,9.112,1.0
8.6833,128.181023,37.94784,6589.1749344,143.794,-27.215,9.21,1.0
8.7,128.181027,37.947887,6587.0370672,144.148,-27.39,9.306,1.0
8.7166,128.181031,37.947934,6584.884874400001,144.503,-27.565,9.4,1.0
8.7333,128.181035,37.947981,6582.719270400001,144.861,-27.74,9.492,1.0
8.75,128.181039,37.948027,6580.5393408,145.22,-27.916,9.583,1.0
8.7666,128.181043,37.948074,6578.345695200001,145.582,-28.091,9.671,1.0
8.7833,128.181048,37.948121,6576.137724000001,145.946,-28.267,9.758,1.0
8.8,128.181052,37.948168,6573.9160368,146.311,-28.444,9.844,1.0
8.8166,128.181057,37.948214,6571.6797192,146.677,-28.62,9.927,1.0
8.8333,128.181061,37.948261,6569.4293808,147.044,-28.797,10.009,1.0
8.85,128.181066,37.948308,6567.1647168,147.413,-28.974,10.09,1.0
8.8666,128.181071,37.948354,6564.886032,147.782,-29.152,10.169,1.0
8.8833,128.181075,37.9484,6562.5927168,148.152,-29.331,10.247,1.0
8.9,128.18108,37.948447,6560.285076,148.522,-29.509,10.323,1.0
8.9166,128.181085,37.948493,6557.9628048,148.893,-29.689,10.397,1.0
8.9333,128.181091,37.948539,6555.626208,149.265,-29.868,10.47,1.0
8.95,128.181096,37.948586,6553.2749808,149.636,-30.049,10.542,1.0
8.9666,128.181101,37.948632,6550.909428000001,150.007,-30.23,10.612,1.0
8.9833,128.181106,37.948678,6548.52894,150.378,-30.411,10.681,1.0
9.0,128.181112,37.948724,6546.1338216,150.749,-30.593,10.748,1.0
9.0166,128.181117,37.94877,6543.724072800001,151.119,-30.776,10.814,1.0
9.0333,128.181123,37.948815,6541.2993888,151.488,-30.959,10.879,1.0
9.05,128.181129,37.948861,6538.859769600001,151.855,-31.142,10.943,1.0
9.0666,128.181134,37.948907,6536.405520000001,152.219,-31.326,11.005,1.0
9.0833,128.18114,37.948953,6533.9363352,152.58,-31.511,11.066,1.0
9.1,128.181146,37.948998,6531.451910400001,152.937,-31.696,11.126,1.0
9.1166,128.181152,37.949044,6528.953769600001,153.38,-31.885,11.177,1.0
9.1333,128.181158,37.949089,6526.4413032,153.907,-32.077,11.219,1.0
9.15,128.181164,37.949135,6523.9148159999995,154.505,-32.271,11.256,1.0
9.1666,128.18117,37.94918,6521.3749176,155.159,-32.465,11.291,1.0
9.1833,128.181176,37.949226,6518.8203888,155.855,-32.659,11.327,1.0
9.2,128.181183,37.949271,6516.250924800001,156.577,-32.851,11.364,1.0
9.2166,128.181189,37.949316,6513.6668304,157.312,-33.043,11.401,1.0
9.2333,128.181195,37.949361,6511.067191200001,158.047,-33.235,11.438,1.0
9.25,128.181202,37.949406,6508.4520072,158.772,-33.427,11.474,1.0
9.2666,128.181208,37.949451,6505.8215832000005,159.478,-33.619,11.509,1.0
9.2833,128.181215,37.949496,6503.1750048,160.158,-33.812,11.543,1.0
9.3,128.181222,37.949541,6500.5125768,160.81,-34.006,11.575,1.0
9.3166,128.181228,37.949586,6497.834604000001,161.428,-34.201,11.605,1.0
9.3333,128.181235,37.949631,6495.140172,162.012,-34.397,11.633,1.0
9.35,128.181242,37.949675,6492.4298904,162.561,-34.595,11.658,1.0
9.3666,128.181249,37.94972,6489.703454400001,163.075,-34.794,11.682,1.0
9.3833,128.181255,37.949764,6486.9611688,163.555,-34.994,11.703,1.0
9.4,128.181262,37.949809,6484.202728800001,164.002,-35.196,11.723,1.0
9.4166,128.181269,37.949853,6481.4281344,164.419,-35.398,11.74,1.0
9.4333,128.181276,37.949897,6478.6373856,164.808,-35.601,11.755,1.0
9.45,128.181283,37.949941,6475.8307872000005,165.171,-35.805,11.767,1.0
9.4666,128.18129,37.949985,6473.0083392,165.51,-36.01,11.778,1.0
9.4833,128.181297,37.950029,6470.1697368000005,165.828,-36.215,11.788,1.0
9.5,128.181304,37.950073,6467.3152848,166.126,-36.42,11.795,1.0
9.5166,128.181312,37.950117,6464.444983200001,166.406,-36.625,11.802,1.0
9.5333,128.181319,37.950161,6461.558832000001,166.671,-36.831,11.807,1.0
9.55,128.181326,37.950204,6458.6565264,166.922,-37.036,11.811,1.0
9.5666,128.181333,37.950248,6455.738676,167.161,-37.241,11.814,1.0
9.5833,128.181341,37.950292,6452.8046712,167.389,-37.445,11.817,1.0
9.6,128.181348,37.950335,6449.8548168,167.608,-37.649,11.819,1.0
9.6166,128.181355,37.950378,6446.8894176,167.818,-37.853,11.82,1.0
9.6333,128.181363,37.950422,6443.908168800001,168.021,-38.056,11.82,1.0
9.65,128.18137,37.950465,6440.9110704,168.217,-38.259,11.82,1.0
9.6666,128.181377,37.950508,6437.8981224,168.408,-38.462,11.82,1.0
9.6833,128.181385,37.950551,6434.8696296,168.593,-38.664,11.818,1.0
9.7,128.181392,37.950594,6431.8252872,168.775,-38.865,11.817,1.0
9.7166,128.1814,37.950637,6428.7650952,168.952,-39.066,11.814,1.0
9.7333,128.181407,37.95068,6425.6893584,169.126,-39.267,11.812,1.0
9.75,128.181415,37.950722,6422.597772,169.297,-39.467,11.808,1.0
9.7666,128.181422,37.950765,6419.490640800001,169.464,-39.666,11.805,1.0
9.7833,128.18143,37.950807,6416.367964800001,169.629,-39.865,11.801,1.0
9.8,128.181437,37.95085,6413.2294392,169.791,-40.064,11.797,1.0
9.8166,128.181445,37.950892,6410.075064000001,169.95,-40.262,11.792,1.0
9.8333,128.181453,37.950934,6406.905144,170.106,-40.46,11.787,1.0
9.85,128.18146,37.950977,6403.7196792,170.261,-40.658,11.782,1.0
9.8666,128.181468,37.951019,6400.518669600001,170.412,-40.855,11.776,1.0
9.8833,128.181476,37.951061,6397.3018104,170.561,-41.052,11.771,1.0
9.9,128.181483,37.951103,6394.069406400001,170.707,-41.248,11.765,1.0
9.9166,128.181491,37.951144,6390.8214576,170.85,-41.445,11.758,1.0
9.9333,128.181499,37.951186,6387.5579640000005,170.99,-41.64,11.752,1.0
9.95,128.181506,37.951228,6384.2789256,171.126,-41.836,11.746,1.0
9.9666,128.181514,37.951269,6380.9840376,171.259,-42.031,11.739,1.0
9.9833,128.181522,37.951311,6377.6739096,171.388,-42.226,11.733,1.0
10.0,128.18153,37.951352,6374.347932000001,171.513,-42.421,11.726,1.0
10.0166,128.181538,37.951394,6371.006409600001,171.633,-42.616,11.72,1.0
10.0333,128.181545,37.951435,6367.649647200001,171.748,-42.81,11.714,1.0
10.05,128.181553,37.951476,6364.2770352,171.859,-43.004,11.708,1.0
10.0666,128.181561,37.951517,6360.889183200001,171.965,-43.198,11.702,1.0
10.0833,128.181569,37.951558,6357.4857864000005,172.065,-43.391,11.696,1.0
10.1,128.181577,37.951599,6354.066844800001,172.161,-43.585,11.69,1.0
10.1166,128.181584,37.951639,6350.6323584,172.251,-43.778,11.685,1.0
10.1333,128.181592,37.95168,6347.182632,172.337,-43.971,11.68,1.0
10.15,128.1816,37.95172,6343.717360800001,172.418,-44.164,11.675,1.0
10.1666,128.181608,37.951761,6340.2368496,172.494,-44.357,11.671,1.0
10.1833,128.181616,37.951801,6336.7410984,172.567,-44.549,11.667,1.0
10.2,128.181624,37.951841,6333.2298024,172.637,-44.741,11.664,1.0
10.2166,128.181631,37.951882,6329.7032664,172.703,-44.933,11.661,1.0
10.2333,128.181639,37.951922,6326.1614904,172.767,-45.125,11.659,1.0
10.25,128.181647,37.951962,6322.604474400001,172.829,-45.317,11.661,1.0
10.2666,128.181655,37.952001,6319.032218400001,172.888,-45.507,11.667,1.0
10.2833,128.181663,37.952041,6315.4447224000005,172.944,-45.698,11.679,1.0
10.3,128.181671,37.952081,6311.841986400001,172.997,-45.887,11.695,1.0
10.3166,128.181679,37.95212,6308.224315200001,173.045,-46.077,11.715,1.0
10.3333,128.181687,37.95216,6304.5910992,173.086,-46.266,11.738,1.0
10.35,128.181695,37.952199,6300.9426432,173.121,-46.455,11.761,1.0
10.3666,128.181702,37.952238,6297.279252000001,173.149,-46.644,11.785,1.0
10.3833,128.18171,37.952278,6293.6009256,173.171,-46.832,11.808,1.0
10.4,128.181718,37.952317,6289.9073592,173.188,-47.021,11.832,1.0
10.4166,128.181726,37.952356,6286.1988576,173.2,-47.21,11.855,1.0
10.4333,128.181734,37.952394,6282.475116,173.208,-47.399,11.879,1.0
10.45,128.181742,37.952433,6278.736744,173.212,-47.587,11.903,1.0
10.4666,128.18175,37.952472,6274.9834368,173.214,-47.776,11.927,1.0
10.4833,128.181758,37.95251,6271.2151944,173.213,-47.965,11.952,1.0
10.5,128.181766,37.952549,6267.4320168,173.21,-48.153,11.977,1.0
10.5166,128.181774,37.952587,6263.633904,173.206,-48.342,12.002,1.0
10.5333,128.181781,37.952625,6259.821160800001,173.2,-48.53,12.027,1.0
10.55,128.181789,37.952663,6255.993787200001,173.193,-48.718,12.052,1.0
10.5666,128.181797,37.952701,6252.151478400001,173.185,-48.906,12.078,1.0
10.5833,128.181805,37.952739,6248.2945392,173.176,-49.094,12.105,1.0
10.6,128.181813,37.952777,6244.4229696,173.166,-49.282,12.131,1.0
10.6166,128.181821,37.952815,6240.5367696,173.156,-49.47,12.158,1.0
10.6333,128.181829,37.952852,6236.6359391999995,173.145,-49.658,12.185,1.0
10.65,128.181837,37.95289,6232.7204784000005,173.134,-49.845,12.212,1.0
10.6666,128.181845,37.952927,6228.7906920000005,173.122,-50.033,12.24,1.0
10.6833,128.181853,37.952964,6224.8462752,173.109,-50.221,12.268,1.0
10.7,128.18186,37.953001,6220.8872280000005,173.095,-50.408,12.297,1.0
10.7166,128.181868,37.953038,6216.9138552,173.081,-50.596,12.325,1.0
10.7333,128.181876,37.953075,6212.925852000001,173.066,-50.783,12.355,1.0
10.75,128.181884,37.953112,6208.923828000001,173.05,-50.971,12.384,1.0
10.7666,128.181892,37.953149,6204.9071736000005,173.032,-51.158,12.414,1.0
10.7833,128.1819,37.953185,6200.8761936,173.014,-51.345,12.444,1.0
10.8,128.181908,37.953222,6196.830888,172.994,-51.533,12.475,1.0
10.8166,128.181916,37.953258,6192.771256800001,172.973,-51.72,12.506,1.0
10.8333,128.181924,37.953295,6188.697300000001,172.951,-51.907,12.538,1.0
10.85,128.181931,37.953331,6184.609322400001,172.927,-52.094,12.57,1.0
10.8666,128.181939,37.953367,6180.5070192,172.903,-52.282,12.602,1.0
10.8833,128.181947,37.953403,6176.390695200001,172.878,-52.469,12.635,1.0
10.9,128.181955,37.953438,6172.260350400001,172.851,-52.656,12.668,1.0
10.9166,128.181963,37.953474,6168.11568,172.823,-52.843,12.702,1.0
10.9333,128.181971,37.95351,6163.9569888,172.795,-53.03,12.736,1.0
10.95,128.181979,37.953545,6159.7842768,172.765,-53.218,12.77,1.0
10.9666,128.181987,37.95358,6155.597544,172.735,-53.405,12.805,1.0
10.9833,128.181994,37.953616,6151.3970952,172.703,-53.592,12.841,1.0
11.0,128.182002,37.953651,6147.1826255999995,172.671,-53.779,12.877,1.0
11.0166,128.18201,37.953686,6142.9541352,172.638,-53.966,12.913,1.0
11.0333,128.182018,37.95372,6138.7119288,172.605,-54.153,12.95,1.0
11.05,128.182026,37.953755,6134.456006400001,172.57,-54.34,12.987,1.0
11.0666,128.182034,37.95379,6130.1860632,172.535,-54.527,13.025,1.0
11.0833,128.182041,37.953824,6125.902404,172.5,-54.714,13.063,1.0
11.1,128.182049,37.953859,6121.605028800001,172.463,-54.901,13.102,1.0
11.1166,128.182057,37.953893,6117.2942424,172.427,-55.087,13.141,1.0
11.1333,128.182065,37.953927,6112.9697400000005,172.389,-55.274,13.181,1.0
11.15,128.182073,37.953961,6108.6315216,172.352,-55.461,13.221,1.0
11.1666,128.182081,37.953995,6104.279587200001,172.313,-55.648,13.262,1.0
11.1833,128.182088,37.954029,6099.9145464,172.274,-55.835,13.303,1.0
11.2,128.182096,37.954062,6095.5357896,172.235,-56.021,13.345,1.0
11.2166,128.182104,37.954096,6091.1433168,172.195,-56.208,13.387,1.0
11.2333,128.182112,37.954129,6086.7377376,172.154,-56.395,13.43,1.0
11.25,128.18212,37.954163,6082.318747200001,172.114,-56.582,13.473,1.0
11.2666,128.182127,37.954196,6077.8863456,172.072,-56.768,13.517,1.0
11.2833,128.182135,37.954229,6073.4405328,172.03,-56.955,13.562,1.0
11.3,128.182143,37.954262,6068.9816136,171.988,-57.142,13.607,1.0
11.3166,128.182151,37.954294,6064.509588000001,171.945,-57.329,13.653,1.0
11.3333,128.182158,37.954327,6060.0241512,171.902,-57.515,13.699,1.0
11.35,128.182166,37.95436,6055.525608,171.858,-57.702,13.746,1.0
11.3666,128.182174,37.954392,6051.0139584,171.813,-57.889,13.793,1.0
11.3833,128.182182,37.954424,6046.4892024,171.769,-58.075,13.841,1.0
11.4,128.182189,37.954456,6041.9513400000005,171.723,-58.262,13.89,1.0
11.4166,128.182197,37.954488,6037.400676,171.677,-58.449,13.939,1.0
11.4333,128.182205,37.95452,6032.8369056,171.631,-58.635,13.989,1.0
11.45,128.182213,37.954552,6028.2600288,171.584,-58.822,14.04,1.0
11.4666,128.18222,37.954584,6023.670350400001,171.536,-59.009,14.091,1.0
11.4833,128.182228,37.954615,6019.067870400001,171.488,-59.195,14.143,1.0
11.5,128.182236,37.954647,6014.4528936,171.439,-59.382,14.196,1.0
11.5166,128.182243,37.954678,6009.8248104,171.39,-59.569,14.249,1.0
11.5333,128.182251,37.954709,6005.1839256,171.341,-59.755,14.303,1.0
11.55,128.182259,37.95474,6000.530544,171.29,-59.942,14.358,1.0
11.5666,128.182266,37.954771,5995.864360800001,171.239,-60.129,14.413,1.0
11.5833,128.182274,37.954801,5991.1856808,171.187,-60.315,14.469,1.0
11.6,128.182282,37.954832,5986.4941992,171.135,-60.502,14.526,1.0
11.6166,128.182289,37.954863,5981.7905255999995,171.082,-60.689,14.584,1.0
11.6333,128.182297,37.954893,5977.0740504000005,171.029,-60.875,14.642,1.0
11.65,128.182305,37.954923,5972.3453832000005,170.975,-61.062,14.701,1.0
11.6666,128.182312,37.954953,5967.6042192,170.92,-61.249,14.761,1.0
11.6833,128.18232,37.954983,5962.8505584,170.864,-61.435,14.822,1.0
11.7,128.182328,37.955013,5958.0847056,170.808,-61.622,14.883,1.0
11.7166,128.182335,37.955042,5953.306356000001,170.751,-61.809,14.946,1.0
11.7333,128.182343,37.955072,5948.5161192000005,170.694,-61.995,15.009,1.0
11.75,128.18235,37.955101,5943.7133856,170.635,-62.182,15.073,1.0
11.7666,128.182358,37.955131,5938.89846,170.576,-62.369,15.138,1.0
11.7833,128.182366,37.95516,5934.0716472,170.516,-62.555,15.204,1.0
11.8,128.182373,37.955189,5929.2326424,170.455,-62.742,15.27,1.0
11.8166,128.182381,37.955217,5924.3814456,170.394,-62.929,15.338,1.0
11.8333,128.182388,37.955246,5919.5183615999995,170.331,-63.115,15.407,1.0
11.85,128.182396,37.955275,5914.6433904000005,170.268,-63.302,15.476,1.0
11.8666,128.182403,37.955303,5909.756532,170.204,-63.489,15.547,1.0
11.8833,128.182411,37.955331,5904.8577864,170.139,-63.675,15.618,1.0
11.9,128.182418,37.955359,5899.9471536,170.073,-63.862,15.691,1.0
11.9166,128.182426,37.955387,5895.024938400001,170.006,-64.049,15.765,1.0
11.9333,128.182433,37.955415,5890.090836,169.939,-64.235,15.839,1.0
11.95,128.182441,37.955443,5885.1448464000005,169.87,-64.422,15.915,1.0
11.9666,128.182448,37.955471,5880.187579200001,169.8,-64.609,15.992,1.0
11.9833,128.182456,37.955498,5875.218424800001,169.729,-64.795,16.07,1.0
12.0,128.182463,37.955525,5870.237992800001,169.657,-64.982,16.149,1.0
12.0166,128.182471,37.955552,5865.2456736,169.584,-65.168,16.23,1.0
12.0333,128.182478,37.955579,5860.2423816,169.51,-65.355,16.311,1.0
12.05,128.182486,37.955606,5855.227202399999,169.435,-65.542,16.394,1.0
12.0666,128.182493,37.955633,5850.2007456,169.358,-65.728,16.478,1.0
12.0833,128.1825,37.95566,5845.163316,169.281,-65.915,16.563,1.0
12.1,128.182508,37.955686,5840.114304,169.202,-66.101,16.65,1.0
12.1166,128.182515,37.955712,5835.054014400001,169.122,-66.288,16.738,1.0
12.1333,128.182523,37.955738,5829.982447200001,169.041,-66.475,16.827,1.0
12.15,128.18253,37.955764,5824.8999072,168.958,-66.661,16.918,1.0
12.1666,128.182537,37.95579,5819.8063944,168.874,-66.848,17.01,1.0
12.1833,128.182545,37.955816,5814.701604,168.79,-67.034,17.103,1.0
12.2,128.182552,37.955842,5809.5858408,168.703,-67.221,17.198,1.0
12.2166,128.182559,37.955867,5804.4591048,168.616,-67.407,17.295,1.0
12.2333,128.182567,37.955892,5799.3217008,168.528,-67.594,17.393,1.0
12.25,128.182574,37.955917,5794.1730192,168.439,-67.78,17.492,1.0
12.2666,128.182581,37.955942,5789.013974400001,168.348,-67.967,17.593,1.0
12.2833,128.182589,37.955967,5783.843956800001,168.257,-68.153,17.695,1.0
12.3,128.182596,37.955992,5778.6632712,168.164,-68.339,17.799,1.0
12.3166,128.182603,37.956016,5773.4716128,168.07,-68.526,17.905,1.0
12.3333,128.18261,37.956041,5768.2695912,167.975,-68.712,18.013,1.0
12.35,128.182618,37.956065,5763.056901600001,167.879,-68.899,18.122,1.0
12.3666,128.182625,37.956089,5757.8338488,167.781,-69.085,18.233,1.0
12.3833,128.182632,37.956113,5752.600432800001,167.682,-69.271,18.346,1.0
12.4,128.182639,37.956137,5747.3563488,167.581,-69.457,18.461,1.0
12.4166,128.182646,37.95616,5742.101901600001,167.479,-69.644,18.578,1.0
12.4333,128.182654,37.956184,5736.8370912,167.376,-69.83,18.696,1.0
12.45,128.182661,37.956207,5731.5619176,167.271,-70.016,18.817,1.0
12.4666,128.182668,37.95623,5726.2766856,167.164,-70.202,18.94,1.0
12.4833,128.182675,37.956253,5720.9813952,167.055,-70.388,19.065,1.0
12.5,128.182682,37.956276,5715.6757416,166.944,-70.574,19.192,1.0
12.5166,128.182689,37.956299,5710.3600295999995,166.832,-70.761,19.321,1.0
12.5333,128.182697,37.956321,5705.034259200001,166.718,-70.947,19.453,1.0
12.55,128.182704,37.956344,5699.6987352,166.601,-71.133,19.587,1.0
12.5666,128.182711,37.956366,5694.353152799999,166.483,-71.318,19.724,1.0
12.5833,128.182718,37.956388,5688.9978168,166.362,-71.504,19.863,1.0
12.6,128.182725,37.95641,5683.6324224,166.239,-71.69,20.004,1.0
12.6166,128.182732,37.956432,5678.257274400001,166.114,-71.876,20.149,1.0
12.6333,128.182739,37.956453,5672.8723728,165.986,-72.062,20.296,1.0
12.65,128.182746,37.956475,5667.478022400001,165.855,-72.248,20.446,1.0
12.6666,128.182753,37.956496,5662.0739184,165.722,-72.433,20.599,1.0
12.6833,128.18276,37.956517,5656.660365600001,165.586,-72.619,20.755,1.0
12.7,128.182767,37.956538,5651.237059200001,165.447,-72.804,20.914,1.0
12.7166,128.182774,37.956559,5645.8046088,165.305,-72.99,21.076,1.0
12.7333,128.182781,37.95658,5640.3624048,165.16,-73.175,21.241,1.0
12.75,128.182788,37.9566,5634.911056800001,165.011,-73.361,21.41,1.0
12.7666,128.182795,37.95662,5629.4502600000005,164.86,-73.546,21.583,1.0
12.7833,128.182801,37.956641,5623.980319200001,164.705,-73.731,21.759,1.0
12.8,128.182808,37.956661,5618.5012344,164.546,-73.916,21.939,1.0
12.8166,128.182815,37.95668,5613.013005600001,164.383,-74.101,22.123,1.0
12.8333,128.182822,37.9567,5607.5156328,164.217,-74.286,22.311,1.0
12.85,128.182829,37.95672,5602.009116,164.046,-74.471,22.503,1.0
12.8666,128.182836,37.956739,5596.49376,163.872,-74.656,22.7,1.0
12.8833,128.182842,37.956758,5590.969564800001,163.693,-74.84,22.901,1.0
12.9,128.182849,37.956777,5585.4362255999995,163.509,-75.025,23.106,1.0
12.9166,128.182856,37.956796,5579.894352000001,163.321,-75.209,23.317,1.0
12.9333,128.182863,37.956815,5574.343639199999,163.128,-75.394,23.532,1.0
12.95,128.182869,37.956834,5568.784087200001,162.93,-75.578,23.753,1.0
12.9666,128.182876,37.956852,5563.2160008,162.726,-75.762,23.979,1.0
12.9833,128.182883,37.95687,5557.6390752,162.517,-75.945,24.211,1.0
13.0,128.18289,37.956888,5552.05392,162.303,-76.129,24.448,1.0
13.0166,128.182896,37.956906,5546.4602304,162.082,-76.313,24.692,1.0
13.0333,128.182903,37.956924,5540.858006400001,161.855,-76.496,24.942,1.0
13.0499,128.182909,37.956942,5535.2475527999995,161.622,-76.679,25.199,1.0
13.0666,128.182916,37.956959,5529.6285648,161.382,-76.862,25.462,1.0
13.0833,128.182923,37.956976,5524.001652000001,161.135,-77.045,25.732,1.0
13.1,128.182929,37.956993,5518.366204800001,160.881,-77.228,26.01,1.0
13.1166,128.182936,37.95701,5512.7228328,160.619,-77.41,26.296,1.0
13.1333,128.182942,37.957027,5507.0712312000005,160.349,-77.592,26.589,1.0
13.15,128.182949,37.957044,5501.411704800001,160.071,-77.774,26.891,1.0
13.1666,128.182955,37.95706,5495.7442536,159.784,-77.955,27.202,1.0
13.1833,128.182962,37.957076,5490.068877600001,159.488,-78.137,27.522,1.0
13.2,128.182968,37.957092,5484.3855768,159.182,-78.318,27.852,1.0
13.2166,128.182975,37.957108,5478.694351200001,158.867,-78.498,28.191,1.0
13.2333,128.182981,37.957124,5472.995505600001,158.541,-78.679,28.541,1.0
13.25,128.182988,37.95714,5467.28904,158.204,-78.859,28.902,1.0
13.2666,128.182994,37.957155,5461.5749544,157.856,-79.038,29.275,1.0
13.2833,128.183,37.95717,5455.8532488,157.496,-79.218,29.659,1.0
13.3,128.183007,37.957185,5450.124228000001,157.123,-79.397,30.056,1.0
13.3166,128.183013,37.9572,5444.387587200001,156.737,-79.575,30.466,1.0
13.3333,128.183019,37.957215,5438.6436312000005,156.338,-79.753,30.891,1.0
13.35,128.183026,37.95723,5432.892360000001,155.923,-79.93,31.329,1.0
13.3666,128.183032,37.957244,5427.1337736000005,155.494,-80.107,31.784,1.0
13.3833,128.183038,37.957258,5421.368176800001,155.048,-80.284,32.254,1.0
13.4,128.183044,37.957272,5415.5952648,154.585,-80.459,32.741,1.0
13.4166,128.18305,37.957286,5409.8153424,154.105,-80.635,33.246,1.0
13.4333,128.183057,37.9573,5404.0284096000005,153.606,-80.809,33.77,1.0
13.45,128.183063,37.957313,5398.2344664,153.087,-80.983,34.314,1.0
13.4666,128.183069,37.957327,5392.4335128,152.547,-81.156,34.879,1.0
13.4833,128.183075,37.95734,5386.6261584,151.985,-81.328,35.466,1.0
13.5,128.183081,37.957353,5380.8114888,151.399,-81.5,36.076,1.0
13.5166,128.183087,37.957366,5374.990418400001,150.789,-81.67,36.711,1.0
13.5333,128.183093,37.957378,5369.162642400001,150.153,-81.84,37.372,1.0
13.55,128.183099,37.957391,5363.3284656000005,149.49,-82.008,38.06,1.0
13.5666,128.183105,37.957403,5357.487583200001,148.798,-82.176,38.776,1.0
13.5833,128.183111,37.957415,5351.6403,148.076,-82.342,39.522,1.0
13.6,128.183117,37.957427,5345.786615999999,147.323,-82.508,40.299,1.0
13.6166,128.183123,37.957439,5339.9265312,146.536,-82.672,41.11,1.0
13.6333,128.183129,37.957451,5334.0603504,145.714,-82.834,41.956,1.0
13.65,128.183135,37.957462,5328.1880736,144.854,-82.996,42.84,1.0
13.6666,128.183141,37.957473,5322.309396000001,143.954,-83.155,43.764,1.0
13.6833,128.183146,37.957485,5316.4246224,143.012,-83.313,44.73,1.0
13.7,128.183152,37.957495,5310.5340576,142.024,-83.47,45.741,1.0
13.7166,128.183158,37.957506,5304.637396800001,140.989,-83.624,46.8,1.0
13.7333,128.183164,37.957517,5298.7349448,139.902,-83.776,47.91,1.0
13.75,128.183169,37.957527,5292.826701600001,138.762,-83.926,49.074,1.0
13.7666,128.183175,37.957537,5286.9126672,137.564,-84.074,50.296,1.0
13.7833,128.183181,37.957547,5280.9928416,136.306,-84.218,51.577,1.0
13.8,128.183187,37.957557,5275.0675296,134.984,-84.36,52.923,1.0
13.8166,128.183192,37.957567,5269.1367312,133.595,-84.499,54.335,1.0
13.8333,128.183198,37.957576,5263.2001416,132.135,-84.635,55.819,1.0
13.85,128.183203,37.957586,5257.258370400001,130.599,-84.767,57.378,1.0
13.8666,128.183209,37.957595,5251.3114176,128.985,-84.895,59.015,1.0
13.8833,128.183214,37.957604,5245.3589784000005,127.289,-85.02,60.734,1.0
13.9,128.18322,37.957612,5239.4013576,125.508,-85.139,62.538,1.0
13.9166,128.183225,37.957621,5233.4385552,123.639,-85.254,64.431,1.0
13.9333,128.183231,37.957629,5227.4705711999995,121.679,-85.363,66.413,1.0
13.95,128.183236,37.957638,5221.497710400001,119.627,-85.467,68.489,1.0
13.9666,128.183242,37.957646,5215.519668,117.481,-85.565,70.658,1.0
13.9833,128.183247,37.957654,5209.5370536,115.24,-85.657,72.921,1.0
14.0,128.183252,37.957661,5203.5495624,112.906,-85.741,75.277,1.0
14.0166,128.183258,37.957669,5197.5571944,110.482,-85.819,77.725,1.0
14.0333,128.183263,37.957676,5191.5602544,107.969,-85.888,80.259,1.0
14.05,128.183268,37.957683,5185.5587424000005,105.375,-85.95,82.876,1.0
14.0666,128.183273,37.95769,5179.5526584,102.705,-86.003,85.568,1.0
14.0833,128.183279,37.957697,5173.5420024,99.969,-86.047,88.326,1.0
14.1,128.183284,37.957704,5167.527079200001,97.176,-86.082,91.141,1.0
14.1166,128.183289,37.95771,5161.507584000001,94.339,-86.108,94.0,1.0
14.1333,128.183294,37.957716,5155.4841264,91.47,-86.124,96.89,1.0
14.15,128.183299,37.957722,5149.4560968000005,88.584,-86.13,99.798,1.0
14.1666,128.183304,37.957728,5143.4244096,85.694,-86.127,102.709,1.0
14.1833,128.183309,37.957734,5137.388455200001,82.816,-86.114,105.608,1.0
14.2,128.183314,37.957739,5131.3485384000005,79.963,-86.091,108.482,1.0
14.2166,128.183319,37.957745,5125.3046592,77.149,-86.058,111.317,1.0
14.2333,128.183324,37.95775,5119.2568176,74.387,-86.017,114.1,1.0
14.25,128.183329,37.957755,5113.205318400001,71.685,-85.966,116.822,1.0
14.2666,128.183334,37.957759,5107.1501616,69.053,-85.907,119.474,1.0
14.2833,128.183338,37.957764,5101.091347200001,66.495,-85.84,122.05,1.0
14.3,128.183343,37.957768,5095.0288752,64.018,-85.766,124.545,1.0
14.3166,128.183348,37.957772,5088.963050400001,61.625,-85.685,126.956,1.0
14.3333,128.183353,37.957776,5082.8938728,59.317,-85.597,129.28,1.0
14.35,128.183358,37.95778,5076.821037600001,57.095,-85.503,131.517,1.0
14.3666,128.183362,37.957784,5070.7451544000005,54.96,-85.403,133.667,1.0
14.3833,128.183367,37.957787,5064.666223200001,52.909,-85.298,135.732,1.0
14.4,128.183371,37.957791,5058.5839392,50.939,-85.188,137.715,1.0
14.4166,128.183376,37.957794,5052.4986072,49.047,-85.074,139.619,1.0
14.4333,128.183381,37.957797,5046.4102272,47.228,-84.956,141.448,1.0
14.45,128.183385,37.957799,5040.319104,45.48,-84.834,143.206,1.0
14.4666,128.18339,37.957802,5034.224932800001,43.795,-84.709,144.899,1.0
14.4833,128.183394,37.957804,5028.1283232000005,42.169,-84.581,146.531,1.0
14.5,128.183398,37.957806,5022.028665600001,40.599,-84.45,148.106,1.0
14.5166,128.183403,37.957808,5015.9265696,39.081,-84.317,149.627,1.0
14.5333,128.183407,37.95781,5009.8217304,37.611,-84.182,151.099,1.0
14.55,128.183412,37.957812,5003.7144528,36.186,-84.045,152.525,1.0
14.5666,128.183416,37.957813,4997.605041600001,34.803,-83.906,153.907,1.0
