Time,Longitude,Latitude,Altitude,Roll (deg),Pitch (deg),Yaw (deg),Health
0.0,128.181881,37.968463,7002.830292000001,0.0,-0.003,179.999,1.0
0.0166,128.181881,37.968418,7002.8116992000005,0.0,-0.012,180.0,1.0
0.0333,128.181881,37.968374,7002.7940208,-0.087,-0.013,179.988,1.0
0.05,128.181881,37.968329,7002.7763424,-0.258,-0.002,179.965,1.0
0.0666,128.181881,37.968284,7002.7595784000005,-0.516,0.015,179.935,1.0
0.0833,128.181881,37.968239,7002.744033600001,-0.864,0.04,179.901,1.0
0.1,128.181881,37.968194,7002.7300128,-1.3,0.068,179.866,1.0
0.1166,128.181881,37.968149,7002.7181256,-1.823,0.098,179.83,1.0
0.1333,128.181881,37.968104,7002.708372,-2.431,0.13,179.794,1.0
0.15,128.181881,37.968059,7002.7013615999995,-3.12,0.162,179.759,1.0
0.1666,128.181881,37.968014,7002.697704,-3.886,0.195,179.725,1.0
0.1833,128.181881,37.967969,7002.69618,-4.727,0.227,179.69,1.0
0.2,128.181881,37.967924,7002.6973992,-5.639,0.26,179.657,1.0
0.2166,128.181881,37.967879,7002.7016664,-6.619,0.291,179.624,1.0
0.2333,128.181881,37.967834,7002.708372,-7.663,0.325,179.59,1.0
0.25,128.181881,37.967789,7002.7181256,-8.77,0.36,179.557,1.0
0.2666,128.181881,37.967744,7002.7306224,-9.935,0.397,179.523,1.0
0.2833,128.181881,37.967699,7002.7455576,-11.157,0.433,179.489,1.0
0.3,128.181881,37.967654,7002.763540800001,-12.433,0.47,179.456,1.0
0.3166,128.181881,37.967609,7002.7842672,-13.761,0.506,179.422,1.0
0.3333,128.181881,37.967564,7002.8077368,-15.138,0.547,179.386,1.0
0.35,128.181881,37.967519,7002.834254400001,-16.563,0.593,179.348,1.0
0.3666,128.181881,37.967474,7002.863515200001,-18.032,0.641,179.309,1.0
0.3833,128.181882,37.967429,7002.8955192,-19.545,0.692,179.268,1.0
0.4,128.181882,37.967384,7002.9305712,-21.099,0.742,179.226,1.0
0.4166,128.181882,37.967339,7002.9680616,-22.693,0.791,179.183,1.0
0.4333,128.181882,37.967294,7003.0089048,-24.324,0.846,179.137,1.0
0.45,128.181882,37.967249,7003.0521864,-25.992,0.906,179.086,1.0
0.4666,128.181883,37.967204,7003.098516,-27.695,0.97,179.031,1.0
0.4833,128.181883,37.967159,7003.1478936,-29.432,1.034,178.974,1.0
0.5,128.181883,37.967114,7003.1997096000005,-31.2,1.097,178.916,1.0
0.5166,128.181884,37.967069,7003.2542688,-33.0,1.158,178.855,1.0
0.5333,128.181884,37.967024,7003.311876,-34.829,1.223,178.789,1.0
0.55,128.181885,37.966979,7003.3722264,-36.687,1.292,178.717,1.0
0.5666,128.181885,37.966934,7003.435015200001,-38.573,1.362,178.64,1.0
0.5833,128.181886,37.966889,7003.500547200001,-40.486,1.43,178.561,1.0
0.6,128.181886,37.966844,7003.568517600001,-42.425,1.496,178.479,1.0
0.6166,128.181887,37.966799,7003.6389264,-44.389,1.559,178.395,1.0
0.6333,128.181888,37.966754,7003.711773600001,-46.378,1.622,178.305,1.0
0.65,128.181889,37.966709,7003.7867544,-48.391,1.685,178.209,1.0
0.6666,128.181889,37.966664,7003.8638688,-50.428,1.747,178.108,1.0
0.6833,128.18189,37.966619,7003.9431168,-52.487,1.806,178.005,1.0
0.7,128.181891,37.966574,7004.0244984,-54.569,1.861,177.899,1.0
0.7166,128.181892,37.966529,7004.1070992,-56.674,1.911,177.792,1.0
0.7333,128.181893,37.966484,7004.191528800001,-58.8,1.958,177.68,1.0
0.75,128.181895,37.966439,7004.277482400001,-60.948,2.003,177.563,1.0
0.7666,128.181896,37.966394,7004.3643504,-63.117,2.043,177.442,1.0
0.7833,128.181897,37.966349,7004.452437600001,-65.307,2.079,177.319,1.0
0.8,128.181899,37.966304,7004.5411343999995,-67.518,2.109,177.195,1.0
0.8166,128.1819,37.966259,7004.6304408000005,-69.749,2.134,177.07,1.0
0.8333,128.181902,37.966214,7004.720052000001,-72.001,2.153,176.942,1.0
0.85,128.181903,37.966169,7004.809663200001,-74.274,2.168,176.811,1.0
0.8666,128.181905,37.966124,7004.898969600001,-76.566,2.177,176.678,1.0
0.8833,128.181907,37.966079,7004.9876664,-78.879,2.18,176.545,1.0
0.9,128.181909,37.966034,7005.0757536,-81.212,2.176,176.411,1.0
0.9166,128.181911,37.965989,7005.1626216,-83.565,2.166,176.278,1.0
0.9333,128.181913,37.965944,7005.248270400001,-85.938,2.151,176.145,1.0
0.95,128.181915,37.965899,7005.3320904,-88.331,2.128,176.011,1.0
0.9666,128.181917,37.965854,7005.4140816,-90.745,2.099,175.878,1.0
0.9833,128.18192,37.965809,7005.4936344,-93.178,2.064,175.746,1.0
1.0,128.181922,37.965764,7005.5707488,-95.63,2.022,175.615,1.0
1.0166,128.181925,37.965719,7005.6445104,-98.103,1.974,175.486,1.0
1.0333,128.181927,37.965674,7005.714919200001,-100.512,1.925,175.359,1.0
1.05,128.18193,37.965629,7005.7819752,-102.855,1.876,175.234,1.0
1.0666,128.181933,37.965584,7005.8453736,-105.137,1.824,175.112,1.0
1.0833,128.181936,37.965539,7005.9051144000005,-107.366,1.767,174.992,1.0
1.1,128.181939,37.965494,7005.961197600001,-109.549,1.704,174.875,1.0
1.1166,128.181942,37.965449,7006.013318400001,-111.692,1.635,174.761,1.0
1.1333,128.181945,37.965404,7006.0608672,-113.676,1.569,174.651,1.0
1.15,128.181948,37.965359,7006.1047584,-115.509,1.506,174.544,1.0
1.1666,128.181951,37.965314,7006.144687200001,-117.191,1.444,174.441,1.0
1.1833,128.181954,37.965269,7006.1806536,-118.729,1.38,174.341,1.0
1.2,128.181957,37.965224,7006.2129624,-120.14,1.312,174.244,1.0
1.2166,128.18196,37.965179,7006.2419184,-121.442,1.24,174.152,1.0
1.2333,128.181964,37.965134,7006.266912,-122.611,1.169,174.069,1.0
1.25,128.181967,37.965089,7006.2888576,-123.654,1.1,173.995,1.0
1.2666,128.18197,37.965044,7006.307450400001,-124.574,1.032,173.927,1.0
1.2833,128.181974,37.964999,7006.3229952,-125.379,0.964,173.865,1.0
1.3,128.181977,37.964954,7006.335492000001,-126.084,0.895,173.808,1.0
1.3166,128.18198,37.964909,7006.3440264,-126.704,0.824,173.754,1.0
1.3333,128.181984,37.964864,7006.3504272,-127.225,0.761,173.714,1.0
1.35,128.181987,37.964819,7006.353170400001,-127.658,0.706,173.687,1.0
1.3666,128.181991,37.964774,7006.3519512,-128.017,0.656,173.67,1.0
1.3833,128.181994,37.964729,7006.3473792,-128.312,0.609,173.659,1.0
1.4,128.181998,37.964683,7006.3388448000005,-128.554,0.562,173.653,1.0
1.4166,128.182001,37.964638,7006.326348,-128.752,0.516,173.651,1.0
1.4333,128.182005,37.964593,7006.3108032,-128.873,0.477,173.656,1.0
1.45,128.182008,37.964548,7006.292210400001,-128.925,0.445,173.668,1.0
1.4666,128.182012,37.964503,7006.2699600000005,-128.916,0.419,173.686,1.0
1.4833,128.182016,37.964457,7006.244052000001,-128.855,0.394,173.706,1.0
1.5,128.182019,37.964412,7006.2147912,-128.749,0.37,173.728,1.0
1.5166,128.182023,37.964367,7006.181568,-128.604,0.346,173.752,1.0
1.5333,128.182027,37.964322,7006.145601600001,-128.389,0.324,173.774,1.0
1.55,128.18203,37.964276,7006.106587200001,-128.108,0.306,173.795,1.0
1.5666,128.182034,37.964231,7006.0648296,-127.76,0.29,173.814,1.0
1.5833,128.182038,37.964186,7006.020024,-127.346,0.275,173.832,1.0
1.6,128.182041,37.96414,7005.9724752,-126.871,0.26,173.849,1.0
1.6166,128.182045,37.964095,7005.9218784,-126.342,0.244,173.866,1.0
1.6333,128.182049,37.96405,7005.8688432,-125.756,0.227,173.879,1.0
1.65,128.182053,37.964004,7005.8121504,-125.12,0.208,173.888,1.0
1.6666,128.182056,37.963959,7005.7527144000005,-124.44,0.188,173.895,1.0
1.6833,128.18206,37.963914,7005.6899256,-123.721,0.166,173.901,1.0
1.7,128.182064,37.963868,7005.6240888,-122.97,0.143,173.906,1.0
1.7166,128.182068,37.963823,7005.5548992,-122.192,0.119,173.91,1.0
1.7333,128.182072,37.963777,7005.4817472,-121.401,0.093,173.91,1.0
1.75,128.182076,37.963732,7005.405242400001,-120.602,0.064,173.907,1.0
1.7666,128.18208,37.963687,7005.3253848,-119.796,0.035,173.9,1.0
1.7833,128.182084,37.963641,7005.2418696,-118.983,0.005,173.892,1.0
1.8,128.182087,37.963596,7005.155001600001,-118.165,-0.025,173.882,1.0
1.8166,128.182091,37.96355,7005.0644760000005,-117.342,-0.055,173.872,1.0
1.8333,128.182096,37.963505,7004.969988000001,-116.523,-0.086,173.858,1.0
1.85,128.1821,37.963459,7004.872147200001,-115.711,-0.118,173.841,1.0
1.8666,128.182104,37.963414,7004.7706488,-114.902,-0.151,173.822,1.0
1.8833,128.182108,37.963368,7004.665492800001,-114.098,-0.183,173.802,1.0
1.9,128.182112,37.963323,7004.556984000001,-113.296,-0.214,173.781,1.0
1.9166,128.182116,37.963277,7004.4448176000005,-112.496,-0.246,173.759,1.0
1.9333,128.18212,37.963232,7004.3292984,-111.704,-0.277,173.736,1.0
1.95,128.182125,37.963186,7004.2101216,-110.919,-0.308,173.71,1.0
1.9666,128.182129,37.963141,7004.087592000001,-110.14,-0.339,173.684,1.0
1.9833,128.182133,37.963095,7003.9614048,-109.365,-0.369,173.657,1.0
2.0,128.182138,37.96305,7003.8321696,-108.594,-0.398,173.63,1.0
2.0166,128.182142,37.963004,7003.6992768,-107.826,-0.427,173.602,1.0
2.0333,128.182146,37.962958,7003.5630312,-107.065,-0.46,173.562,1.0
2.05,128.182151,37.962913,7003.423128,-106.311,-0.496,173.508,1.0
2.0666,128.182155,37.962867,7003.2801768,-105.563,-0.534,173.444,1.0
2.0833,128.18216,37.962822,7003.1338728,-104.819,-0.573,173.375,1.0
2.1,128.182164,37.962776,7002.983911200001,-104.079,-0.611,173.303,1.0
2.1166,128.182169,37.96273,7002.830901600001,-103.343,-0.649,173.23,1.0
2.1333,128.182174,37.962685,7002.674844,-102.603,-0.685,173.158,1.0
2.15,128.182178,37.962639,7002.5154336000005,-101.86,-0.719,173.09,1.0
2.1666,128.182183,37.962593,7002.3526704000005,-101.113,-0.751,173.025,1.0
2.1833,128.182188,37.962548,7002.187164000001,-100.362,-0.782,172.962,1.0
2.2,128.182193,37.962502,7002.018304800001,-99.609,-0.811,172.901,1.0
2.2166,128.182198,37.962456,7001.846397600001,-98.852,-0.838,172.842,1.0
2.2333,128.182202,37.962411,7001.6711376,-98.077,-0.859,172.79,1.0
2.25,128.182207,37.962365,7001.4928296,-97.285,-0.872,172.744,1.0
2.2666,128.182212,37.962319,7001.311778400001,-96.474,-0.88,172.704,1.0
2.2833,128.182217,37.962274,7001.127984000001,-95.644,-0.885,172.667,1.0
2.3,128.182222,37.962228,7000.9411416,-94.797,-0.888,172.633,1.0
2.3166,128.182227,37.962182,7000.751860800001,-93.933,-0.891,172.601,1.0
2.3333,128.182233,37.962136,7000.559532,-93.061,-0.893,172.572,1.0
2.35,128.182238,37.962091,7000.364764800001,-92.183,-0.895,172.545,1.0
2.3666,128.182243,37.962045,7000.1672544,-91.301,-0.897,172.519,1.0
2.3833,128.182248,37.961999,6999.967305600001,-90.414,-0.899,172.495,1.0
2.4,128.182253,37.961953,6999.7646136,-89.524,-0.901,172.472,1.0
2.4166,128.182259,37.961908,6999.5597880000005,-88.632,-0.903,172.45,1.0
2.4333,128.182264,37.961862,6999.352524000001,-87.779,-0.906,172.424,1.0
2.45,128.18227,37.961816,6999.1428216,-86.964,-0.912,172.395,1.0
2.4666,128.182275,37.96177,6998.9312904,-86.185,-0.919,172.363,1.0
2.4833,128.182281,37.961724,6998.7173207999995,-85.436,-0.925,172.329,1.0
2.5,128.182286,37.961679,6998.5012176,-84.715,-0.93,172.294,1.0
2.5166,128.182292,37.961633,6998.2829808,-84.017,-0.934,172.259,1.0
2.5333,128.182298,37.961587,6998.062915200001,-83.373,-0.939,172.22,1.0
2.55,128.182303,37.961541,6997.8413256,-82.779,-0.945,172.177,1.0
2.5666,128.182309,37.961495,6997.6176024,-82.229,-0.95,172.132,1.0
2.5833,128.182315,37.961449,6997.392050400001,-81.716,-0.954,172.084,1.0
2.6,128.182321,37.961404,6997.164669600001,-81.237,-0.958,172.036,1.0
2.6166,128.182327,37.961358,6996.9357648000005,-80.784,-0.959,171.987,1.0
2.6333,128.182333,37.961312,6996.7047264,-80.303,-0.957,171.939,1.0
2.65,128.182339,37.961266,6996.4715544,-79.789,-0.951,171.891,1.0
2.6666,128.182346,37.96122,6996.2368584000005,-79.245,-0.942,171.844,1.0
2.6833,128.182352,37.961174,6996.000028800001,-78.673,-0.933,171.798,1.0
2.7,128.182358,37.961129,6995.761675199999,-78.076,-0.923,171.752,1.0
2.7166,128.182364,37.961083,6995.5214928000005,-77.458,-0.913,171.707,1.0
2.7333,128.182371,37.961037,6995.2800912,-76.875,-0.907,171.663,1.0
2.75,128.182377,37.960991,6995.0374704000005,-76.329,-0.905,171.62,1.0
2.7666,128.182384,37.960945,6994.7933256,-75.819,-0.905,171.577,1.0
2.7833,128.18239,37.960899,6994.5479616,-75.339,-0.905,171.535,1.0
2.8,128.182397,37.960853,6994.3016832,-74.888,-0.905,171.494,1.0
2.8166,128.182403,37.960807,6994.0538808,-74.461,-0.904,171.454,1.0
2.8333,128.18241,37.960761,6993.805773600001,-74.097,-0.906,171.413,1.0
2.85,128.182417,37.960716,6993.557056800001,-73.794,-0.911,171.37,1.0
2.8666,128.182424,37.96067,6993.3074256,-73.543,-0.918,171.326,1.0
2.8833,128.18243,37.960624,6993.05688,-73.34,-0.924,171.282,1.0
2.9,128.182437,37.960578,6992.805420000001,-73.177,-0.93,171.237,1.0
2.9166,128.182444,37.960532,6992.5533504,-73.05,-0.934,171.193,1.0
2.9333,128.182452,37.960486,6992.3003664,-72.956,-0.94,171.149,1.0
2.95,128.182459,37.96044,6992.0464680000005,-72.891,-0.946,171.106,1.0
2.9666,128.182466,37.960394,6991.7919600000005,-72.851,-0.953,171.064,1.0
2.9833,128.182473,37.960348,6991.536232800001,-72.832,-0.96,171.023,1.0
3.0,128.18248,37.960302,6991.279896000001,-72.831,-0.967,170.981,1.0
3.0166,128.182488,37.960256,6991.02234,-72.846,-0.973,170.94,1.0
3.0333,128.182495,37.960211,6990.764174400001,-72.881,-0.982,170.902,1.0
3.05,128.182503,37.960165,6990.5050944,-72.933,-0.992,170.869,1.0
3.0666,128.18251,37.960119,6990.2447952,-72.999,-1.004,170.839,1.0
3.0833,128.182518,37.960073,6989.9838864,-73.079,-1.017,170.81,1.0
3.1,128.182526,37.960027,6989.7217584,-73.171,-1.029,170.782,1.0
3.1166,128.182533,37.959981,6989.458716,-73.272,-1.042,170.754,1.0
3.1333,128.182541,37.959935,6989.194759200001,-73.396,-1.056,170.728,1.0
3.15,128.182549,37.959889,6988.9301928,-73.539,-1.073,170.705,1.0
3.1666,128.182557,37.959843,6988.6641024,-73.701,-1.091,170.683,1.0
3.1833,128.182565,37.959797,6988.3974024,-73.878,-1.109,170.661,1.0
3.2,128.182573,37.959751,6988.1294832,-74.07,-1.127,170.639,1.0
3.2166,128.182581,37.959705,6987.8603448,-74.274,-1.145,170.617,1.0
3.2333,128.182589,37.959659,6987.590596800001,-74.499,-1.164,170.594,1.0
3.25,128.182597,37.959613,6987.3196296,-74.744,-1.183,170.57,1.0
3.2666,128.182605,37.959567,6987.0474432,-75.007,-1.203,170.546,1.0
3.2833,128.182614,37.959521,6986.774037600001,-75.285,-1.222,170.522,1.0
3.3,128.182622,37.959475,6986.4994128,-75.576,-1.242,170.496,1.0
3.3166,128.18263,37.959429,6986.2235688,-75.878,-1.261,170.469,1.0
3.3333,128.182639,37.959383,6985.946505600001,-76.194,-1.28,170.441,1.0
3.35,128.182647,37.959337,6985.6682232,-76.52,-1.298,170.411,1.0
3.3666,128.182656,37.959291,6985.3884168,-76.856,-1.317,170.381,1.0
3.3833,128.182664,37.959245,6985.1070864,-77.2,-1.336,170.349,1.0
3.4,128.182673,37.959199,6984.824536800001,-77.551,-1.354,170.316,1.0
3.4166,128.182682,37.959153,6984.540768000001,-77.908,-1.372,170.282,1.0
3.4333,128.18269,37.959107,6984.255170400001,-78.271,-1.39,170.248,1.0
3.45,128.182699,37.959061,6983.9680488,-78.64,-1.409,170.214,1.0
3.4666,128.182708,37.959015,6983.679708,-79.014,-1.428,170.179,1.0
3.4833,128.182717,37.958969,6983.389538400001,-79.391,-1.446,170.144,1.0
3.5,128.182726,37.958923,6983.0978448000005,-79.773,-1.465,170.108,1.0
3.5166,128.182735,37.958877,6982.8043224,-80.157,-1.484,170.072,1.0
3.5333,128.182744,37.958831,6982.509580800001,-80.549,-1.504,170.036,1.0
3.55,128.182753,37.958785,6982.212705600001,-80.949,-1.525,170.002,1.0
3.5666,128.182762,37.958739,6981.914611200001,-81.356,-1.546,169.968,1.0
3.5833,128.182771,37.958693,6981.614383200001,-81.768,-1.567,169.935,1.0
3.6,128.18278,37.958647,6981.3126312,-82.186,-1.589,169.901,1.0
3.6166,128.18279,37.958601,6981.009050400001,-82.609,-1.61,169.867,1.0
3.6333,128.182799,37.958555,6980.7036408,-83.041,-1.633,169.834,1.0
3.65,128.182808,37.958509,6980.396097600001,-83.481,-1.656,169.802,1.0
3.6666,128.182818,37.958463,6980.0870304,-83.928,-1.679,169.77,1.0
3.6833,128.182827,37.958417,6979.7758296,-84.382,-1.703,169.739,1.0
3.7,128.182837,37.958371,6979.4628,-84.842,-1.727,169.707,1.0
3.7166,128.182846,37.958325,6979.1479416,-85.306,-1.751,169.675,1.0
3.7333,128.182856,37.958279,6978.8306448,-85.775,-1.775,169.643,1.0
3.75,128.182866,37.958232,6978.5115192,-86.249,-1.8,169.612,1.0
3.7666,128.182875,37.958186,6978.19026,-86.726,-1.825,169.581,1.0
3.7833,128.182885,37.95814,6977.867172,-87.207,-1.85,169.55,1.0
3.8,128.182895,37.958094,6977.5416456,-87.69,-1.875,169.518,1.0
3.8166,128.182905,37.958048,6977.2139856,-88.176,-1.9,169.485,1.0
3.8333,128.182914,37.958002,6976.883887200001,-88.662,-1.926,169.453,1.0
3.85,128.182924,37.957956,6976.551960000001,-89.149,-1.951,169.42,1.0
3.8666,128.182934,37.95791,6976.2172896,-89.635,-1.977,169.388,1.0
3.8833,128.182944,37.957864,6975.8807904000005,-90.121,-2.003,169.355,1.0
3.9,128.182954,37.957818,6975.541548,-90.607,-2.029,169.321,1.0
3.9166,128.182964,37.957771,6975.200172,-91.094,-2.056,169.287,1.0
3.9333,128.182974,37.957725,6974.8563576,-91.581,-2.083,169.253,1.0
3.95,128.182985,37.957679,6974.5104096000005,-92.068,-2.11,169.22,1.0
3.9666,128.182995,37.957633,6974.161718400001,-92.556,-2.137,169.187,1.0
3.9833,128.183005,37.957587,6973.8105888,-93.045,-2.165,169.154,1.0
4.0,128.183015,37.957541,6973.4570208,-93.534,-2.194,169.12,1.0
4.0166,128.183026,37.957495,6973.1010144,-94.024,-2.222,169.086,1.0
4.0333,128.183036,37.957448,6972.742264800001,-94.516,-2.251,169.053,1.0
4.05,128.183046,37.957402,6972.3810768,-95.01,-2.28,169.021,1.0
4.0666,128.183057,37.957356,6972.017450400001,-95.507,-2.31,168.989,1.0
4.0833,128.183067,37.95731,6971.650776,-96.005,-2.34,168.957,1.0
4.1,128.183078,37.957264,6971.281968,-96.505,-2.37,168.924,1.0
4.1166,128.183088,37.957217,6970.910112,-97.007,-2.4,168.892,1.0
4.1333,128.183099,37.957171,6970.5355128,-97.507,-2.431,168.86,1.0
4.15,128.183109,37.957125,6970.1584752,-98.007,-2.461,168.828,1.0
4.1666,128.18312,37.957079,6969.7786944,-98.505,-2.492,168.797,1.0
4.1833,128.183131,37.957033,6969.3958656,-99.003,-2.523,168.765,1.0
4.2,128.183142,37.956986,6969.0105984,-99.5,-2.554,168.733,1.0
4.2166,128.183152,37.95694,6968.6222832,-99.996,-2.586,168.701,1.0
4.2333,128.183163,37.956894,6968.231224800001,-100.488,-2.618,168.669,1.0
4.25,128.183174,37.956848,6967.837118400001,-100.978,-2.65,168.637,1.0
4.2666,128.183185,37.956801,6967.440573600001,-101.465,-2.682,168.606,1.0
4.2833,128.183196,37.956755,6967.040676,-101.95,-2.714,168.574,1.0
4.3,128.183207,37.956709,6966.6380352,-102.433,-2.747,168.542,1.0
4.3166,128.183218,37.956663,6966.232651200001,-102.914,-2.78,168.51,1.0
4.3333,128.183229,37.956616,6965.824219200001,-103.39,-2.813,168.479,1.0
4.35,128.18324,37.95657,6965.4127392,-103.862,-2.846,168.447,1.0
4.3666,128.183251,37.956524,6964.998516,-104.331,-2.879,168.416,1.0
4.3833,128.183262,37.956478,6964.58094,-104.796,-2.913,168.384,1.0
4.4,128.183273,37.956431,6964.1606208,-105.258,-2.947,168.353,1.0
4.4166,128.183284,37.956385,6963.7372536,-105.718,-2.982,168.321,1.0
4.4333,128.183296,37.956339,6963.310533600001,-106.174,-3.016,168.29,1.0
4.45,128.183307,37.956292,6962.881070400001,-106.625,-3.051,168.259,1.0
4.4666,128.183318,37.956246,6962.4485592,-107.072,-3.085,168.228,1.0
4.4833,128.183329,37.9562,6962.0126952,-107.516,-3.12,168.197,1.0
4.5,128.183341,37.956153,6961.5737832,-107.956,-3.156,168.166,1.0
4.5166,128.183352,37.956107,6961.1318232,-108.395,-3.192,168.136,1.0
4.5333,128.183364,37.956061,6960.686815200001,-108.827,-3.227,168.105,1.0
4.55,128.183375,37.956014,6960.238454400001,-109.252,-3.263,168.074,1.0
4.5666,128.183386,37.955968,6959.7870456,-109.672,-3.299,168.044,1.0
4.5833,128.183398,37.955922,6959.332284000001,-110.087,-3.335,168.013,1.0
4.6,128.18341,37.955875,6958.8744744000005,-110.498,-3.371,167.983,1.0
4.6166,128.183421,37.955829,6958.4136168,-110.906,-3.408,167.952,1.0
4.6333,128.183433,37.955783,6957.949406400001,-111.304,-3.445,167.921,1.0
4.65,128.183444,37.955736,6957.4818432,-111.694,-3.481,167.891,1.0
4.6666,128.183456,37.95569,6957.011232000001,-112.077,-3.518,167.86,1.0
4.6833,128.183468,37.955643,6956.537268,-112.453,-3.555,167.829,1.0
4.7,128.183479,37.955597,6956.060256000001,-112.823,-3.593,167.798,1.0
4.7166,128.183491,37.955551,6955.5795864,-113.189,-3.63,167.767,1.0
4.7333,128.183503,37.955504,6955.0958688,-113.547,-3.668,167.737,1.0
4.75,128.183515,37.955458,6954.6091032,-113.897,-3.706,167.706,1.0
4.7666,128.183527,37.955411,6954.11868,-114.24,-3.744,167.676,1.0
4.7833,128.183538,37.955365,6953.624904,-114.578,-3.782,167.646,1.0
4.8,128.18355,37.955318,6953.1280799999995,-114.911,-3.821,167.616,1.0
4.8166,128.183562,37.955272,6952.6275984,-115.24,-3.859,167.586,1.0
4.8333,128.183574,37.955225,6952.124068800001,-115.559,-3.898,167.555,1.0
4.85,128.183586,37.955179,6951.617186400001,-115.871,-3.937,167.525,1.0
4.8666,128.183598,37.955132,6951.1066464000005,-116.175,-3.976,167.495,1.0
4.8833,128.18361,37.955086,6950.5930584,-116.473,-4.015,167.464,1.0
4.9,128.183622,37.955039,6950.0758128,-116.766,-4.054,167.434,1.0
4.9166,128.183634,37.954993,6949.5552144,-117.054,-4.094,167.404,1.0
4.9333,128.183647,37.954946,6949.031568,-117.333,-4.134,167.374,1.0
4.95,128.183659,37.9549,6948.504264,-117.603,-4.173,167.343,1.0
4.9666,128.183671,37.954853,6947.9733024,-117.867,-4.213,167.312,1.0
4.9833,128.183683,37.954807,6947.439292800001,-118.124,-4.253,167.282,1.0
5.0,128.183695,37.95476,6946.9016255999995,-118.376,-4.293,167.251,1.0
5.0166,128.183708,37.954714,6946.360300800001,-118.623,-4.334,167.221,1.0
5.0333,128.18372,37.954667,6945.815928000001,-118.863,-4.375,167.191,1.0
5.05,128.183732,37.95462,6945.267897600001,-119.096,-4.415,167.16,1.0
5.0666,128.183744,37.954574,6944.716514400001,-119.323,-4.456,167.13,1.0
5.0833,128.183757,37.954527,6944.1614736,-119.544,-4.497,167.099,1.0
5.1,128.183769,37.954481,6943.6027752,-119.762,-4.538,167.069,1.0
5.1166,128.183782,37.954434,6943.040724,-119.976,-4.579,167.039,1.0
5.1333,128.183794,37.954387,6942.475015200001,-120.183,-4.621,167.009,1.0
5.15,128.183807,37.954341,6941.9059536,-120.384,-4.662,166.979,1.0
5.1666,128.183819,37.954294,6941.3332344,-120.58,-4.704,166.948,1.0
5.1833,128.183832,37.954248,6940.7568576,-120.772,-4.746,166.918,1.0
5.2,128.183844,37.954201,6940.177128,-120.96,-4.787,166.887,1.0
5.2166,128.183857,37.954154,6939.5937408,-121.145,-4.83,166.857,1.0
5.2333,128.183869,37.954108,6939.006696,-121.323,-4.872,166.826,1.0
5.25,128.183882,37.954061,6938.4159936,-121.497,-4.915,166.794,1.0
5.2666,128.183895,37.954014,6937.8216336000005,-121.665,-4.958,166.762,1.0
5.2833,128.183907,37.953968,6937.2239208,-121.83,-5.002,166.729,1.0
5.3,128.18392,37.953921,6936.6222456000005,-121.991,-5.045,166.697,1.0
5.3166,128.183933,37.953874,6936.0169128,-122.149,-5.089,166.665,1.0
5.3333,128.183946,37.953827,6935.4082272000005,-122.303,-5.133,166.632,1.0
5.35,128.183959,37.953781,6934.795579200001,-122.454,-5.177,166.599,1.0
5.3666,128.183971,37.953734,6934.179273600001,-122.603,-5.222,166.566,1.0
5.3833,128.183984,37.953687,6933.559005600001,-122.748,-5.267,166.533,1.0
5.4,128.183997,37.953641,6932.9353848,-122.892,-5.311,166.501,1.0
5.4166,128.18401,37.953594,6932.307801600001,-123.034,-5.356,166.468,1.0
5.4333,128.184023,37.953547,6931.6765608000005,-123.175,-5.4,166.437,1.0
5.45,128.184036,37.9535,6931.0413576,-123.314,-5.444,166.406,1.0
5.4666,128.184049,37.953454,6930.4024968,-123.452,-5.487,166.376,1.0
5.4833,128.184062,37.953407,6929.7599784,-123.588,-5.53,166.347,1.0
5.5,128.184075,37.95336,6929.113497600001,-123.724,-5.572,166.319,1.0
5.5166,128.184088,37.953313,6928.4633592,-123.859,-5.615,166.29,1.0
5.5333,128.184101,37.953266,6927.8092584000005,-123.993,-5.654,166.267,1.0
5.55,128.184115,37.95322,6927.1515,-124.126,-5.69,166.249,1.0
5.5666,128.184128,37.953173,6926.490084000001,-124.258,-5.724,166.233,1.0
5.5833,128.184141,37.953126,6925.824705600001,-124.389,-5.757,166.22,1.0
5.6,128.184154,37.953079,6925.155669600001,-124.519,-5.789,166.208,1.0
5.6166,128.184167,37.953032,6924.4826712,-124.649,-5.821,166.196,1.0
5.6333,128.184181,37.952986,6923.806015200001,-124.777,-5.857,166.178,1.0
5.65,128.184194,37.952939,6923.125396800001,-124.903,-5.897,166.154,1.0
5.6666,128.184207,37.952892,6922.4411208,-125.029,-5.94,166.126,1.0
5.6833,128.184221,37.952845,6921.7528824,-125.153,-5.985,166.096,1.0
5.7,128.184234,37.952798,6921.060986400001,-125.277,-6.03,166.064,1.0
5.7166,128.184248,37.952751,6920.365128,-125.4,-6.076,166.032,1.0
5.7333,128.184261,37.952705,6919.6653072,-125.523,-6.124,165.998,1.0
5.75,128.184275,37.952658,6918.961828800001,-125.644,-6.173,165.961,1.0
5.7666,128.184288,37.952611,6918.254388000001,-125.766,-6.224,165.924,1.0
5.7833,128.184302,37.952564,6917.54268,-125.887,-6.274,165.886,1.0
5.8,128.184315,37.952517,6916.8273144,-126.007,-6.325,165.848,1.0
5.8166,128.184329,37.95247,6916.1079864,-126.127,-6.375,165.811,1.0
5.8333,128.184342,37.952423,6915.384696,-126.247,-6.425,165.775,1.0
5.85,128.184356,37.952376,6914.6574432,-126.366,-6.473,165.74,1.0
5.8666,128.18437,37.95233,6913.926228,-126.484,-6.521,165.708,1.0
5.8833,128.184384,37.952283,6913.191050400001,-126.601,-6.567,165.676,1.0
5.9,128.184397,37.952236,6912.451910400001,-126.718,-6.614,165.644,1.0
5.9166,128.184411,37.952189,6911.7085032,-126.834,-6.66,165.614,1.0
5.9333,128.184425,37.952142,6910.961438400001,-126.949,-6.706,165.584,1.0
5.95,128.184439,37.952095,6910.210106400001,-127.064,-6.75,165.557,1.0
5.9666,128.184453,37.952048,6909.454812,-127.179,-6.794,165.53,1.0
5.9833,128.184467,37.952001,6908.695555200001,-127.292,-6.837,165.504,1.0
6.0,128.18448,37.951954,6907.9320312,-127.406,-6.88,165.478,1.0
6.0166,128.184494,37.951907,6907.1645448,-127.519,-6.923,165.453,1.0
6.0333,128.184508,37.95186,6906.393096000001,-127.632,-6.967,165.426,1.0
6.05,128.184522,37.951813,6905.61738,-127.745,-7.011,165.399,1.0
6.0666,128.184537,37.951766,6904.8377016,-127.859,-7.057,165.372,1.0
6.0833,128.184551,37.951719,6904.053756,-127.973,-7.102,165.344,1.0
6.1,128.184565,37.951672,6903.265848,-128.087,-7.148,165.315,1.0
6.1166,128.184579,37.951625,6902.473977600001,-128.201,-7.194,165.287,1.0
6.1333,128.184593,37.951578,6901.67784,-128.316,-7.241,165.258,1.0
6.15,128.184607,37.951531,6900.8774352,-128.432,-7.289,165.227,1.0
6.1666,128.184621,37.951484,6900.0727632,-128.548,-7.338,165.196,1.0
6.1833,128.184636,37.951437,6899.2641288,-128.664,-7.387,165.164,1.0
6.2,128.18465,37.95139,6898.4512272,-128.78,-7.436,165.132,1.0
6.2166,128.184664,37.951343,6897.6343632,-128.897,-7.485,165.101,1.0
6.2333,128.184679,37.951296,6896.812927200001,-129.014,-7.535,165.069,1.0
6.25,128.184693,37.951249,6895.9875288,-129.131,-7.585,165.036,1.0
6.2666,128.184707,37.951202,6895.1575584,-129.249,-7.635,165.004,1.0
6.2833,128.184722,37.951155,6894.3236256,-129.367,-7.685,164.972,1.0
6.3,128.184736,37.951108,6893.4854256,-129.484,-7.736,164.94,1.0
6.3166,128.184751,37.951061,6892.6429584,-129.602,-7.786,164.908,1.0
6.3333,128.184765,37.951014,6891.796224000001,-129.72,-7.836,164.877,1.0
6.35,128.18478,37.950967,6890.9449176,-129.838,-7.886,164.845,1.0
6.3666,128.184795,37.95092,6890.0896488,-129.957,-7.936,164.814,1.0
6.3833,128.184809,37.950873,6889.229808,-130.075,-7.986,164.783,1.0
6.4,128.184824,37.950826,6888.3657,-130.194,-8.036,164.752,1.0
6.4166,128.184838,37.950779,6887.497324800001,-130.312,-8.086,164.721,1.0
6.4333,128.184853,37.950732,6886.624682400001,-130.431,-8.136,164.69,1.0
6.45,128.184868,37.950685,6885.7474680000005,-130.549,-8.187,164.66,1.0
6.4666,128.184883,37.950638,6884.8659864,-130.668,-8.237,164.629,1.0
6.4833,128.184898,37.950591,6883.980237600001,-130.786,-8.288,164.599,1.0
6.5,128.184912,37.950544,6883.0899168,-130.905,-8.338,164.568,1.0
6.5166,128.184927,37.950496,6882.195024000001,-131.023,-8.388,164.538,1.0
6.5333,128.184942,37.950449,6881.295864000001,-131.141,-8.439,164.507,1.0
6.55,128.184957,37.950402,6880.392436800001,-131.259,-8.49,164.476,1.0
6.5666,128.184972,37.950355,6879.484437600001,-131.377,-8.542,164.445,1.0
6.5833,128.184987,37.950308,6878.5718664,-131.495,-8.594,164.414,1.0
6.6,128.185002,37.950261,6877.6547232,-131.613,-8.646,164.383,1.0
6.6166,128.185017,37.950214,6876.7333128,-131.731,-8.697,164.353,1.0
6.6333,128.185032,37.950167,6875.8073304,-131.848,-8.749,164.322,1.0
6.65,128.185047,37.95012,6874.8770808,-131.965,-8.801,164.291,1.0
6.6666,128.185062,37.950073,6873.9419544,-132.082,-8.853,164.261,1.0
6.6833,128.185078,37.950025,6873.0025608000005,-132.199,-8.905,164.23,1.0
6.7,128.185093,37.949978,6872.0582904,-132.316,-8.957,164.2,1.0
6.7166,128.185108,37.949931,6871.1097528,-132.433,-9.009,164.17,1.0
6.7333,128.185123,37.949884,6870.1566432,-132.549,-9.061,164.14,1.0
6.75,128.185139,37.949837,6869.198656800001,-132.666,-9.113,164.11,1.0
6.7666,128.185154,37.94979,6868.2364032,-132.782,-9.165,164.081,1.0
6.7833,128.185169,37.949743,6867.2692728,-132.899,-9.217,164.052,1.0
6.8,128.185185,37.949696,6866.2978752,-133.015,-9.269,164.023,1.0
6.8166,128.1852,37.949649,6865.321600800001,-133.131,-9.321,163.994,1.0
6.8333,128.185216,37.949601,6864.3407544,-133.247,-9.373,163.964,1.0
6.85,128.185231,37.949554,6863.3553360000005,-133.363,-9.426,163.935,1.0
6.8666,128.185247,37.949507,6862.3650408,-133.478,-9.479,163.905,1.0
6.8833,128.185262,37.94946,6861.3701736,-133.594,-9.532,163.875,1.0
6.9,128.185278,37.949413,6860.3707343999995,-133.709,-9.585,163.845,1.0
6.9166,128.185293,37.949366,6859.366723200001,-133.824,-9.639,163.815,1.0
6.9333,128.185309,37.949319,6858.3578352,-133.938,-9.692,163.785,1.0
6.95,128.185325,37.949271,6857.344070400001,-134.053,-9.746,163.755,1.0
6.9666,128.18534,37.949224,6856.325733600001,-134.167,-9.801,163.724,1.0
6.9833,128.185356,37.949177,6855.302520000001,-134.282,-9.855,163.694,1.0
7.0,128.185372,37.94913,6854.2747344,-134.396,-9.909,163.664,1.0
7.0166,128.185388,37.949083,6853.242072,-134.51,-9.964,163.634,1.0
7.0333,128.185403,37.949036,6852.2045328,-134.625,-10.018,163.604,1.0
7.05,128.185419,37.948988,6851.1624216,-134.739,-10.073,163.574,1.0
7.0666,128.185435,37.948941,6850.115433600001,-134.854,-10.128,163.544,1.0
7.0833,128.185451,37.948894,6849.0635688,-134.968,-10.184,163.514,1.0
7.1,128.185467,37.948847,6848.006827200001,-135.083,-10.239,163.484,1.0
7.1166,128.185483,37.9488,6846.945208800001,-135.197,-10.294,163.454,1.0
7.1333,128.185499,37.948753,6845.8787136,-135.312,-10.349,163.424,1.0
7.15,128.185515,37.948706,6844.8076464000005,-135.426,-10.405,163.393,1.0
7.1666,128.185531,37.948658,6843.7313976000005,-135.54,-10.461,163.363,1.0
7.1833,128.185547,37.948611,6842.650272,-135.655,-10.518,163.332,1.0
7.2,128.185563,37.948564,6841.5642696,-135.769,-10.574,163.302,1.0
7.2166,128.18558,37.948517,6840.4733904,-135.882,-10.63,163.271,1.0
7.2333,128.185596,37.94847,6839.3773296,-135.996,-10.687,163.241,1.0
7.25,128.185612,37.948423,6838.2766968000005,-136.11,-10.744,163.21,1.0
7.2666,128.185628,37.948375,6837.170882400001,-136.224,-10.802,163.179,1.0
7.2833,128.185645,37.948328,6836.0598864,-136.337,-10.859,163.149,1.0
7.3,128.185661,37.948281,6834.9440136,-136.451,-10.916,163.118,1.0
7.3166,128.185677,37.948234,6833.823264000001,-136.565,-10.974,163.087,1.0
7.3333,128.185694,37.948187,6832.6973328,-136.678,-11.032,163.057,1.0
7.35,128.18571,37.94814,6831.5665248000005,-136.792,-11.09,163.026,1.0
7.3666,128.185727,37.948092,6830.4305352,-136.906,-11.148,162.995,1.0
7.3833,128.185743,37.948045,6829.289364,-137.02,-11.206,162.965,1.0
7.4,128.18576,37.947998,6828.143316,-137.135,-11.264,162.934,1.0
7.4166,128.185776,37.947951,6826.9920864000005,-137.249,-11.322,162.904,1.0
7.4333,128.185793,37.947904,6825.8356752,-137.363,-11.381,162.874,1.0
7.45,128.185809,37.947857,6824.674387200001,-137.478,-11.44,162.843,1.0
7.4666,128.185826,37.947809,6823.5076128,-137.592,-11.499,162.812,1.0
7.4833,128.185843,37.947762,6822.335656800001,-137.706,-11.558,162.781,1.0
7.5,128.18586,37.947715,6821.158824000001,-137.821,-11.618,162.751,1.0
7.5166,128.185876,37.947668,6819.976809600001,-137.935,-11.677,162.72,1.0
7.5333,128.185893,37.947621,6818.7893088,-138.049,-11.737,162.69,1.0
7.55,128.18591,37.947574,6817.5966264,-138.164,-11.797,162.659,1.0
7.5666,128.185927,37.947526,6816.3987624,-138.278,-11.857,162.628,1.0
7.5833,128.185944,37.947479,6815.1957168,-138.393,-11.917,162.597,1.0
7.6,128.185961,37.947432,6813.9871848,-138.508,-11.978,162.566,1.0
7.6166,128.185977,37.947385,6812.773776,-138.623,-12.038,162.536,1.0
7.6333,128.185994,37.947338,6811.554576,-138.737,-12.098,162.505,1.0
7.65,128.186011,37.947291,6810.3304992,-138.852,-12.16,162.474,1.0
7.6666,128.186028,37.947244,6809.100936,-138.967,-12.221,162.443,1.0
7.6833,128.186046,37.947196,6807.8658864,-139.081,-12.283,162.412,1.0
7.7,128.186063,37.947149,6806.6256552,-139.195,-12.344,162.381,1.0
7.7166,128.18608,37.947102,6805.379937600001,-139.309,-12.406,162.35,1.0
7.7333,128.186097,37.947055,6804.129038400001,-139.423,-12.468,162.319,1.0
7.75,128.186114,37.947008,6802.872348,-139.536,-12.53,162.287,1.0
7.7666,128.186131,37.946961,6801.610476,-139.649,-12.593,162.256,1.0
7.7833,128.186149,37.946914,6800.3431176,-139.762,-12.655,162.224,1.0
7.8,128.186166,37.946866,6799.0705776,-139.874,-12.718,162.193,1.0
7.8166,128.186183,37.946819,6797.7922464,-139.987,-12.781,162.162,1.0
7.8333,128.186201,37.946772,6796.508428800001,-140.099,-12.844,162.131,1.0
7.85,128.186218,37.946725,6795.219124800001,-140.212,-12.907,162.1,1.0
7.8666,128.186235,37.946678,6793.9243344,-140.324,-12.97,162.068,1.0
7.8833,128.186253,37.946631,6792.6240576,-140.437,-13.034,162.037,1.0
7.9,128.18627,37.946584,6791.3182944,-140.549,-13.097,162.006,1.0
7.9166,128.186288,37.946537,6790.00674,-140.662,-13.161,161.975,1.0
7.9333,128.186305,37.946489,6788.6896992,-140.775,-13.225,161.944,1.0
7.95,128.186323,37.946442,6787.367172,-140.887,-13.289,161.913,1.0
7.9666,128.186341,37.946395,6786.0388536,-140.999,-13.353,161.882,1.0
7.9833,128.186358,37.946348,6784.7050488,-141.111,-13.418,161.85,1.0
8.0,128.186376,37.946301,6783.3654528,-141.222,-13.483,161.819,1.0
8.0166,128.186394,37.946254,6782.0203704000005,-141.334,-13.547,161.788,1.0
8.0333,128.186411,37.946207,6780.669192,-141.445,-13.612,161.757,1.0
8.05,128.186429,37.94616,6779.3128320000005,-141.556,-13.678,161.725,1.0
8.0666,128.186447,37.946113,6777.950376,-141.666,-13.743,161.693,1.0
8.0833,128.186465,37.946066,6776.5824336000005,-141.776,-13.809,161.662,1.0
8.1,128.186483,37.946019,6775.2087,-141.886,-13.875,161.63,1.0
8.1166,128.186501,37.945972,6773.828870400001,-141.996,-13.941,161.599,1.0
8.1333,128.186519,37.945924,6772.443554400001,-142.106,-14.007,161.568,1.0
8.15,128.186536,37.945877,6771.052447200001,-142.215,-14.074,161.536,1.0
8.1666,128.186554,37.94583,6769.6555488,-142.324,-14.14,161.504,1.0
8.1833,128.186573,37.945783,6768.2525544,-142.433,-14.207,161.473,1.0
8.2,128.186591,37.945736,6766.8440736,-142.542,-14.274,161.441,1.0
8.2166,128.186609,37.945689,6765.4294968,-142.651,-14.341,161.41,1.0
8.2333,128.186627,37.945642,6764.0088240000005,-142.76,-14.408,161.379,1.0
8.25,128.186645,37.945595,6762.58236,-142.869,-14.475,161.347,1.0
8.2666,128.186663,37.945548,6761.1501048,-142.978,-14.543,161.316,1.0
8.2833,128.186681,37.945501,6759.7120584,-143.087,-14.611,161.284,1.0
8.3,128.1867,37.945454,6758.267611200001,-143.196,-14.679,161.253,1.0
8.3166,128.186718,37.945407,6756.8173728,-143.305,-14.746,161.222,1.0
8.3333,128.186736,37.94536,6755.3613432,-143.413,-14.815,161.191,1.0
8.35,128.186755,37.945313,6753.8992176,-143.521,-14.883,161.159,1.0
8.3666,128.186773,37.945266,6752.430996,-143.628,-14.953,161.127,1.0
8.3833,128.186791,37.945219,6750.956678400001,-143.735,-15.022,161.095,1.0
8.4,128.18681,37.945172,6749.4762648000005,-143.841,-15.091,161.063,1.0
8.4166,128.186828,37.945125,6747.9897552,-143.947,-15.16,161.032,1.0
8.4333,128.186847,37.945078,6746.4971496,-144.053,-15.229,161.0,1.0
8.45,128.186865,37.945031,6744.9987528,-144.158,-15.299,160.968,1.0
8.4666,128.186884,37.944984,6743.4939552000005,-144.262,-15.37,160.936,1.0
8.4833,128.186903,37.944937,6741.982756800001,-144.367,-15.44,160.904,1.0
8.5,128.186921,37.94489,6740.4657672,-144.47,-15.51,160.872,1.0
8.5166,128.18694,37.944843,6738.942376800001,-144.574,-15.58,160.84,1.0
8.5333,128.186959,37.944796,6737.4128904,-144.677,-15.651,160.809,1.0
8.55,128.186977,37.94475,6735.8770032,-144.781,-15.722,160.777,1.0
8.5666,128.186996,37.944703,6734.33502,-144.885,-15.793,160.745,1.0
8.5833,128.187015,37.944656,6732.786940800001,-144.988,-15.864,160.714,1.0
8.6,128.187034,37.944609,6731.232156000001,-145.092,-15.935,160.682,1.0
8.6166,128.187053,37.944562,6729.671275199999,-145.196,-16.006,160.651,1.0
8.6333,128.187071,37.944515,6728.1039936,-145.299,-16.077,160.619,1.0
8.65,128.18709,37.944468,6726.530616,-145.402,-16.149,160.588,1.0
8.6666,128.187109,37.944421,6724.9505328000005,-145.505,-16.221,160.556,1.0
8.6833,128.187128,37.944374,6723.3643536,-145.608,-16.294,160.524,1.0
8.7,128.187147,37.944328,6721.7717736,-145.71,-16.366,160.492,1.0
8.7166,128.187166,37.944281,6720.172488000001,-145.812,-16.438,160.461,1.0
8.7333,128.187186,37.944234,6718.567106400001,-145.914,-16.511,160.429,1.0
8.75,128.187205,37.944187,6716.955019200001,-146.015,-16.584,160.397,1.0
8.7666,128.187224,37.94414,6715.3365312000005,-146.116,-16.658,160.365,1.0
8.7833,128.187243,37.944093,6713.7116424000005,-146.216,-16.731,160.332,1.0
8.8,128.187262,37.944047,6712.0803528,-146.316,-16.805,160.3,1.0
8.8166,128.187281,37.944,6710.4423576,-146.415,-16.879,160.269,1.0
8.8333,128.187301,37.943953,6708.797656800001,-146.515,-16.953,160.237,1.0
8.85,128.18732,37.943906,6707.146555200001,-146.614,-17.027,160.205,1.0
8.8666,128.187339,37.943859,6705.4890528,-146.714,-17.102,160.173,1.0
8.8833,128.187359,37.943813,6703.8245400000005,-146.813,-17.177,160.141,1.0
8.9,128.187378,37.943766,6702.153626400001,-146.913,-17.251,160.109,1.0
8.9166,128.187398,37.943719,6700.476312,-147.012,-17.326,160.078,1.0
8.9333,128.187417,37.943673,6698.7919872,-147.111,-17.4,160.046,1.0
8.95,128.187436,37.943626,6697.100956800001,-147.21,-17.476,160.014,1.0
8.9666,128.187456,37.943579,6695.4035256,-147.308,-17.552,159.982,1.0
8.9833,128.187476,37.943532,6693.699084000001,-147.406,-17.628,159.95,1.0
9.0,128.187495,37.943486,6691.988241600001,-147.504,-17.703,159.918,1.0
9.0166,128.187515,37.943439,6690.2703888,-147.601,-17.779,159.886,1.0
9.0333,128.187534,37.943392,6688.5458304,-147.698,-17.855,159.854,1.0
9.05,128.187554,37.943346,6686.8145664,-147.795,-17.932,159.822,1.0
9.0666,128.187574,37.943299,6685.076292000001,-147.891,-18.009,159.79,1.0
9.0833,128.187594,37.943252,6683.331312,-147.987,-18.086,159.757,1.0
9.1,128.187613,37.943206,6681.5793216,-148.083,-18.163,159.725,1.0
9.1166,128.187633,37.943159,6679.8206256,-148.178,-18.24,159.694,1.0
9.1333,128.187653,37.943113,6678.055224000001,-148.273,-18.317,159.662,1.0
9.15,128.187673,37.943066,6676.2825072,-148.368,-18.395,159.629,1.0
9.1666,128.187693,37.943019,6674.5030848,-148.463,-18.474,159.597,1.0
9.1833,128.187713,37.942973,6672.716652000001,-148.557,-18.552,159.565,1.0
9.2,128.187733,37.942926,6670.923513600001,-148.651,-18.63,159.533,1.0
9.2166,128.187753,37.94288,6669.123060000001,-148.745,-18.708,159.501,1.0
9.2333,128.187773,37.942833,6667.315596,-148.839,-18.787,159.469,1.0
9.25,128.187793,37.942787,6665.5011216,-148.933,-18.866,159.437,1.0
9.2666,128.187813,37.94274,6663.6799416,-149.026,-18.945,159.404,1.0
9.2833,128.187833,37.942694,6661.851446400001,-149.118,-19.025,159.372,1.0
9.3,128.187853,37.942647,6660.015636,-149.211,-19.104,159.34,1.0
9.3166,128.187873,37.942601,6658.17312,-149.303,-19.183,159.308,1.0
9.3333,128.187893,37.942554,6656.3232888,-149.396,-19.263,159.276,1.0
9.35,128.187914,37.942508,6654.4661424000005,-149.487,-19.343,159.244,1.0
9.3666,128.187934,37.942462,6652.6019856,-149.579,-19.424,159.211,1.0
9.3833,128.187954,37.942415,6650.7308184,-149.67,-19.504,159.179,1.0
9.4,128.187975,37.942369,6648.852336,-149.761,-19.585,159.147,1.0
9.4166,128.187995,37.942322,6646.966538400001,-149.851,-19.665,159.115,1.0
9.4333,128.188015,37.942276,6645.0734256,-149.942,-19.746,159.083,1.0
9.45,128.188036,37.94223,6643.1733024,-150.031,-19.827,159.051,1.0
9.4666,128.188056,37.942183,6641.265864000001,-150.121,-19.909,159.018,1.0
9.4833,128.188077,37.942137,6639.350805600001,-150.21,-19.991,158.986,1.0
9.5,128.188097,37.942091,6637.4287368000005,-150.299,-20.073,158.953,1.0
9.5166,128.188118,37.942044,6635.4993527999995,-150.387,-20.155,158.921,1.0
9.5333,128.188138,37.941998,6633.5623488,-150.476,-20.237,158.889,1.0
9.55,128.188159,37.941952,6631.6180296,-150.564,-20.32,158.857,1.0
9.5666,128.18818,37.941906,6629.6663952,-150.652,-20.403,158.824,1.0
9.5833,128.1882,37.941859,6627.7071408,-150.741,-20.486,158.792,1.0
9.6,128.188221,37.941813,6625.7405712,-150.829,-20.569,158.76,1.0
9.6166,128.188242,37.941767,6623.7666864,-150.917,-20.651,158.728,1.0
9.6333,128.188262,37.941721,6621.7848768,-151.005,-20.735,158.696,1.0
9.65,128.188283,37.941675,6619.796056800001,-151.092,-20.819,158.664,1.0
9.6666,128.188304,37.941628,6617.799312,-151.18,-20.903,158.631,1.0
9.6833,128.188325,37.941582,6615.795252000001,-151.267,-20.987,158.599,1.0
9.7,128.188346,37.941536,6613.783572,-151.354,-21.072,158.567,1.0
9.7166,128.188367,37.94149,6611.764272,-151.442,-21.155,158.535,1.0
9.7333,128.188387,37.941444,6609.737352000001,-151.529,-21.24,158.503,1.0
9.75,128.188408,37.941398,6607.7028119999995,-151.616,-21.325,158.47,1.0
9.7666,128.188429,37.941352,6605.660347200001,-151.702,-21.411,158.438,1.0
9.7833,128.18845,37.941306,6603.6105672,-151.789,-21.496,158.405,1.0
9.8,128.188471,37.94126,6601.5528624,-151.876,-21.582,158.373,1.0
9.8166,128.188493,37.941214,6599.487842400001,-151.963,-21.667,158.342,1.0
9.8333,128.188514,37.941168,6597.414592800001,-152.049,-21.753,158.309,1.0
9.85,128.188535,37.941122,6595.334028,-152.134,-21.839,158.277,1.0
9.8666,128.188556,37.941076,6593.245233600001,-152.219,-21.926,158.244,1.0
9.8833,128.188577,37.94103,6591.1491240000005,-152.304,-22.013,158.211,1.0
9.9,128.188598,37.940984,6589.0447848,-152.387,-22.1,158.179,1.0
9.9166,128.18862,37.940938,6586.9328256,-152.471,-22.187,158.147,1.0
9.9333,128.188641,37.940892,6584.8129416,-152.554,-22.274,158.114,1.0
9.95,128.188662,37.940846,6582.685437600001,-152.637,-22.362,158.082,1.0
9.9666,128.188683,37.940801,6580.549704,-152.719,-22.45,158.049,1.0
9.9833,128.188705,37.940755,6578.406045600001,-152.801,-22.539,158.016,1.0
10.0,128.188726,37.940709,6576.2547672,-152.883,-22.627,157.984,1.0
10.0166,128.188748,37.940663,6574.0952592,-152.965,-22.714,157.952,1.0
10.0333,128.188769,37.940617,6571.9278264,-153.046,-22.803,157.92,1.0
10.05,128.188791,37.940572,6569.7524688,-153.127,-22.892,157.887,1.0
10.0666,128.188812,37.940526,6567.5688816,-153.207,-22.981,157.855,1.0
10.0833,128.188834,37.94048,6565.377369600001,-153.287,-23.071,157.822,1.0
10.1,128.188855,37.940435,6563.1779328,-153.367,-23.16,157.79,1.0
10.1166,128.188877,37.940389,6560.9702664,-153.446,-23.249,157.758,1.0
10.1333,128.188898,37.940343,6558.7546752,-153.526,-23.339,157.725,1.0
10.15,128.18892,37.940298,6556.5308544,-153.605,-23.429,157.693,1.0
10.1666,128.188942,37.940252,6554.298804,-153.684,-23.52,157.66,1.0
10.1833,128.188963,37.940206,6552.058524000001,-153.762,-23.611,157.628,1.0
10.2,128.188985,37.940161,6549.810014400001,-153.841,-23.701,157.596,1.0
10.2166,128.189007,37.940115,6547.55358,-153.919,-23.791,157.564,1.0
10.2333,128.189029,37.94007,6545.288611200001,-153.997,-23.882,157.531,1.0
10.25,128.18905,37.940024,6543.0157176,-154.075,-23.974,157.499,1.0
10.2666,128.189072,37.939979,6540.7342896,-154.152,-24.067,157.466,1.0
10.2833,128.189094,37.939933,6538.444632000001,-154.228,-24.159,157.433,1.0
10.3,128.189116,37.939888,6536.1467448,-154.305,-24.251,157.401,1.0
10.3166,128.189138,37.939843,6533.8403232,-154.381,-24.343,157.368,1.0
10.3333,128.18916,37.939797,6531.5259768000005,-154.456,-24.435,157.336,1.0
10.35,128.189182,37.939752,6529.2027912,-154.531,-24.528,157.303,1.0
10.3666,128.189204,37.939707,6526.871376,-154.606,-24.622,157.27,1.0
10.3833,128.189226,37.939661,6524.5317312,-154.68,-24.716,157.238,1.0
10.4,128.189248,37.939616,6522.183247200001,-154.755,-24.809,157.205,1.0
10.4166,128.18927,37.939571,6519.8265336,-154.829,-24.902,157.173,1.0
10.4333,128.189292,37.939526,6517.4612856,-154.902,-24.996,157.14,1.0
10.45,128.189314,37.93948,6515.087808,-154.975,-25.091,157.107,1.0
10.4666,128.189336,37.939435,6512.7054912,-155.049,-25.186,157.075,1.0
10.4833,128.189358,37.93939,6510.3146400000005,-155.121,-25.281,157.042,1.0
10.5,128.189381,37.939345,6507.9152544,-155.194,-25.375,157.009,1.0
10.5166,128.189403,37.9393,6505.5073344,-155.267,-25.47,156.977,1.0
10.5333,128.189425,37.939255,6503.09088,-155.34,-25.565,156.945,1.0
10.55,128.189447,37.93921,6500.6655864,-155.412,-25.661,156.912,1.0
10.5666,128.18947,37.939165,6498.2317584,-155.484,-25.757,156.879,1.0
10.5833,128.189492,37.93912,6495.7890912,-155.557,-25.853,156.847,1.0
10.6,128.189514,37.939075,6493.3378896,-155.629,-25.949,156.815,1.0
10.6166,128.189537,37.93903,6490.8781536,-155.701,-26.045,156.782,1.0
10.6333,128.189559,37.938985,6488.4092736,-155.773,-26.141,156.75,1.0
10.65,128.189581,37.93894,6485.9318592,-155.845,-26.238,156.717,1.0
10.6666,128.189604,37.938895,6483.445605600001,-155.916,-26.336,156.685,1.0
10.6833,128.189626,37.93885,6480.9508176,-155.987,-26.434,156.652,1.0
10.7,128.189649,37.938805,6478.4468856,-156.058,-26.531,156.619,1.0
10.7166,128.189671,37.93876,6475.934114400001,-156.13,-26.629,156.587,1.0
10.7333,128.189694,37.938716,6473.412504,-156.2,-26.727,156.555,1.0
10.75,128.189717,37.938671,6470.8820544,-156.271,-26.825,156.522,1.0
10.7666,128.189739,37.938626,6468.342765600001,-156.341,-26.925,156.489,1.0
10.7833,128.189762,37.938582,6465.794637600001,-156.411,-27.024,156.456,1.0
10.8,128.189784,37.938537,6463.237365600001,-156.481,-27.123,156.424,1.0
10.8166,128.189807,37.938492,6460.6712544,-156.552,-27.222,156.391,1.0
10.8333,128.18983,37.938448,6458.0959992,-156.622,-27.321,156.359,1.0
10.85,128.189852,37.938403,6455.511904800001,-156.692,-27.421,156.326,1.0
10.8666,128.189875,37.938359,6452.9186664,-156.762,-27.522,156.294,1.0
10.8833,128.189898,37.938314,6450.316284,-156.832,-27.623,156.261,1.0
10.9,128.189921,37.93827,6447.7050624,-156.903,-27.723,156.229,1.0
10.9166,128.189944,37.938225,6445.084392000001,-156.973,-27.823,156.197,1.0
10.9333,128.189966,37.938181,6442.4548824,-157.044,-27.924,156.165,1.0
10.95,128.189989,37.938136,6439.8162288,-157.113,-28.025,156.132,1.0
10.9666,128.190012,37.938092,6437.1684312,-157.182,-28.128,156.099,1.0
10.9833,128.190035,37.938048,6434.5111848,-157.251,-28.23,156.066,1.0
11.0,128.190058,37.938003,6431.8450992,-157.32,-28.332,156.033,1.0
11.0166,128.190081,37.937959,6429.1695648,-157.389,-28.434,156.001,1.0
11.0333,128.190104,37.937915,6426.4858008,-157.33,-28.508,155.956,1.0
11.05,128.190127,37.937871,6423.7944168,-157.152,-28.535,155.907,1.0
11.0666,128.19015,37.937826,6421.096632000001,-156.856,-28.502,155.875,1.0
11.0833,128.190173,37.937782,6418.3924464,-156.435,-28.419,155.866,1.0
11.1,128.190196,37.937738,6415.6821648000005,-155.888,-28.308,155.874,1.0
11.1166,128.190219,37.937694,6412.9663968,-155.215,-28.189,155.892,1.0
11.1333,128.190242,37.93765,6410.245447200001,-154.419,-28.077,155.911,1.0
11.15,128.190265,37.937605,6407.5202304,-153.507,-27.974,155.927,1.0
11.1666,128.190288,37.937561,6404.791051200001,-152.483,-27.88,155.94,1.0
11.1833,128.190311,37.937517,6402.0569952000005,-151.354,-27.793,155.951,1.0
11.2,128.190334,37.937473,6399.3192816,-150.125,-27.712,155.961,1.0
11.2166,128.190357,37.937429,6396.5776056,-148.8,-27.635,155.971,1.0
11.2333,128.190381,37.937384,6393.8319672,-147.385,-27.561,155.981,1.0
11.25,128.190404,37.93734,6391.0823664,-145.883,-27.49,155.992,1.0
11.2666,128.190427,37.937296,6388.3294128,-144.298,-27.422,156.004,1.0
11.2833,128.19045,37.937252,6385.5728016,-142.634,-27.357,156.016,1.0
11.3,128.190473,37.937207,6382.8128376,-140.896,-27.293,156.03,1.0
11.3166,128.190496,37.937163,6380.049215999999,-139.088,-27.233,156.044,1.0
11.3333,128.19052,37.937119,6377.282241600001,-137.213,-27.174,156.059,1.0
11.35,128.190543,37.937074,6374.512219200001,-135.272,-27.117,156.076,1.0
11.3666,128.190566,37.93703,6371.7385392,-133.271,-27.062,156.094,1.0
11.3833,128.190589,37.936986,6368.961811200001,-131.211,-27.009,156.113,1.0
11.4,128.190613,37.936941,6366.1820352,-129.096,-26.957,156.133,1.0
11.4166,128.190636,37.936897,6363.398906400001,-126.929,-26.906,156.155,1.0
11.4333,128.190659,37.936853,6360.612424800001,-124.711,-26.858,156.179,1.0
11.45,128.190683,37.936808,6357.8228952,-122.446,-26.81,156.204,1.0
11.4666,128.190706,37.936764,6355.0303176,-120.136,-26.764,156.231,1.0
11.4833,128.190729,37.936719,6352.234692000001,-117.784,-26.72,156.261,1.0
11.5,128.190753,37.936675,6349.436018400001,-115.39,-26.677,156.291,1.0
11.5166,128.190776,37.93663,6346.633992000001,-112.959,-26.635,156.324,1.0
11.5333,128.190799,37.936586,6343.8289176,-110.49,-26.595,156.359,1.0
11.55,128.190823,37.936541,6341.0207952,-107.988,-26.557,156.396,1.0
11.5666,128.190846,37.936497,6338.209320000001,-105.452,-26.52,156.436,1.0
11.5833,128.190869,37.936452,6335.3947968,-102.885,-26.484,156.477,1.0
11.6,128.190893,37.936408,6332.5772256,-100.288,-26.451,156.52,1.0
11.6166,128.190916,37.936363,6329.756606400001,-97.663,-26.419,156.566,1.0
11.6333,128.190939,37.936318,6326.9329392,-95.001,-26.392,156.59,1.0
11.65,128.190963,37.936274,6324.1059192,-92.292,-26.369,156.569,1.0
11.6666,128.190986,37.936229,6321.276156000001,-89.531,-26.348,156.487,1.0
11.6833,128.19101,37.936185,6318.44304,-86.73,-26.326,156.364,1.0
11.7,128.191033,37.93614,6315.606876,-83.906,-26.3,156.228,1.0
11.7166,128.191057,37.936095,6312.767968800001,-81.075,-26.272,156.098,1.0
11.7333,128.19108,37.936051,6309.926928000001,-78.389,-26.251,155.948,1.0
11.75,128.191104,37.936006,6307.0840584,-75.838,-26.23,155.757,1.0
11.7666,128.191128,37.935961,6304.239055200001,-73.397,-26.191,155.508,1.0
11.7833,128.191151,37.935917,6301.3922232,-71.056,-26.127,155.224,1.0
11.8,128.191175,37.935872,6298.544172,-68.804,-26.043,154.932,1.0
11.8166,128.191199,37.935828,6295.695206400001,-66.625,-25.944,154.654,1.0
11.8333,128.191223,37.935783,6292.847460000001,-64.624,-25.838,154.366,1.0
11.85,128.191247,37.935739,6290.000323200001,-62.781,-25.726,154.066,1.0
11.8666,128.191271,37.935694,6287.1544056,-61.072,-25.605,153.768,1.0
11.8833,128.191296,37.935649,6284.310012,-59.48,-25.475,153.485,1.0
11.9,128.19132,37.935605,6281.466837600001,-57.981,-25.337,153.224,1.0
11.9166,128.191345,37.93556,6278.625492000001,-56.552,-25.194,152.985,1.0
11.9333,128.19137,37.935516,6275.7874992,-55.229,-25.055,152.767,1.0
11.95,128.191394,37.935471,6272.9534688,-53.993,-24.922,152.565,1.0
11.9666,128.191419,37.935427,6270.1218768,-52.826,-24.791,152.378,1.0
11.9833,128.191444,37.935382,6267.293637600001,-51.712,-24.66,152.203,1.0
12.0,128.19147,37.935338,6264.469056000001,-50.641,-24.527,152.04,1.0
12.0166,128.191495,37.935293,6261.6484368,-49.6,-24.392,151.888,1.0
12.0333,128.19152,37.935249,6258.8320848,-48.624,-24.274,151.761,1.0
12.05,128.191546,37.935204,6256.0206096,-47.708,-24.179,151.664,1.0
12.0666,128.191572,37.93516,6253.213401600001,-46.839,-24.098,151.588,1.0
12.0833,128.191597,37.935115,6250.410460800001,-46.007,-24.023,151.525,1.0
12.1,128.191623,37.935071,6247.612396800001,-45.2,-23.947,151.467,1.0
12.1166,128.191649,37.935027,6244.8189048,-44.41,-23.866,151.411,1.0
12.1333,128.191675,37.934982,6242.031204,-43.705,-23.802,151.364,1.0
12.15,128.191702,37.934938,6239.2492944000005,-43.08,-23.754,151.325,1.0
12.1666,128.191728,37.934893,6236.4734808,-42.523,-23.714,151.293,1.0
12.1833,128.191755,37.934849,6233.7028488,-42.024,-23.673,151.264,1.0
12.2,128.191781,37.934804,6230.9373984,-41.571,-23.628,151.237,1.0
12.2166,128.191808,37.93476,6228.1774344,-41.152,-23.577,151.21,1.0
12.2333,128.191835,37.934715,6225.424176,-40.85,-23.539,151.184,1.0
12.25,128.191862,37.934671,6222.6773184,-40.655,-23.516,151.158,1.0
12.2666,128.191889,37.934626,6219.9368616,-40.552,-23.498,151.132,1.0
12.2833,128.191916,37.934582,6217.202805600001,-40.529,-23.479,151.108,1.0
12.3,128.191943,37.934538,6214.4739312,-40.571,-23.453,151.086,1.0
12.3166,128.191971,37.934493,6211.7505432,-40.661,-23.421,151.064,1.0
12.3333,128.191998,37.934449,6209.033860800001,-40.9,-23.407,151.046,1.0
12.35,128.192026,37.934404,6206.323274400001,-41.282,-23.431,151.045,1.0
12.3666,128.192054,37.93436,6203.6181744000005,-41.818,-23.498,151.077,1.0
12.3833,128.192082,37.934315,6200.9191704,-42.506,-23.591,151.133,1.0
12.4,128.19211,37.934271,6198.226872,-43.338,-23.69,151.199,1.0
12.4166,128.192138,37.934226,6195.540669600001,-44.305,-23.782,151.262,1.0
12.4333,128.192166,37.934182,6192.856600800001,-45.123,-23.858,151.362,1.0
12.45,128.192194,37.934138,6190.177104,-45.798,-23.917,151.498,1.0
12.4666,128.192223,37.934093,6187.5012648,-46.299,-23.968,151.648,1.0
12.4833,128.192251,37.934049,6184.8287784,-46.604,-24.015,151.794,1.0
12.5,128.19228,37.934004,6182.1587303999995,-46.707,-24.06,151.927,1.0
12.5166,128.192308,37.93396,6179.490511200001,-46.618,-24.103,152.045,1.0
12.5333,128.192337,37.933916,6176.823816,-46.354,-24.143,152.154,1.0
12.55,128.192365,37.933871,6174.1577304,-45.927,-24.179,152.255,1.0
12.5666,128.192394,37.933827,6171.4916448,-45.349,-24.21,152.351,1.0
12.5833,128.192423,37.933782,6168.8255592000005,-44.628,-24.238,152.444,1.0
12.6,128.192452,37.933738,6166.158864,-43.78,-24.265,152.531,1.0
12.6166,128.192481,37.933693,6163.4909496,-42.834,-24.292,152.612,1.0
12.6333,128.19251,37.933649,6160.8221207999995,-41.841,-24.323,152.683,1.0
12.65,128.192539,37.933604,6158.153596800001,-40.822,-24.359,152.745,1.0
12.6666,128.192567,37.93356,6155.4838536,-39.794,-24.395,152.801,1.0
12.6833,128.192596,37.933516,6152.813500800001,-38.768,-24.431,152.853,1.0
12.7,128.192625,37.933471,6150.1422336000005,-37.747,-24.466,152.903,1.0
12.7166,128.192654,37.933427,6147.4703568,-36.734,-24.499,152.953,1.0
12.7333,128.192684,37.933382,6144.7966512,-35.715,-24.531,153.002,1.0
12.75,128.192713,37.933337,6142.1220312000005,-34.69,-24.561,153.051,1.0
12.7666,128.192742,37.933293,6139.4464968,-33.656,-24.59,153.098,1.0
12.7833,128.192771,37.933248,6136.769438400001,-32.615,-24.619,153.142,1.0
12.8,128.1928,37.933204,6134.0914656,-31.567,-24.647,153.184,1.0
12.8166,128.192829,37.933159,6131.4119688,-30.516,-24.676,153.224,1.0
12.8333,128.192858,37.933115,6128.730338400001,-29.447,-24.703,153.264,1.0
12.85,128.192888,37.93307,6126.0474888,-28.364,-24.73,153.304,1.0
12.8666,128.192917,37.933025,6123.363115200001,-27.268,-24.757,153.342,1.0
12.8833,128.192946,37.932981,6120.6772176,-26.16,-24.783,153.379,1.0
12.9,128.192975,37.932936,6117.989796000001,-25.044,-24.81,153.414,1.0
12.9166,128.193005,37.932891,6115.301155200001,-23.922,-24.837,153.448,1.0
12.9333,128.193034,37.932847,6112.6094664,-22.778,-24.863,153.481,1.0
12.95,128.193063,37.932802,6109.9162536,-21.614,-24.89,153.516,1.0
12.9666,128.193092,37.932757,6107.2212119999995,-20.433,-24.916,153.55,1.0
12.9833,128.193122,37.932713,6104.5246464,-19.237,-24.943,153.582,1.0
13.0,128.193151,37.932668,6101.826252000001,-18.03,-24.97,153.612,1.0
13.0166,128.19318,37.932623,6099.126333600001,-16.814,-24.997,153.64,1.0
13.0333,128.19321,37.932578,6096.4230624,-15.569,-25.025,153.67,1.0
13.0499,128.193239,37.932533,6093.7176576,-14.296,-25.053,153.701,1.0
13.0666,128.193269,37.932489,6091.010424000001,-13.0,-25.081,153.732,1.0
13.0833,128.193298,37.932444,6088.301056800001,-11.683,-25.11,153.761,1.0
13.1,128.193327,37.932399,6085.589860800001,-10.351,-25.14,153.788,1.0
13.1166,128.193357,37.932354,6082.876836,-9.007,-25.17,153.812,1.0
13.1333,128.193386,37.932309,6080.1601536,-7.623,-25.201,153.838,1.0
13.15,128.193415,37.932264,6077.440423200001,-6.202,-25.232,153.867,1.0
13.1666,128.193445,37.932219,6074.718864,-4.749,-25.264,153.896,1.0
13.1833,128.193474,37.932174,6071.9951712,-3.27,-25.297,153.922,1.0
13.2,128.193504,37.932129,6069.26904,-1.768,-25.331,153.945,1.0
13.2166,128.193533,37.932085,6066.5407752,-0.252,-25.365,153.965,1.0
13.2333,128.193563,37.93204,6063.8088528,1.316,-25.4,153.988,1.0
13.25,128.193592,37.931995,6061.072968,2.933,-25.437,154.014,1.0
13.2666,128.193621,37.93195,6058.3349496,4.591,-25.476,154.04,1.0
13.2833,128.193651,37.931904,6055.594492800001,6.283,-25.514,154.063,1.0
13.3,128.19368,37.931859,6052.851292800001,8.004,-25.553,154.081,1.0
13.3166,128.19371,37.931814,6050.1056544,9.745,-25.593,154.096,1.0
13.3333,128.193739,37.931769,6047.3560536,11.551,-25.634,154.113,1.0
13.35,128.193769,37.931724,6044.6027952,13.416,-25.679,154.135,1.0
13.3666,128.193798,37.931679,6041.845879200001,15.331,-25.725,154.156,1.0
13.3833,128.193827,37.931634,6039.086524800001,17.291,-25.771,154.173,1.0
13.4,128.193857,37.931589,6036.3241224,19.285,-25.816,154.184,1.0
13.4166,128.193886,37.931544,6033.5589768,21.303,-25.861,154.191,1.0
13.4333,128.193916,37.931498,6030.789259200001,23.389,-25.909,154.199,1.0
13.45,128.193945,37.931453,6028.015884000001,25.536,-25.961,154.21,1.0
13.4666,128.193975,37.931408,6025.2379368,27.743,-26.015,154.221,1.0
13.4833,128.194004,37.931363,6022.4572464,30.003,-26.068,154.229,1.0
13.5,128.194034,37.931318,6019.6728984,32.305,-26.121,154.231,1.0
13.5166,128.194063,37.931272,6016.8858072,34.639,-26.171,154.227,1.0
13.5333,128.194093,37.931227,6014.0935344,37.03,-26.224,154.222,1.0
13.55,128.194122,37.931182,6011.297604,39.474,-26.279,154.217,1.0
13.5666,128.194152,37.931136,6008.497711200001,41.969,-26.337,154.21,1.0
13.5833,128.194181,37.931091,6005.693856000001,44.518,-26.395,154.201,1.0
13.6,128.194211,37.931046,6002.886038400001,47.117,-26.452,154.189,1.0
13.6166,128.19424,37.931001,6000.074868000001,49.757,-26.507,154.172,1.0
13.6333,128.19427,37.930955,5997.2591256,52.445,-26.562,154.151,1.0
13.65,128.194299,37.93091,5994.4397256,55.178,-26.617,154.128,1.0
13.6666,128.194329,37.930864,5991.6163632,57.954,-26.672,154.102,1.0
13.6833,128.194358,37.930819,5988.7893432,60.772,-26.726,154.074,1.0
13.7,128.194388,37.930774,5985.958056,63.631,-26.78,154.042,1.0
13.7166,128.194417,37.930728,5983.122806400001,66.529,-26.832,154.007,1.0
13.7333,128.194447,37.930683,5980.2835944,69.181,-26.855,153.957,1.0
13.75,128.194476,37.930637,5977.4410296,71.584,-26.848,153.895,1.0
13.7666,128.194506,37.930592,5974.5963312,73.762,-26.832,153.829,1.0
13.7833,128.194535,37.930546,5971.749804,75.741,-26.826,153.767,1.0
13.8,128.194565,37.930501,5968.9011432,77.565,-26.839,153.712,1.0
13.8166,128.194594,37.930455,5966.0497392,79.287,-26.866,153.663,1.0
13.8333,128.194623,37.93041,5963.1952872,81.078,-26.911,153.622,1.0
13.85,128.194653,37.930364,5960.3374824,82.948,-26.967,153.584,1.0
13.8666,128.194682,37.930319,5957.4754104,84.914,-27.021,153.547,1.0
13.8833,128.194712,37.930273,5954.6090712,86.982,-27.068,153.51,1.0
13.9,128.194741,37.930227,5951.7390744,89.146,-27.107,153.471,1.0
13.9166,128.194771,37.930182,5948.865115200001,91.389,-27.14,153.432,1.0
13.9333,128.1948,37.930136,5945.9874984,93.708,-27.173,153.391,1.0
13.95,128.19483,37.93009,5943.1059192,96.097,-27.206,153.349,1.0
13.9666,128.194859,37.930045,5940.2206824,98.554,-27.239,153.306,1.0
13.9833,128.194889,37.929999,5937.331788,101.076,-27.272,153.262,1.0
14.0,128.194918,37.929953,5934.439236,103.662,-27.302,153.217,1.0
14.0166,128.194948,37.929908,5931.5427216,106.308,-27.329,153.171,1.0
14.0333,128.194978,37.929862,5928.6428544,109.012,-27.355,153.124,1.0
14.05,128.195007,37.929816,5925.7396344,111.771,-27.378,153.077,1.0
14.0666,128.195037,37.929771,5922.8327568,114.58,-27.399,153.028,1.0
14.0833,128.195066,37.929725,5919.9225264,117.437,-27.418,152.979,1.0
14.1,128.195096,37.929679,5917.0089431999995,120.341,-27.435,152.929,1.0
14.1166,128.195126,37.929633,5914.0917024,123.288,-27.45,152.878,1.0
14.1333,128.195156,37.929588,5911.1714136,126.267,-27.474,152.847,1.0
14.15,128.195185,37.929542,5908.247772,129.277,-27.509,152.834,1.0
14.1666,128.195215,37.929496,5905.3204728,132.321,-27.549,152.828,1.0
14.1833,128.195245,37.92945,5902.3898208,135.395,-27.588,152.821,1.0
14.2,128.195275,37.929404,5899.455511200001,138.491,-27.622,152.81,1.0
14.2166,128.195304,37.929358,5896.5178488,141.603,-27.65,152.794,1.0
14.2333,128.195334,37.929313,5893.5747,144.605,-27.688,152.8,1.0
14.25,128.195364,37.929267,5890.6263696000005,147.491,-27.756,152.843,1.0
14.2666,128.195394,37.929221,5887.672248,150.27,-27.884,152.927,1.0
14.2833,128.195423,37.929175,5884.7114208,152.963,-28.066,153.03,1.0
14.3,128.195453,37.929129,5881.745107199999,155.6,-28.279,153.133,1.0
14.3166,128.195483,37.929083,5878.7730024,158.206,-28.497,153.22,1.0
