Time,Longitude,Latitude,Altitude,Roll (deg),Pitch (deg),Yaw (deg),Health
0.0,128.181881,37.968463,7002.830292000001,0.0,-0.003,179.999,1.0
0.0166,128.181881,37.968418,7002.8116992000005,0.0,-0.012,180.0,1.0
0.0333,128.181881,37.968374,7002.7940208,-0.087,-0.013,179.988,1.0
0.05,128.181881,37.968329,7002.7763424,-0.258,-0.002,179.965,1.0
0.0666,128.181881,37.968284,7002.7595784000005,-0.516,0.015,179.935,1.0
0.0833,128.181881,37.968239,7002.744033600001,-0.864,0.04,179.901,1.0
0.1,128.181881,37.968194,7002.7300128,-1.3,0.068,179.866,1.0
0.1166,128.181881,37.968149,7002.7181256,-1.823,0.098,179.83,1.0
0.1333,128.181881,37.968104,7002.708372,-2.431,0.13,179.794,1.0
0.15,128.181881,37.968059,7002.7013615999995,-3.12,0.162,179.759,1.0
0.1666,128.181881,37.968014,7002.697704,-3.886,0.195,179.725,1.0
0.1833,128.181881,37.967969,7002.69618,-4.727,0.227,179.69,1.0
0.2,128.181881,37.967924,7002.6973992,-5.639,0.26,179.657,1.0
0.2166,128.181881,37.967879,7002.7016664,-6.619,0.291,179.624,1.0
0.2333,128.181881,37.967834,7002.708372,-7.663,0.325,179.59,1.0
0.25,128.181881,37.967789,7002.7181256,-8.77,0.36,179.557,1.0
0.2666,128.181881,37.967744,7002.7306224,-9.935,0.397,179.523,1.0
0.2833,128.181881,37.967699,7002.7455576,-11.157,0.433,179.489,1.0
0.3,128.181881,37.967654,7002.763540800001,-12.433,0.47,179.456,1.0
0.3166,128.181881,37.967609,7002.7842672,-13.761,0.506,179.422,1.0
0.3333,128.181881,37.967564,7002.8077368,-15.138,0.547,179.386,1.0
0.35,128.181881,37.967519,7002.834254400001,-16.563,0.593,179.348,1.0
0.3666,128.181881,37.967474,7002.863515200001,-18.032,0.641,179.309,1.0
0.3833,128.181882,37.967429,7002.8955192,-19.545,0.692,179.268,1.0
0.4,128.181882,37.967384,7002.9305712,-21.099,0.742,179.226,1.0
0.4166,128.181882,37.967339,7002.9680616,-22.693,0.791,179.183,1.0
0.4333,128.181882,37.967294,7003.0089048,-24.324,0.846,179.137,1.0
0.45,128.181882,37.967249,7003.0521864,-25.992,0.906,179.086,1.0
0.4666,128.181883,37.967204,7003.098516,-27.695,0.97,179.031,1.0
0.4833,128.181883,37.967159,7003.1478936,-29.432,1.034,178.974,1.0
0.5,128.181883,37.967114,7003.1997096000005,-31.2,1.097,178.916,1.0
0.5166,128.181884,37.967069,7003.2542688,-33.0,1.158,178.855,1.0
0.5333,128.181884,37.967024,7003.311876,-34.829,1.223,178.789,1.0
0.55,128.181885,37.966979,7003.3722264,-36.687,1.292,178.717,1.0
0.5666,128.181885,37.966934,7003.435015200001,-38.573,1.362,178.64,1.0
0.5833,128.181886,37.966889,7003.500547200001,-40.486,1.43,178.561,1.0
0.6,128.181886,37.966844,7003.568517600001,-42.425,1.496,178.479,1.0
0.6166,128.181887,37.966799,7003.6389264,-44.389,1.559,178.395,1.0
0.6333,128.181888,37.966754,7003.711773600001,-46.378,1.622,178.305,1.0
0.65,128.181889,37.966709,7003.7867544,-48.391,1.685,178.209,1.0
0.6666,128.181889,37.966664,7003.8638688,-50.428,1.747,178.108,1.0
0.6833,128.18189,37.966619,7003.9431168,-52.487,1.806,178.005,1.0
0.7,128.181891,37.966574,7004.0244984,-54.569,1.861,177.899,1.0
0.7166,128.181892,37.966529,7004.1070992,-56.674,1.911,177.792,1.0
0.7333,128.181893,37.966484,7004.191528800001,-58.8,1.958,177.68,1.0
0.75,128.181895,37.966439,7004.277482400001,-60.948,2.003,177.563,1.0
0.7666,128.181896,37.966394,7004.3643504,-63.117,2.043,177.442,1.0
0.7833,128.181897,37.966349,7004.452437600001,-65.307,2.079,177.319,1.0
0.8,128.181899,37.966304,7004.5411343999995,-67.518,2.109,177.195,1.0
0.8166,128.1819,37.966259,7004.6304408000005,-69.749,2.134,177.07,1.0
0.8333,128.181902,37.966214,7004.720052000001,-72.001,2.153,176.942,1.0
0.85,128.181903,37.966169,7004.809663200001,-74.274,2.168,176.811,1.0
0.8666,128.181905,37.966124,7004.898969600001,-76.566,2.177,176.678,1.0
0.8833,128.181907,37.966079,7004.9876664,-78.879,2.18,176.545,1.0
0.9,128.181909,37.966034,7005.0757536,-81.212,2.176,176.411,1.0
0.9166,128.181911,37.965989,7005.1626216,-83.565,2.166,176.278,1.0
0.9333,128.181913,37.965944,7005.248270400001,-85.938,2.151,176.145,1.0
0.95,128.181915,37.965899,7005.3320904,-88.331,2.128,176.011,1.0
0.9666,128.181917,37.965854,7005.4140816,-90.745,2.099,175.878,1.0
0.9833,128.18192,37.965809,7005.4936344,-93.178,2.064,175.746,1.0
1.0,128.181922,37.965764,7005.5707488,-95.63,2.022,175.615,1.0
1.0166,128.181925,37.965719,7005.6445104,-98.103,1.974,175.486,1.0
1.0333,128.181927,37.965674,7005.714919200001,-100.512,1.925,175.359,1.0
1.05,128.18193,37.965629,7005.7819752,-102.855,1.876,175.234,1.0
1.0666,128.181933,37.965584,7005.8453736,-105.137,1.824,175.112,1.0
1.0833,128.181936,37.965539,7005.9051144000005,-107.366,1.767,174.992,1.0
1.1,128.181939,37.965494,7005.961197600001,-109.549,1.704,174.875,1.0
1.1166,128.181942,37.965449,7006.013318400001,-111.692,1.635,174.761,1.0
1.1333,128.181945,37.965404,7006.0608672,-113.676,1.569,174.651,1.0
1.15,128.181948,37.965359,7006.1047584,-115.509,1.506,174.544,1.0
1.1666,128.181951,37.965314,7006.144687200001,-117.191,1.444,174.441,1.0
1.1833,128.181954,37.965269,7006.1806536,-118.729,1.38,174.341,1.0
1.2,128.181957,37.965224,7006.2129624,-120.14,1.312,174.244,1.0
1.2166,128.18196,37.965179,7006.2419184,-121.442,1.24,174.152,1.0
1.2333,128.181964,37.965134,7006.266912,-122.611,1.169,174.069,1.0
1.25,128.181967,37.965089,7006.2888576,-123.654,1.1,173.995,1.0
1.2666,128.18197,37.965044,7006.307450400001,-124.574,1.032,173.927,1.0
1.2833,128.181974,37.964999,7006.3229952,-125.379,0.964,173.865,1.0
1.3,128.181977,37.964954,7006.335492000001,-126.084,0.895,173.808,1.0
1.3166,128.18198,37.964909,7006.3440264,-126.704,0.824,173.754,1.0
1.3333,128.181984,37.964864,7006.3504272,-127.225,0.761,173.714,1.0
1.35,128.181987,37.964819,7006.353170400001,-127.658,0.706,173.687,1.0
1.3666,128.181991,37.964774,7006.3519512,-128.017,0.656,173.67,1.0
1.3833,128.181994,37.964729,7006.3473792,-128.312,0.609,173.659,1.0
1.4,128.181998,37.964683,7006.3388448000005,-128.554,0.562,173.653,1.0
1.4166,128.182001,37.964638,7006.326348,-128.752,0.516,173.651,1.0
1.4333,128.182005,37.964593,7006.3108032,-128.873,0.477,173.656,1.0
1.45,128.182008,37.964548,7006.292210400001,-128.925,0.445,173.668,1.0
1.4666,128.182012,37.964503,7006.2699600000005,-128.916,0.419,173.686,1.0
1.4833,128.182016,37.964457,7006.244052000001,-128.855,0.394,173.706,1.0
1.5,128.182019,37.964412,7006.2147912,-128.749,0.37,173.728,1.0
1.5166,128.182023,37.964367,7006.181568,-128.604,0.346,173.752,1.0
1.5333,128.182027,37.964322,7006.145601600001,-128.39,0.324,173.774,1.0
1.55,128.18203,37.964276,7006.106587200001,-128.108,0.306,173.795,1.0
1.5666,128.182034,37.964231,7006.0648296,-127.76,0.29,173.814,1.0
1.5833,128.182038,37.964186,7006.020024,-127.346,0.275,173.832,1.0
1.6,128.182041,37.96414,7005.9724752,-126.871,0.26,173.849,1.0
1.6166,128.182045,37.964095,7005.9218784,-126.343,0.244,173.866,1.0
1.6333,128.182049,37.96405,7005.8688432,-125.757,0.227,173.879,1.0
1.65,128.182053,37.964004,7005.8121504,-125.121,0.208,173.888,1.0
1.6666,128.182056,37.963959,7005.7527144000005,-124.44,0.188,173.895,1.0
1.6833,128.18206,37.963914,7005.6899256,-123.722,0.166,173.901,1.0
1.7,128.182064,37.963868,7005.6240888,-122.971,0.143,173.906,1.0
1.7166,128.182068,37.963823,7005.5548992,-122.193,0.119,173.91,1.0
1.7333,128.182072,37.963777,7005.4817472,-121.402,0.093,173.91,1.0
1.75,128.182076,37.963732,7005.405242400001,-120.602,0.064,173.907,1.0
1.7666,128.18208,37.963687,7005.3253848,-119.795,0.035,173.9,1.0
1.7833,128.182084,37.963641,7005.2418696,-118.982,0.005,173.892,1.0
1.8,128.182087,37.963596,7005.155001600001,-118.164,-0.024,173.882,1.0
1.8166,128.182091,37.96355,7005.0644760000005,-117.34,-0.055,173.872,1.0
1.8333,128.182096,37.963505,7004.969988000001,-116.521,-0.086,173.858,1.0
1.85,128.1821,37.963459,7004.872147200001,-115.707,-0.118,173.841,1.0
1.8666,128.182104,37.963414,7004.7706488,-114.898,-0.15,173.822,1.0
1.8833,128.182108,37.963368,7004.665492800001,-114.093,-0.182,173.802,1.0
1.9,128.182112,37.963323,7004.556984000001,-113.29,-0.214,173.781,1.0
1.9166,128.182116,37.963277,7004.4451224,-112.49,-0.245,173.759,1.0
1.9333,128.18212,37.963232,7004.3292984,-111.697,-0.276,173.735,1.0
1.95,128.182125,37.963186,7004.2101216,-110.911,-0.307,173.71,1.0
1.9666,128.182129,37.963141,7004.087592000001,-110.13,-0.338,173.684,1.0
1.9833,128.182133,37.963095,7003.9617096,-109.355,-0.368,173.657,1.0
2.0,128.182138,37.96305,7003.8321696,-108.584,-0.398,173.629,1.0
2.0166,128.182142,37.963004,7003.6995816,-107.816,-0.426,173.602,1.0
2.0333,128.182146,37.962958,7003.5630312,-107.055,-0.459,173.561,1.0
2.05,128.182151,37.962913,7003.4234328,-106.3,-0.495,173.506,1.0
2.0666,128.182155,37.962867,7003.280481600001,-105.552,-0.533,173.443,1.0
2.0833,128.18216,37.962822,7003.1338728,-104.808,-0.572,173.374,1.0
2.1,128.182164,37.962776,7002.984216,-104.068,-0.61,173.301,1.0
2.1166,128.182169,37.96273,7002.831206400001,-103.331,-0.648,173.228,1.0
2.1333,128.182174,37.962685,7002.6751488,-102.591,-0.684,173.156,1.0
2.15,128.182178,37.962639,7002.515738400001,-101.847,-0.718,173.088,1.0
2.1666,128.182183,37.962593,7002.3529751999995,-101.1,-0.75,173.022,1.0
2.1833,128.182188,37.962548,7002.187468800001,-100.349,-0.78,172.959,1.0
2.2,128.182193,37.962502,7002.018609600001,-99.595,-0.809,172.898,1.0
2.2166,128.182198,37.962456,7001.8467024,-98.838,-0.837,172.839,1.0
2.2333,128.182202,37.962411,7001.671442400001,-98.063,-0.857,172.787,1.0
2.25,128.182207,37.962365,7001.4934392,-97.27,-0.87,172.741,1.0
2.2666,128.182212,37.962319,7001.312388000001,-96.458,-0.878,172.701,1.0
2.2833,128.182217,37.962274,7001.1282888,-95.628,-0.883,172.664,1.0
2.3,128.182222,37.962228,7000.941751200001,-94.78,-0.887,172.63,1.0
2.3166,128.182227,37.962182,7000.752165600001,-93.916,-0.889,172.598,1.0
2.3333,128.182233,37.962136,7000.560141600001,-93.044,-0.891,172.568,1.0
2.35,128.182238,37.962091,7000.3650696,-92.166,-0.893,172.541,1.0
2.3666,128.182243,37.962045,7000.167864,-91.283,-0.896,172.515,1.0
2.3833,128.182248,37.961999,6999.967610400001,-90.396,-0.898,172.491,1.0
2.4,128.182253,37.961953,6999.7652232,-89.506,-0.9,172.468,1.0
2.4166,128.182259,37.961908,6999.560092800001,-88.614,-0.901,172.445,1.0
2.4333,128.182264,37.961862,6999.353133600001,-87.761,-0.905,172.419,1.0
2.45,128.18227,37.961816,6999.143736,-86.946,-0.91,172.389,1.0
2.4666,128.182275,37.96177,6998.9319000000005,-86.165,-0.917,172.357,1.0
2.4833,128.182281,37.961724,6998.7179304,-85.416,-0.923,172.323,1.0
2.5,128.182286,37.961679,6998.501827200001,-84.694,-0.928,172.288,1.0
2.5166,128.182292,37.961633,6998.2838952,-83.994,-0.932,172.253,1.0
2.5333,128.182298,37.961587,6998.0638296,-83.348,-0.937,172.213,1.0
2.55,128.182303,37.961541,6997.84224,-82.752,-0.942,172.17,1.0
2.5666,128.182309,37.961495,6997.6185168,-82.199,-0.948,172.124,1.0
2.5833,128.182315,37.961449,6997.3929648,-81.684,-0.952,172.076,1.0
2.6,128.182321,37.961404,6997.1658888,-81.202,-0.955,172.028,1.0
2.6166,128.182327,37.961358,6996.936679200001,-80.747,-0.957,171.979,1.0
2.6333,128.182333,37.961312,6996.705640800001,-80.261,-0.954,171.93,1.0
2.65,128.182339,37.961266,6996.4727736,-79.742,-0.948,171.882,1.0
2.6666,128.182346,37.96122,6996.2380776,-79.191,-0.939,171.835,1.0
2.6833,128.182352,37.961174,6996.0015528,-78.611,-0.929,171.788,1.0
2.7,128.182358,37.961129,6995.7628944,-78.005,-0.919,171.743,1.0
2.7166,128.182364,37.961083,6995.5230168,-77.377,-0.909,171.698,1.0
2.7333,128.182371,37.961037,6995.2816152000005,-76.785,-0.902,171.653,1.0
2.75,128.182377,37.960991,6995.0389944,-76.229,-0.9,171.609,1.0
2.7666,128.182384,37.960945,6994.7948496,-75.709,-0.899,171.566,1.0
2.7833,128.18239,37.960899,6994.5497904,-75.221,-0.899,171.524,1.0
2.8,128.182397,37.960853,6994.3035119999995,-74.76,-0.899,171.483,1.0
2.8166,128.182403,37.960807,6994.0560144,-74.324,-0.897,171.442,1.0
2.8333,128.18241,37.960761,6993.8079072,-73.952,-0.899,171.4,1.0
2.85,128.182417,37.960716,6993.5591904,-73.641,-0.904,171.356,1.0
2.8666,128.182424,37.96067,6993.309864000001,-73.383,-0.91,171.312,1.0
2.8833,128.18243,37.960624,6993.059318400001,-73.173,-0.916,171.267,1.0
2.9,128.182437,37.960578,6992.8081632,-73.004,-0.921,171.222,1.0
2.9166,128.182444,37.960532,6992.5563984,-72.871,-0.925,171.177,1.0
2.9333,128.182452,37.960486,6992.3037192,-72.771,-0.93,171.132,1.0
2.95,128.182459,37.96044,6992.0501256,-72.701,-0.936,171.089,1.0
2.9666,128.182466,37.960394,6991.795922400001,-72.657,-0.943,171.045,1.0
2.9833,128.182473,37.960348,6991.5405,-72.634,-0.949,171.003,1.0
3.0,128.182481,37.960302,6991.284468000001,-72.63,-0.955,170.96,1.0
3.0166,128.182488,37.960256,6991.0275216,-72.642,-0.96,170.917,1.0
3.0333,128.182495,37.960211,6990.769660800001,-72.673,-0.968,170.878,1.0
3.05,128.182503,37.960165,6990.510885600001,-72.72,-0.978,170.844,1.0
3.0666,128.18251,37.960119,6990.251196,-72.782,-0.989,170.812,1.0
3.0833,128.182518,37.960073,6989.990592000001,-72.857,-1.0,170.782,1.0
3.1,128.182526,37.960027,6989.7290736,-72.943,-1.012,170.753,1.0
3.1166,128.182533,37.959981,6989.4666408,-73.038,-1.024,170.723,1.0
3.1333,128.182541,37.959935,6989.2035984,-73.155,-1.038,170.697,1.0
3.15,128.182549,37.959889,6988.9393368,-73.292,-1.054,170.672,1.0
3.1666,128.182557,37.959843,6988.674160800001,-73.446,-1.072,170.649,1.0
3.1833,128.182565,37.959797,6988.408070400001,-73.617,-1.089,170.627,1.0
3.2,128.182573,37.959751,6988.140760800001,-73.801,-1.107,170.605,1.0
3.2166,128.182581,37.959705,6987.8725368000005,-73.997,-1.124,170.581,1.0
3.2333,128.182589,37.959659,6987.6033984,-74.214,-1.143,170.558,1.0
3.25,128.182597,37.959613,6987.3330408,-74.45,-1.161,170.534,1.0
3.2666,128.182606,37.959567,6987.0617688,-74.703,-1.181,170.51,1.0
3.2833,128.182614,37.959521,6986.789277600001,-74.97,-1.2,170.484,1.0
3.3,128.182622,37.959475,6986.5155672,-75.251,-1.219,170.458,1.0
3.3166,128.182631,37.959429,6986.240637600001,-75.542,-1.237,170.431,1.0
3.3333,128.182639,37.959383,6985.9644888,-75.845,-1.256,170.402,1.0
3.35,128.182647,37.959337,6985.6871208,-76.158,-1.274,170.372,1.0
3.3666,128.182656,37.959291,6985.408228800001,-76.48,-1.292,170.34,1.0
3.3833,128.182665,37.959245,6985.1281176,-76.809,-1.31,170.308,1.0
3.4,128.182673,37.959199,6984.8464824,-77.145,-1.327,170.274,1.0
3.4166,128.182682,37.959153,6984.563628000001,-77.487,-1.345,170.24,1.0
3.4333,128.182691,37.959107,6984.2792496,-77.834,-1.363,170.205,1.0
3.45,128.1827,37.959061,6983.993652000001,-78.187,-1.381,170.17,1.0
3.4666,128.182708,37.959015,6983.7062256,-78.544,-1.399,170.134,1.0
3.4833,128.182717,37.958969,6983.4172751999995,-78.904,-1.417,170.098,1.0
3.5,128.182726,37.958923,6983.126800800001,-79.269,-1.435,170.062,1.0
3.5166,128.182735,37.958877,6982.8348024,-79.636,-1.453,170.025,1.0
3.5333,128.182744,37.958831,6982.5412799999995,-80.01,-1.473,169.988,1.0
3.55,128.182753,37.958785,6982.246233600001,-80.39,-1.492,169.953,1.0
3.5666,128.182762,37.958739,6981.9493584,-80.777,-1.513,169.918,1.0
3.5833,128.182772,37.958693,6981.6506544,-81.168,-1.533,169.883,1.0
3.6,128.182781,37.958647,6981.3504264,-81.564,-1.554,169.848,1.0
3.6166,128.18279,37.958601,6981.048369600001,-81.964,-1.575,169.813,1.0
3.6333,128.182799,37.958555,6980.744484000001,-82.372,-1.597,169.779,1.0
3.65,128.182809,37.958509,6980.439074400001,-82.787,-1.619,169.746,1.0
3.6666,128.182818,37.958463,6980.131531200001,-83.209,-1.642,169.713,1.0
3.6833,128.182828,37.958417,6979.8221592,-83.637,-1.665,169.681,1.0
3.7,128.182837,37.958371,6979.5109584,-84.069,-1.688,169.648,1.0
3.7166,128.182847,37.958325,6979.197928800001,-84.506,-1.711,169.615,1.0
3.7333,128.182856,37.958279,6978.882765600001,-84.946,-1.735,169.583,1.0
3.75,128.182866,37.958233,6978.5654688,-85.39,-1.758,169.55,1.0
3.7666,128.182876,37.958186,6978.2463431999995,-85.836,-1.782,169.518,1.0
3.7833,128.182886,37.95814,6977.925084000001,-86.284,-1.806,169.485,1.0
3.8,128.182895,37.958094,6977.601996,-86.734,-1.831,169.452,1.0
3.8166,128.182905,37.958048,6977.2764696,-87.186,-1.855,169.418,1.0
3.8333,128.182915,37.958002,6976.9488096000005,-87.638,-1.88,169.385,1.0
3.85,128.182925,37.957956,6976.619016,-88.09,-1.904,169.351,1.0
3.8666,128.182935,37.95791,6976.2870888,-88.542,-1.929,169.318,1.0
3.8833,128.182945,37.957864,6975.953028000001,-88.994,-1.955,169.284,1.0
3.9,128.182955,37.957818,6975.616528800001,-89.447,-1.98,169.249,1.0
3.9166,128.182965,37.957771,6975.277591200001,-89.899,-2.006,169.214,1.0
3.9333,128.182975,37.957725,6974.936520000001,-90.35,-2.032,169.179,1.0
3.95,128.182985,37.957679,6974.593315200001,-90.8,-2.058,169.145,1.0
3.9666,128.182996,37.957633,6974.247367200001,-91.25,-2.085,169.11,1.0
3.9833,128.183006,37.957587,6973.8992856,-91.699,-2.112,169.076,1.0
4.0,128.183016,37.957541,6973.5487656000005,-92.148,-2.139,169.041,1.0
4.0166,128.183026,37.957495,6973.1955024,-92.596,-2.166,169.005,1.0
4.0333,128.183037,37.957448,6972.8401056,-93.044,-2.194,168.971,1.0
4.05,128.183047,37.957402,6972.482270400001,-93.493,-2.222,168.937,1.0
4.0666,128.183058,37.957356,6972.121692000001,-93.942,-2.25,168.903,1.0
4.0833,128.183068,37.95731,6971.7586752,-94.391,-2.279,168.87,1.0
4.1,128.183079,37.957264,6971.392915200001,-94.841,-2.308,168.836,1.0
4.1166,128.183089,37.957218,6971.0247168,-95.291,-2.337,168.802,1.0
4.1333,128.1831,37.957171,6970.65408,-95.74,-2.367,168.768,1.0
4.15,128.183111,37.957125,6970.2807,-96.188,-2.396,168.735,1.0
4.1666,128.183121,37.957079,6969.9045768000005,-96.636,-2.426,168.703,1.0
4.1833,128.183132,37.957033,6969.525710400001,-97.084,-2.456,168.67,1.0
4.2,128.183143,37.956987,6969.1441008,-97.531,-2.486,168.637,1.0
4.2166,128.183154,37.95694,6968.7600528,-97.977,-2.517,168.603,1.0
4.2333,128.183164,37.956894,6968.3732616,-98.42,-2.548,168.57,1.0
4.25,128.183175,37.956848,6967.983422400001,-98.86,-2.578,168.537,1.0
4.2666,128.183186,37.956802,6967.591144800001,-99.296,-2.609,168.504,1.0
4.2833,128.183197,37.956755,6967.1958192,-99.73,-2.64,168.471,1.0
4.3,128.183208,37.956709,6966.7977504,-100.161,-2.672,168.438,1.0
4.3166,128.183219,37.956663,6966.396938400001,-100.591,-2.703,168.404,1.0
4.3333,128.18323,37.956617,6965.993078400001,-101.016,-2.735,168.371,1.0
4.35,128.183241,37.95657,6965.5864752,-101.437,-2.767,168.338,1.0
4.3666,128.183252,37.956524,6965.176824000001,-101.854,-2.799,168.305,1.0
4.3833,128.183264,37.956478,6964.7644296,-102.267,-2.832,168.272,1.0
4.4,128.183275,37.956431,6964.349292000001,-102.679,-2.865,168.239,1.0
4.4166,128.183286,37.956385,6963.9308016,-103.088,-2.898,168.206,1.0
4.4333,128.183297,37.956339,6963.509568,-103.491,-2.931,168.173,1.0
4.45,128.183309,37.956293,6963.085591200001,-103.891,-2.964,168.14,1.0
4.4666,128.18332,37.956246,6962.6582616,-104.286,-2.997,168.108,1.0
4.4833,128.183331,37.9562,6962.2281888,-104.678,-3.031,168.075,1.0
4.5,128.183343,37.956154,6961.795068,-105.067,-3.065,168.043,1.0
4.5166,128.183354,37.956107,6961.3585944,-105.453,-3.099,168.01,1.0
4.5333,128.183366,37.956061,6960.9193776,-105.833,-3.134,167.977,1.0
4.55,128.183377,37.956015,6960.4771128,-106.207,-3.168,167.945,1.0
4.5666,128.183389,37.955968,6960.031800000001,-106.576,-3.202,167.912,1.0
4.5833,128.1834,37.955922,6959.5831344,-106.941,-3.237,167.88,1.0
4.6,128.183412,37.955876,6959.1317256,-107.301,-3.272,167.847,1.0
4.6166,128.183424,37.955829,6958.676964,-107.659,-3.308,167.814,1.0
4.6333,128.183435,37.955783,6958.219154400001,-108.01,-3.343,167.782,1.0
4.65,128.183447,37.955736,6957.757992000001,-108.354,-3.378,167.749,1.0
4.6666,128.183459,37.95569,6957.2940864,-108.693,-3.414,167.717,1.0
4.6833,128.183471,37.955644,6956.826828,-109.028,-3.45,167.684,1.0
4.7,128.183482,37.955597,6956.3562168,-109.358,-3.486,167.652,1.0
4.7166,128.183494,37.955551,6955.8825576,-109.685,-3.522,167.62,1.0
4.7333,128.183506,37.955504,6955.4058504,-110.006,-3.559,167.588,1.0
4.75,128.183518,37.955458,6954.925790400001,-110.32,-3.595,167.556,1.0
4.7666,128.18353,37.955411,6954.4423776,-110.629,-3.631,167.524,1.0
4.7833,128.183542,37.955365,6953.9559168,-110.934,-3.668,167.492,1.0
4.8,128.183554,37.955319,6953.4661032,-111.234,-3.705,167.46,1.0
4.8166,128.183566,37.955272,6952.973241600001,-111.532,-3.742,167.428,1.0
4.8333,128.183578,37.955226,6952.4770272000005,-111.821,-3.779,167.396,1.0
4.85,128.18359,37.955179,6951.977460000001,-112.104,-3.816,167.364,1.0
4.8666,128.183602,37.955133,6951.47454,-112.381,-3.854,167.332,1.0
4.8833,128.183614,37.955086,6950.968572,-112.653,-3.891,167.3,1.0
4.9,128.183626,37.95504,6950.458946400001,-112.92,-3.929,167.267,1.0
4.9166,128.183639,37.954993,6949.946272800001,-113.184,-3.967,167.235,1.0
4.9333,128.183651,37.954947,6949.4302464,-113.441,-4.006,167.203,1.0
4.95,128.183663,37.9549,6948.9108672,-113.691,-4.044,167.17,1.0
4.9666,128.183675,37.954854,6948.3881352,-113.935,-4.082,167.137,1.0
4.9833,128.183688,37.954807,6947.8620504,-114.175,-4.121,167.105,1.0
5.0,128.1837,37.954761,6947.3326128,-114.41,-4.16,167.072,1.0
5.0166,128.183713,37.954714,6946.7995176,-114.643,-4.199,167.04,1.0
5.0333,128.183725,37.954668,6946.2633744,-114.869,-4.238,167.007,1.0
5.05,128.183737,37.954621,6945.7235736,-115.09,-4.277,166.975,1.0
5.0666,128.18375,37.954574,6945.1807248000005,-115.306,-4.316,166.942,1.0
5.0833,128.183762,37.954528,6944.6342184000005,-115.518,-4.355,166.91,1.0
5.1,128.183775,37.954481,6944.0840544,-115.727,-4.395,166.878,1.0
5.1166,128.183788,37.954435,6943.5308424,-115.933,-4.435,166.846,1.0
5.1333,128.1838,37.954388,6942.9739728,-116.134,-4.474,166.814,1.0
5.15,128.183813,37.954342,6942.4137504,-116.332,-4.514,166.782,1.0
5.1666,128.183825,37.954295,6941.849870400001,-116.525,-4.554,166.75,1.0
5.1833,128.183838,37.954248,6941.2826376,-116.715,-4.594,166.718,1.0
5.2,128.183851,37.954202,6940.711747200001,-116.903,-4.634,166.686,1.0
5.2166,128.183864,37.954155,6940.137504,-117.089,-4.674,166.655,1.0
5.2333,128.183876,37.954108,6939.5596032,-117.27,-4.715,166.623,1.0
5.25,128.183889,37.954062,6938.9783496,-117.446,-4.755,166.59,1.0
5.2666,128.183902,37.954015,6938.393438400001,-117.62,-4.796,166.557,1.0
5.2833,128.183915,37.953969,6937.8048696000005,-117.79,-4.837,166.524,1.0
5.3,128.183928,37.953922,6937.212947999999,-117.958,-4.879,166.491,1.0
5.3166,128.183941,37.953875,6936.617368800001,-118.123,-4.92,166.458,1.0
5.3333,128.183954,37.953829,6936.018132,-118.285,-4.961,166.426,1.0
5.35,128.183967,37.953782,6935.415542400001,-118.445,-5.003,166.392,1.0
5.3666,128.18398,37.953735,6934.809295200001,-118.602,-5.045,166.359,1.0
5.3833,128.183993,37.953688,6934.1990856,-118.757,-5.087,166.326,1.0
5.4,128.184006,37.953642,6933.5855232,-118.91,-5.129,166.293,1.0
5.4166,128.184019,37.953595,6932.9683032,-119.062,-5.171,166.261,1.0
5.4333,128.184032,37.953548,6932.3474256,-119.211,-5.213,166.228,1.0
5.45,128.184045,37.953502,6931.7228904,-119.359,-5.255,166.195,1.0
5.4666,128.184059,37.953455,6931.0946976000005,-119.505,-5.298,166.161,1.0
5.4833,128.184072,37.953408,6930.4628472,-119.65,-5.34,166.128,1.0
5.5,128.184085,37.953361,6929.8270344,-119.794,-5.383,166.095,1.0
5.5166,128.184098,37.953315,6929.187868800001,-119.936,-5.426,166.062,1.0
5.5333,128.184112,37.953268,6928.5447408,-120.077,-5.468,166.029,1.0
5.55,128.184125,37.953221,6927.8979552,-120.217,-5.511,165.996,1.0
5.5666,128.184139,37.953174,6927.247512,-120.357,-5.555,165.963,1.0
5.5833,128.184152,37.953128,6926.593106400001,-120.496,-5.598,165.93,1.0
5.6,128.184165,37.953081,6925.935348,-120.634,-5.641,165.897,1.0
5.6166,128.184179,37.953034,6925.2733224,-120.771,-5.684,165.864,1.0
5.6333,128.184192,37.952987,6924.607944,-120.908,-5.727,165.832,1.0
5.65,128.184206,37.952941,6923.9382984,-121.044,-5.77,165.8,1.0
5.6666,128.18422,37.952894,6923.2653,-121.18,-5.813,165.768,1.0
5.6833,128.184233,37.952847,6922.5883392,-121.316,-5.856,165.737,1.0
5.7,128.184247,37.9528,6921.907416,-121.451,-5.899,165.706,1.0
5.7166,128.184261,37.952753,6921.2228352,-121.587,-5.942,165.674,1.0
5.7333,128.184274,37.952707,6920.534292,-121.721,-5.985,165.644,1.0
5.75,128.184288,37.95266,6919.8420912,-121.856,-6.027,165.614,1.0
5.7666,128.184302,37.952613,6919.145928000001,-121.99,-6.069,165.584,1.0
5.7833,128.184316,37.952566,6918.4458024,-122.123,-6.112,165.554,1.0
5.8,128.184329,37.952519,6917.742019200001,-122.257,-6.154,165.525,1.0
5.8166,128.184343,37.952472,6917.0342736,-122.39,-6.196,165.496,1.0
5.8333,128.184357,37.952426,6916.3225656,-122.522,-6.239,165.466,1.0
5.85,128.184371,37.952379,6915.6072,-122.655,-6.282,165.436,1.0
5.8666,128.184385,37.952332,6914.8875672,-122.787,-6.325,165.406,1.0
5.8833,128.184399,37.952285,6914.1642768,-122.919,-6.368,165.376,1.0
5.9,128.184413,37.952238,6913.437024000001,-123.051,-6.411,165.346,1.0
5.9166,128.184427,37.952191,6912.7061136,-123.182,-6.455,165.316,1.0
5.9333,128.184441,37.952144,6911.970936000001,-123.313,-6.499,165.286,1.0
5.95,128.184455,37.952098,6911.231796,-123.444,-6.543,165.255,1.0
5.9666,128.18447,37.952051,6910.4889984,-123.575,-6.587,165.223,1.0
5.9833,128.184484,37.952004,6909.741933600001,-123.705,-6.632,165.192,1.0
6.0,128.184498,37.951957,6908.990906400001,-123.835,-6.677,165.161,1.0
6.0166,128.184512,37.95191,6908.2362216,-123.964,-6.722,165.129,1.0
6.0333,128.184527,37.951863,6907.477269600001,-124.094,-6.767,165.097,1.0
6.05,128.184541,37.951816,6906.714355200001,-124.223,-6.813,165.065,1.0
6.0666,128.184555,37.951769,6905.9474784,-124.352,-6.859,165.033,1.0
6.0833,128.18457,37.951722,6905.1766392,-124.481,-6.905,165.001,1.0
6.1,128.184584,37.951676,6904.4018376,-124.609,-6.951,164.968,1.0
6.1166,128.184598,37.951629,6903.622768800001,-124.738,-6.997,164.936,1.0
6.1333,128.184613,37.951582,6902.8397376,-124.866,-7.043,164.904,1.0
6.15,128.184627,37.951535,6902.052744,-124.994,-7.09,164.871,1.0
6.1666,128.184642,37.951488,6901.261483200001,-125.122,-7.137,164.839,1.0
6.1833,128.184657,37.951441,6900.46626,-125.249,-7.183,164.806,1.0
6.2,128.184671,37.951394,6899.6667696,-125.377,-7.23,164.774,1.0
6.2166,128.184686,37.951347,6898.8633168,-125.504,-7.277,164.742,1.0
6.2333,128.184701,37.9513,6898.055901600001,-125.631,-7.324,164.709,1.0
6.25,128.184715,37.951253,6897.244219200001,-125.758,-7.372,164.677,1.0
6.2666,128.18473,37.951206,6896.428269600001,-125.884,-7.419,164.644,1.0
6.2833,128.184745,37.951159,6895.6083576,-126.011,-7.467,164.611,1.0
6.3,128.18476,37.951112,6894.7841784,-126.138,-7.515,164.579,1.0
6.3166,128.184774,37.951065,6893.955732,-126.264,-7.563,164.546,1.0
6.3333,128.184789,37.951018,6893.1233232,-126.39,-7.611,164.514,1.0
6.35,128.184804,37.950971,6892.2866472000005,-126.516,-7.659,164.481,1.0
6.3666,128.184819,37.950924,6891.445704000001,-126.642,-7.707,164.448,1.0
6.3833,128.184834,37.950877,6890.6004936,-126.767,-7.756,164.416,1.0
6.4,128.184849,37.95083,6889.7513208,-126.893,-7.804,164.383,1.0
6.4166,128.184864,37.950783,6888.897576,-127.018,-7.853,164.351,1.0
6.4333,128.184879,37.950736,6888.0398688000005,-127.143,-7.901,164.319,1.0
6.45,128.184894,37.950689,6887.1775896,-127.267,-7.95,164.286,1.0
6.4666,128.184909,37.950642,6886.311348,-127.392,-7.999,164.253,1.0
6.4833,128.184924,37.950595,6885.4408392,-127.516,-8.048,164.221,1.0
6.5,128.18494,37.950548,6884.5657584,-127.64,-8.097,164.189,1.0
6.5166,128.184955,37.950501,6883.686410400001,-127.764,-8.146,164.157,1.0
6.5333,128.18497,37.950454,6882.8027952,-127.887,-8.195,164.124,1.0
6.55,128.184985,37.950407,6881.9149128,-128.01,-8.245,164.091,1.0
6.5666,128.185001,37.95036,6881.022763200001,-128.133,-8.295,164.059,1.0
6.5833,128.185016,37.950313,6880.1260416000005,-128.256,-8.345,164.026,1.0
6.6,128.185031,37.950266,6879.2250527999995,-128.378,-8.395,163.993,1.0
6.6166,128.185047,37.950219,6878.3197968,-128.5,-8.445,163.96,1.0
6.6333,128.185062,37.950172,6877.409968800001,-128.622,-8.495,163.928,1.0
6.65,128.185078,37.950125,6876.495873600001,-128.743,-8.546,163.895,1.0
6.6666,128.185093,37.950078,6875.577511200001,-128.865,-8.597,163.862,1.0
6.6833,128.185109,37.950031,6874.654272,-128.986,-8.647,163.829,1.0
6.7,128.185124,37.949984,6873.727070400001,-129.106,-8.698,163.796,1.0
6.7166,128.18514,37.949937,6872.794992000001,-129.227,-8.749,163.764,1.0
6.7333,128.185156,37.94989,6871.858951200001,-129.347,-8.8,163.731,1.0
6.75,128.185171,37.949843,6870.918033600001,-129.467,-8.851,163.699,1.0
6.7666,128.185187,37.949796,6869.9728488,-129.587,-8.902,163.666,1.0
6.7833,128.185203,37.949749,6869.023092,-129.707,-8.953,163.634,1.0
6.8,128.185219,37.949702,6868.0687632,-129.826,-9.004,163.602,1.0
6.8166,128.185234,37.949655,6867.1098624,-129.945,-9.055,163.57,1.0
6.8333,128.18525,37.949608,6866.1466944,-130.064,-9.107,163.538,1.0
6.85,128.185266,37.949561,6865.1786496,-130.183,-9.158,163.506,1.0
6.8666,128.185282,37.949514,6864.206337600001,-130.302,-9.21,163.474,1.0
6.8833,128.185298,37.949467,6863.2294536,-130.42,-9.262,163.442,1.0
6.9,128.185314,37.94942,6862.247692800001,-130.539,-9.314,163.409,1.0
6.9166,128.18533,37.949372,6861.2616648,-130.657,-9.366,163.378,1.0
6.9333,128.185346,37.949325,6860.2710648,-130.774,-9.418,163.345,1.0
6.95,128.185362,37.949278,6859.275588,-130.892,-9.471,163.312,1.0
6.9666,128.185378,37.949231,6858.2755392,-131.009,-9.524,163.279,1.0
6.9833,128.185394,37.949184,6857.2709184000005,-131.126,-9.578,163.246,1.0
7.0,128.185411,37.949137,6856.2617256,-131.242,-9.631,163.213,1.0
7.0166,128.185427,37.94909,6855.2479608,-131.359,-9.684,163.181,1.0
7.0333,128.185443,37.949043,6854.229319200001,-131.475,-9.738,163.148,1.0
7.05,128.185459,37.948996,6853.2058008,-131.591,-9.792,163.114,1.0
7.0666,128.185476,37.948949,6852.178015200001,-131.706,-9.846,163.081,1.0
7.0833,128.185492,37.948902,6851.145047999999,-131.821,-9.901,163.047,1.0
7.1,128.185508,37.948855,6850.107813600001,-131.936,-9.955,163.014,1.0
7.1166,128.185525,37.948808,6849.0657024,-132.051,-10.009,162.981,1.0
7.1333,128.185541,37.948761,6848.0187144,-132.165,-10.064,162.948,1.0
7.15,128.185558,37.948713,6846.9668496,-132.279,-10.119,162.914,1.0
7.1666,128.185574,37.948666,6845.9104128,-132.393,-10.174,162.881,1.0
7.1833,128.185591,37.948619,6844.8490992,-132.507,-10.229,162.848,1.0
7.2,128.185607,37.948572,6843.7829088,-132.621,-10.284,162.815,1.0
7.2166,128.185624,37.948525,6842.7121464,-132.734,-10.339,162.782,1.0
7.2333,128.185641,37.948478,6841.6362024,-132.847,-10.394,162.749,1.0
7.25,128.185657,37.948431,6840.5556864,-132.96,-10.45,162.715,1.0
7.2666,128.185674,37.948384,6839.4699888,-133.073,-10.506,162.682,1.0
7.2833,128.185691,37.948337,6838.3797192,-133.186,-10.562,162.648,1.0
7.3,128.185708,37.94829,6837.2845728,-133.298,-10.618,162.615,1.0
7.3166,128.185724,37.948243,6836.1842448,-133.41,-10.674,162.582,1.0
7.3333,128.185741,37.948196,6835.0793448,-133.522,-10.73,162.549,1.0
7.35,128.185758,37.948149,6833.969263200001,-133.634,-10.787,162.515,1.0
7.3666,128.185775,37.948102,6832.8543048,-133.745,-10.843,162.482,1.0
7.3833,128.185792,37.948054,6831.734164800001,-133.857,-10.9,162.448,1.0
7.4,128.185809,37.948007,6830.6094528,-133.968,-10.957,162.415,1.0
7.4166,128.185826,37.94796,6829.4795592,-134.079,-11.014,162.382,1.0
7.4333,128.185843,37.947913,6828.344484000001,-134.19,-11.071,162.348,1.0
7.45,128.18586,37.947866,6827.204532000001,-134.301,-11.129,162.315,1.0
7.4666,128.185877,37.947819,6826.0597032,-134.411,-11.187,162.281,1.0
7.4833,128.185894,37.947772,6824.909692800001,-134.521,-11.244,162.247,1.0
7.5,128.185912,37.947725,6823.754500800001,-134.631,-11.302,162.214,1.0
7.5166,128.185929,37.947678,6822.594432000001,-134.741,-11.36,162.18,1.0
7.5333,128.185946,37.947631,6821.4291816,-134.851,-11.418,162.146,1.0
7.55,128.185963,37.947584,6820.258749600001,-134.96,-11.477,162.112,1.0
7.5666,128.185981,37.947537,6819.0834408,-135.069,-11.536,162.078,1.0
7.5833,128.185998,37.94749,6817.9026456,-135.178,-11.596,162.043,1.0
7.6,128.186015,37.947443,6816.7169736000005,-135.286,-11.655,162.009,1.0
7.6166,128.186033,37.947396,6815.52612,-135.394,-11.714,161.975,1.0
7.6333,128.18605,37.947348,6814.3300848,-135.502,-11.773,161.941,1.0
7.65,128.186068,37.947301,6813.1285632,-135.61,-11.833,161.907,1.0
7.6666,128.186085,37.947254,6811.9221648,-135.717,-11.893,161.872,1.0
7.6833,128.186103,37.947207,6810.71028,-135.824,-11.953,161.838,1.0
7.7,128.186121,37.94716,6809.4935184000005,-135.931,-12.013,161.804,1.0
7.7166,128.186138,37.947113,6808.2712704000005,-136.038,-12.073,161.77,1.0
7.7333,128.186156,37.947066,6807.0438408,-136.144,-12.133,161.736,1.0
7.75,128.186174,37.947019,6805.810924800001,-136.25,-12.193,161.702,1.0
7.7666,128.186191,37.946972,6804.572827200001,-136.357,-12.254,161.668,1.0
7.7833,128.186209,37.946925,6803.3292432,-136.463,-12.315,161.633,1.0
7.8,128.186227,37.946878,6802.0804776,-136.569,-12.376,161.599,1.0
7.8166,128.186245,37.946831,6800.8265304,-136.674,-12.437,161.565,1.0
7.8333,128.186263,37.946784,6799.5670968,-136.78,-12.498,161.531,1.0
7.85,128.186281,37.946737,6798.3021768,-136.885,-12.559,161.497,1.0
7.8666,128.186298,37.94669,6797.031770400001,-136.991,-12.621,161.462,1.0
7.8833,128.186316,37.946643,6795.7561824,-137.096,-12.683,161.428,1.0
7.9,128.186334,37.946596,6794.475108,-137.2,-12.745,161.394,1.0
7.9166,128.186353,37.946549,6793.1885472,-137.305,-12.807,161.36,1.0
7.9333,128.186371,37.946502,6791.896500000001,-137.409,-12.869,161.325,1.0
7.95,128.186389,37.946455,6790.5992712,-137.513,-12.932,161.29,1.0
7.9666,128.186407,37.946408,6789.2962512,-137.616,-12.995,161.255,1.0
7.9833,128.186425,37.946361,6787.9877448,-137.719,-13.058,161.22,1.0
8.0,128.186443,37.946314,6786.673752000001,-137.822,-13.121,161.185,1.0
8.0166,128.186462,37.946267,6785.3542728,-137.924,-13.184,161.15,1.0
8.0333,128.18648,37.94622,6784.0293071999995,-138.026,-13.248,161.115,1.0
8.05,128.186498,37.946173,6782.6985504,-138.128,-13.312,161.08,1.0
8.0666,128.186517,37.946126,6781.3623072,-138.23,-13.376,161.045,1.0
8.0833,128.186535,37.946079,6780.0205776,-138.331,-13.44,161.01,1.0
8.1,128.186553,37.946032,6778.673056800001,-138.433,-13.504,160.975,1.0
8.1166,128.186572,37.945985,6777.3197448,-138.534,-13.568,160.941,1.0
8.1333,128.18659,37.945938,6775.9609464000005,-138.635,-13.632,160.906,1.0
8.15,128.186609,37.945891,6774.5966616,-138.736,-13.697,160.871,1.0
8.1666,128.186627,37.945844,6773.2265856,-138.837,-13.761,160.836,1.0
8.1833,128.186646,37.945797,6771.8507184,-138.938,-13.826,160.801,1.0
8.2,128.186665,37.94575,6770.46906,-139.038,-13.891,160.766,1.0
8.2166,128.186683,37.945704,6769.0819152,-139.139,-13.956,160.732,1.0
8.2333,128.186702,37.945657,6767.6886744,-139.239,-14.021,160.697,1.0
8.25,128.186721,37.94561,6766.289947200001,-139.338,-14.087,160.662,1.0
8.2666,128.18674,37.945563,6764.885428800001,-139.437,-14.153,160.626,1.0
8.2833,128.186758,37.945516,6763.4748144000005,-139.536,-14.219,160.59,1.0
8.3,128.186777,37.945469,6762.0587136,-139.635,-14.286,160.555,1.0
8.3166,128.186796,37.945422,6760.6365168,-139.733,-14.352,160.52,1.0
8.3333,128.186815,37.945375,6759.208833600001,-139.831,-14.418,160.485,1.0
8.35,128.186834,37.945328,6757.7750544,-139.928,-14.485,160.449,1.0
8.3666,128.186853,37.945281,6756.335179200001,-140.026,-14.553,160.413,1.0
8.3833,128.186872,37.945235,6754.8895128,-140.123,-14.62,160.377,1.0
8.4,128.186891,37.945188,6753.4380552,-140.219,-14.687,160.342,1.0
8.4166,128.18691,37.945141,6751.980806400001,-140.316,-14.754,160.307,1.0
8.4333,128.186929,37.945094,6750.5171568000005,-140.412,-14.822,160.271,1.0
8.45,128.186949,37.945047,6749.047716,-140.508,-14.89,160.235,1.0
8.4666,128.186968,37.945,6747.572484000001,-140.604,-14.958,160.199,1.0
8.4833,128.186987,37.944954,6746.091156,-140.699,-15.027,160.164,1.0
8.5,128.187006,37.944907,6744.6037320000005,-140.795,-15.095,160.128,1.0
8.5166,128.187026,37.94486,6743.110212,-140.89,-15.163,160.093,1.0
8.5333,128.187045,37.944813,6741.610596,-140.985,-15.231,160.057,1.0
8.55,128.187064,37.944766,6740.104884000001,-141.079,-15.3,160.021,1.0
8.5666,128.187084,37.94472,6738.5933808,-141.173,-15.37,159.985,1.0
8.5833,128.187103,37.944673,6737.075476800001,-141.267,-15.439,159.949,1.0
8.6,128.187123,37.944626,6735.5514768,-141.36,-15.508,159.913,1.0
8.6166,128.187142,37.944579,6734.0213808,-141.453,-15.578,159.878,1.0
8.6333,128.187162,37.944532,6732.484884,-141.547,-15.647,159.842,1.0
8.65,128.187181,37.944486,6730.942596000001,-141.639,-15.717,159.806,1.0
8.6666,128.187201,37.944439,6729.3939072,-141.732,-15.788,159.77,1.0
8.6833,128.187221,37.944392,6727.8388176,-141.825,-15.858,159.734,1.0
8.7,128.18724,37.944345,6726.277632,-141.918,-15.928,159.698,1.0
8.7166,128.18726,37.944299,6724.710350400001,-142.01,-15.998,159.663,1.0
8.7333,128.18728,37.944252,6723.136668,-142.102,-16.069,159.627,1.0
8.75,128.1873,37.944205,6721.5565848,-142.194,-16.14,159.59,1.0
8.7666,128.18732,37.944159,6719.970405600001,-142.286,-16.212,159.554,1.0
8.7833,128.187339,37.944112,6718.3778256,-142.377,-16.284,159.518,1.0
8.8,128.187359,37.944065,6716.7788448,-142.468,-16.355,159.481,1.0
8.8166,128.187379,37.944019,6715.1734632,-142.559,-16.427,159.445,1.0
8.8333,128.187399,37.943972,6713.5616808,-142.649,-16.499,159.409,1.0
8.85,128.187419,37.943925,6711.943497600001,-142.739,-16.571,159.372,1.0
8.8666,128.187439,37.943879,6710.3189136,-142.828,-16.644,159.335,1.0
8.8833,128.187459,37.943832,6708.687928800001,-142.917,-16.717,159.298,1.0
8.9,128.187479,37.943786,6707.0505432,-143.005,-16.79,159.262,1.0
8.9166,128.1875,37.943739,6705.406756800001,-143.094,-16.862,159.225,1.0
8.9333,128.18752,37.943692,6703.7562648,-143.182,-16.935,159.189,1.0
8.95,128.18754,37.943646,6702.099372000001,-143.269,-17.009,159.152,1.0
8.9666,128.18756,37.943599,6700.4357736,-143.357,-17.083,159.115,1.0
8.9833,128.187581,37.943553,6698.765774400001,-143.445,-17.157,159.079,1.0
9.0,128.187601,37.943506,6697.0893744,-143.532,-17.23,159.042,1.0
9.0166,128.187621,37.94346,6695.4059640000005,-143.62,-17.304,159.006,1.0
9.0333,128.187642,37.943413,6693.7161528,-143.707,-17.378,158.969,1.0
9.05,128.187662,37.943367,6692.0199408,-143.794,-17.452,158.933,1.0
9.0666,128.187683,37.94332,6690.3167184,-143.881,-17.527,158.896,1.0
9.0833,128.187703,37.943274,6688.6070952,-143.967,-17.602,158.859,1.0
9.1,128.187724,37.943227,6686.8907664,-144.054,-17.677,158.822,1.0
9.1166,128.187744,37.943181,6685.167732000001,-144.14,-17.752,158.786,1.0
9.1333,128.187765,37.943134,6683.4376872,-144.226,-17.827,158.749,1.0
9.15,128.187785,37.943088,6681.701241600001,-144.311,-17.903,158.712,1.0
9.1666,128.187806,37.943041,6679.9577856000005,-144.397,-17.979,158.674,1.0
9.1833,128.187827,37.942995,6678.2079288,-144.482,-18.055,158.637,1.0
9.2,128.187848,37.942949,6676.4510616,-144.567,-18.131,158.6,1.0
9.2166,128.187868,37.942902,6674.687184000001,-144.651,-18.207,158.563,1.0
9.2333,128.187889,37.942856,6672.9166008,-144.736,-18.284,158.526,1.0
9.25,128.18791,37.942809,6671.139312,-144.82,-18.361,158.489,1.0
9.2666,128.187931,37.942763,6669.3550128,-144.904,-18.438,158.452,1.0
9.2833,128.187952,37.942717,6667.564008,-144.988,-18.516,158.414,1.0
9.3,128.187973,37.94267,6665.765992800001,-145.072,-18.593,158.377,1.0
9.3166,128.187994,37.942624,6663.9609672,-145.156,-18.67,158.34,1.0
9.3333,128.188015,37.942578,6662.1489312,-145.239,-18.747,158.303,1.0
9.35,128.188036,37.942532,6660.3301896,-145.322,-18.825,158.266,1.0
9.3666,128.188057,37.942485,6658.504132800001,-145.405,-18.904,158.228,1.0
9.3833,128.188078,37.942439,6656.671370400001,-145.487,-18.982,158.19,1.0
9.4,128.188099,37.942393,6654.831597600001,-145.569,-19.061,158.153,1.0
9.4166,128.188121,37.942347,6652.984509600001,-145.65,-19.139,158.116,1.0
9.4333,128.188142,37.9423,6651.130411200001,-145.732,-19.218,158.078,1.0
9.45,128.188163,37.942254,6649.2696072,-145.813,-19.297,158.04,1.0
9.4666,128.188184,37.942208,6647.401183200001,-145.893,-19.377,158.002,1.0
9.4833,128.188206,37.942162,6645.5260536000005,-145.974,-19.457,157.964,1.0
9.5,128.188227,37.942116,6643.6436088,-146.054,-19.536,157.927,1.0
9.5166,128.188248,37.94207,6641.7538488,-146.135,-19.616,157.889,1.0
9.5333,128.18827,37.942023,6639.8570784,-146.215,-19.696,157.852,1.0
9.55,128.188291,37.941977,6637.952992800001,-146.294,-19.776,157.814,1.0
9.5666,128.188313,37.941931,6636.0418968,-146.374,-19.857,157.776,1.0
9.5833,128.188334,37.941885,6634.1234856,-146.453,-19.938,157.738,1.0
9.6,128.188356,37.941839,6632.1977592,-146.532,-20.019,157.7,1.0
9.6166,128.188378,37.941793,6630.2647176,-146.611,-20.099,157.662,1.0
9.6333,128.188399,37.941747,6628.324360800001,-146.689,-20.181,157.624,1.0
9.65,128.188421,37.941701,6626.3769936,-146.767,-20.263,157.586,1.0
9.6666,128.188443,37.941655,6624.422006400001,-146.844,-20.345,157.547,1.0
9.6833,128.188464,37.941609,6622.459704,-146.921,-20.427,157.509,1.0
9.7,128.188486,37.941563,6620.4900864,-146.997,-20.509,157.47,1.0
9.7166,128.188508,37.941517,6618.5128488,-147.074,-20.591,157.432,1.0
9.7333,128.18853,37.941471,6616.528296,-147.15,-20.674,157.394,1.0
9.75,128.188552,37.941425,6614.536428,-147.226,-20.757,157.356,1.0
9.7666,128.188574,37.94138,6612.5372448,-147.301,-20.84,157.317,1.0
9.7833,128.188596,37.941334,6610.5301368,-147.376,-20.924,157.278,1.0
9.8,128.188618,37.941288,6608.515713600001,-147.452,-21.007,157.24,1.0
9.8166,128.18864,37.941242,6606.4939752,-147.527,-21.09,157.202,1.0
9.8333,128.188662,37.941196,6604.4646168,-147.602,-21.174,157.163,1.0
9.85,128.188684,37.94115,6602.4276384,-147.676,-21.258,157.125,1.0
9.8666,128.188706,37.941105,6600.38304,-147.751,-21.342,157.086,1.0
9.8833,128.188728,37.941059,6598.3308216000005,-147.825,-21.427,157.048,1.0
9.9,128.18875,37.941013,6596.270983200001,-147.899,-21.511,157.009,1.0
9.9166,128.188773,37.940967,6594.203524800001,-147.974,-21.595,156.971,1.0
9.9333,128.188795,37.940922,6592.128446400001,-148.047,-21.679,156.933,1.0
9.95,128.188817,37.940876,6590.045748,-148.12,-21.765,156.894,1.0
9.9666,128.188839,37.94083,6587.955124800001,-148.193,-21.851,156.855,1.0
9.9833,128.188862,37.940785,6585.8571864000005,-148.265,-21.937,156.816,1.0
10.0,128.188884,37.940739,6583.7510184,-148.337,-22.023,156.777,1.0
10.0166,128.188907,37.940694,6581.6375352000005,-148.409,-22.108,156.738,1.0
10.0333,128.188929,37.940648,6579.5161272000005,-148.48,-22.194,156.699,1.0
10.05,128.188952,37.940602,6577.3867944,-148.551,-22.281,156.66,1.0
10.0666,128.188974,37.940557,6575.249841600001,-148.621,-22.368,156.62,1.0
10.0833,128.188997,37.940511,6573.1046592,-148.691,-22.456,156.581,1.0
10.1,128.189019,37.940466,6570.9521616,-148.761,-22.543,156.542,1.0
10.1166,128.189042,37.940421,6568.7914344,-148.831,-22.629,156.503,1.0
10.1333,128.189065,37.940375,6566.622782400001,-148.9,-22.717,156.464,1.0
10.15,128.189087,37.94033,6564.446510400001,-148.969,-22.805,156.424,1.0
10.1666,128.18911,37.940284,6562.2620088,-149.037,-22.894,156.384,1.0
10.1833,128.189133,37.940239,6560.0695824,-149.105,-22.982,156.344,1.0
10.2,128.189156,37.940194,6557.8692312,-149.172,-23.071,156.305,1.0
10.2166,128.189178,37.940148,6555.660955200001,-149.24,-23.159,156.266,1.0
10.2333,128.189201,37.940103,6553.444449600001,-149.307,-23.248,156.226,1.0
10.25,128.189224,37.940058,6551.220019200001,-149.374,-23.337,156.187,1.0
10.2666,128.189247,37.940012,6548.987664,-149.441,-23.427,156.147,1.0
10.2833,128.18927,37.939967,6546.7467744000005,-149.508,-23.516,156.107,1.0
10.3,128.189293,37.939922,6544.4982648000005,-149.575,-23.606,156.068,1.0
10.3166,128.189316,37.939877,6542.2415255999995,-149.642,-23.695,156.029,1.0
10.3333,128.189339,37.939832,6539.976252,-149.709,-23.785,155.989,1.0
10.35,128.189362,37.939786,6537.7033584,-149.775,-23.876,155.949,1.0
10.3666,128.189385,37.939741,6535.4219304,-149.841,-23.967,155.909,1.0
10.3833,128.189408,37.939696,6533.1322728000005,-149.906,-24.058,155.869,1.0
10.4,128.189432,37.939651,6530.8346904,-149.972,-24.149,155.829,1.0
10.4166,128.189455,37.939606,6528.5285736000005,-150.037,-24.239,155.79,1.0
10.4333,128.189478,37.939561,6526.2142272,-150.101,-24.331,155.749,1.0
10.45,128.189501,37.939516,6523.8916512000005,-150.165,-24.423,155.709,1.0
10.4666,128.189525,37.939471,6521.5608456,-150.228,-24.516,155.668,1.0
10.4833,128.189548,37.939426,6519.2215056000005,-150.291,-24.608,155.628,1.0
10.5,128.189571,37.939381,6516.873936,-150.354,-24.701,155.587,1.0
10.5166,128.189595,37.939336,6514.5181368,-150.416,-24.793,155.547,1.0
10.5333,128.189618,37.939291,6512.1538032,-150.478,-24.885,155.507,1.0
10.55,128.189642,37.939247,6509.7809352,-150.539,-24.979,155.466,1.0
10.5666,128.189665,37.939202,6507.399837600001,-150.601,-25.073,155.425,1.0
10.5833,128.189689,37.939157,6505.0102056000005,-150.662,-25.167,155.384,1.0
10.6,128.189712,37.939112,6502.6120392,-150.723,-25.26,155.344,1.0
10.6166,128.189736,37.939068,6500.205338400001,-150.785,-25.354,155.304,1.0
10.6333,128.18976,37.939023,6497.7901032,-150.846,-25.448,155.263,1.0
10.65,128.189783,37.938978,6495.366638400001,-150.906,-25.542,155.222,1.0
10.6666,128.189807,37.938934,6492.9343344,-150.967,-25.638,155.181,1.0
10.6833,128.189831,37.938889,6490.493496,-151.027,-25.733,155.14,1.0
10.7,128.189854,37.938844,6488.0438184,-151.088,-25.828,155.1,1.0
10.7166,128.189878,37.9388,6485.585911200001,-151.148,-25.922,155.059,1.0
10.7333,128.189902,37.938755,6483.1191648,-151.209,-26.017,155.018,1.0
10.75,128.189926,37.938711,6480.643884000001,-151.268,-26.114,154.977,1.0
10.7666,128.18995,37.938666,6478.159764,-151.328,-26.21,154.936,1.0
10.7833,128.189974,37.938622,6475.6668048,-151.387,-26.307,154.894,1.0
10.8,128.189997,37.938577,6473.165311200001,-151.446,-26.404,154.853,1.0
10.8166,128.190021,37.938533,6470.655283200001,-151.506,-26.5,154.812,1.0
10.8333,128.190045,37.938489,6468.1361112,-151.564,-26.596,154.771,1.0
10.85,128.190069,37.938444,6465.6084048,-151.623,-26.694,154.73,1.0
10.8666,128.190094,37.9384,6463.0715544,-151.681,-26.792,154.688,1.0
10.8833,128.190118,37.938356,6460.526169600001,-151.739,-26.89,154.646,1.0
10.9,128.190142,37.938312,6457.9719456,-151.797,-26.988,154.605,1.0
10.9166,128.190166,37.938267,6455.4088824,-151.855,-27.086,154.563,1.0
10.9333,128.19019,37.938223,6452.8366752,-151.912,-27.184,154.522,1.0
10.95,128.190214,37.938179,6450.2556288000005,-151.969,-27.283,154.48,1.0
10.9666,128.190239,37.938135,6447.6657432,-152.025,-27.383,154.437,1.0
10.9833,128.190263,37.938091,6445.0667136,-152.082,-27.483,154.395,1.0
11.0,128.190287,37.938047,6442.4588448,-152.138,-27.582,154.353,1.0
11.0166,128.190311,37.938003,6439.842136800001,-152.194,-27.681,154.312,1.0
11.0333,128.190336,37.937959,6437.2168944000005,-152.126,-27.752,154.261,1.0
11.05,128.19036,37.937915,6434.5846416,-151.943,-27.777,154.212,1.0
11.0666,128.190384,37.937871,6431.9456832000005,-151.647,-27.743,154.186,1.0
11.0833,128.190409,37.937827,6429.300628800001,-151.231,-27.661,154.188,1.0
11.1,128.190433,37.937783,6426.649478400001,-150.693,-27.55,154.211,1.0
11.1166,128.190458,37.937739,6423.9931464,-150.032,-27.432,154.244,1.0
11.1333,128.190482,37.937695,6421.331937600001,-149.25,-27.319,154.278,1.0
11.15,128.190507,37.937651,6418.666156800001,-148.353,-27.215,154.308,1.0
11.1666,128.190531,37.937607,6415.9964136,-147.346,-27.121,154.334,1.0
11.1833,128.190556,37.937563,6413.3220984,-146.236,-27.034,154.358,1.0
11.2,128.19058,37.937519,6410.6438208,-145.026,-26.952,154.379,1.0
11.2166,128.190605,37.937475,6407.9615808,-143.723,-26.875,154.4,1.0
11.2333,128.190629,37.937431,6405.2756832000005,-142.33,-26.801,154.421,1.0
11.25,128.190654,37.937387,6402.586128000001,-140.851,-26.73,154.443,1.0
11.2666,128.190679,37.937343,6399.892915200001,-139.291,-26.662,154.464,1.0
11.2833,128.190703,37.937299,6397.1960448,-137.653,-26.596,154.486,1.0
11.3,128.190728,37.937255,6394.4955168,-135.942,-26.533,154.509,1.0
11.3166,128.190753,37.937211,6391.791940800001,-134.161,-26.473,154.533,1.0
11.3333,128.190777,37.937167,6389.0847072,-132.312,-26.414,154.557,1.0
11.35,128.190802,37.937123,6386.3744256,-130.4,-26.358,154.582,1.0
11.3666,128.190827,37.937079,6383.6607912,-128.428,-26.303,154.609,1.0
11.3833,128.190851,37.937035,6380.9438040000005,-126.397,-26.251,154.636,1.0
11.4,128.190876,37.936991,6378.2237688000005,-124.312,-26.2,154.665,1.0
11.4166,128.190901,37.936947,6375.5003808,-122.175,-26.151,154.695,1.0
11.4333,128.190925,37.936903,6372.7739448,-119.989,-26.103,154.727,1.0
11.45,128.19095,37.936859,6370.044460800001,-117.755,-26.058,154.76,1.0
11.4666,128.190975,37.936815,6367.311624000001,-115.477,-26.013,154.795,1.0
11.4833,128.191,37.93677,6364.5757392,-113.156,-25.971,154.832,1.0
11.5,128.191025,37.936726,6361.836806400001,-110.794,-25.93,154.87,1.0
11.5166,128.191049,37.936682,6359.0948256,-108.395,-25.89,154.91,1.0
11.5333,128.191074,37.936638,6356.349796800001,-105.959,-25.853,154.952,1.0
11.55,128.191099,37.936594,6353.601415200001,-103.488,-25.817,154.996,1.0
11.5666,128.191124,37.936549,6350.8499856,-100.984,-25.783,155.042,1.0
11.5833,128.191149,37.936505,6348.0958128,-98.448,-25.751,155.09,1.0
11.6,128.191173,37.936461,6345.3382872,-95.883,-25.721,155.139,1.0
11.6166,128.191198,37.936416,6342.5774088,-93.289,-25.693,155.191,1.0
11.6333,128.191223,37.936372,6339.813787200001,-90.658,-25.668,155.221,1.0
11.65,128.191248,37.936328,6337.0474224,-87.98,-25.644,155.206,1.0
11.6666,128.191273,37.936283,6334.278009600001,-85.251,-25.619,155.132,1.0
11.6833,128.191298,37.936239,6331.505244,-82.482,-25.589,155.019,1.0
11.7,128.191323,37.936195,6328.73004,-79.685,-25.555,154.894,1.0
11.7166,128.191348,37.93615,6325.9514832,-76.874,-25.519,154.774,1.0
11.7333,128.191373,37.936106,6323.1717072,-74.201,-25.489,154.635,1.0
11.75,128.191398,37.936062,6320.3901024,-71.657,-25.456,154.456,1.0
11.7666,128.191423,37.936017,6317.606973600001,-69.219,-25.401,154.22,1.0
11.7833,128.191448,37.935973,6314.8226256,-66.877,-25.321,153.95,1.0
11.8,128.191473,37.935929,6312.0373632,-64.621,-25.22,153.674,1.0
11.8166,128.191499,37.935884,6309.2517960000005,-62.436,-25.107,153.412,1.0
11.8333,128.191524,37.93584,6306.4677528,-60.429,-24.985,153.14,1.0
11.85,128.19155,37.935796,6303.685538400001,-58.572,-24.847,152.842,1.0
11.8666,128.191576,37.935752,6300.9051528,-56.845,-24.693,152.532,1.0
11.8833,128.191601,37.935707,6298.127510400001,-55.23,-24.526,152.23,1.0
11.9,128.191627,37.935663,6295.3513920000005,-53.709,-24.351,151.949,1.0
11.9166,128.191653,37.935619,6292.5783216,-52.258,-24.173,151.693,1.0
11.9333,128.191679,37.935574,6289.808908800001,-50.918,-24.011,151.475,1.0
11.95,128.191706,37.93553,6287.0443728,-49.667,-23.867,151.29,1.0
11.9666,128.191732,37.935486,6284.2828848,-48.486,-23.734,151.129,1.0
11.9833,128.191759,37.935442,6281.525968800001,-47.357,-23.603,150.984,1.0
12.0,128.191785,37.935398,6278.773320000001,-46.267,-23.471,150.85,1.0
12.0166,128.191812,37.935353,6276.024938400001,-45.203,-23.337,150.725,1.0
12.0333,128.191839,37.935309,6273.2820432,-44.194,-23.219,150.621,1.0
12.05,128.191866,37.935265,6270.5446344,-43.237,-23.126,150.546,1.0
12.0666,128.191893,37.935221,6267.811797600001,-42.32,-23.05,150.491,1.0
12.0833,128.19192,37.935176,6265.084142400001,-41.433,-22.98,150.448,1.0
12.1,128.191947,37.935132,6262.361973600001,-40.569,-22.91,150.409,1.0
12.1166,128.191975,37.935088,6259.644986400001,-39.718,-22.835,150.372,1.0
12.1333,128.192002,37.935044,6256.9344,-38.955,-22.775,150.339,1.0
12.15,128.19203,37.934999,6254.2305192,-38.275,-22.729,150.31,1.0
12.1666,128.192058,37.934955,6251.5330392,-37.668,-22.689,150.284,1.0
12.1833,128.192086,37.934911,6248.8422648000005,-37.122,-22.648,150.261,1.0
12.2,128.192114,37.934867,6246.1569768,-36.626,-22.603,150.241,1.0
12.2166,128.192142,37.934823,6243.4777848,-36.167,-22.551,150.221,1.0
12.2333,128.19217,37.934778,6240.8065176,-35.816,-22.508,150.199,1.0
12.25,128.192198,37.934734,6238.141956,-35.561,-22.474,150.173,1.0
12.2666,128.192227,37.93469,6235.4850144,-35.389,-22.443,150.146,1.0
12.2833,128.192255,37.934646,6232.834778400001,-35.29,-22.41,150.119,1.0
12.3,128.192284,37.934601,6230.190638400001,-35.251,-22.371,150.095,1.0
12.3166,128.192312,37.934557,6227.5525944,-35.255,-22.328,150.073,1.0
12.3333,128.192341,37.934513,6224.921865600001,-35.408,-22.304,150.052,1.0
12.35,128.19237,37.934469,6222.2978424,-35.706,-22.319,150.045,1.0
12.3666,128.192399,37.934424,6219.680524800001,-36.157,-22.38,150.066,1.0
12.3833,128.192428,37.93438,6217.0699128,-36.759,-22.469,150.107,1.0
12.4,128.192458,37.934336,6214.4669208,-37.506,-22.564,150.156,1.0
12.4166,128.192487,37.934292,6211.871244,-38.391,-22.652,150.204,1.0
12.4333,128.192516,37.934247,6209.2822728,-39.395,-22.755,150.256,1.0
12.45,128.192546,37.934203,6206.699397600001,-40.514,-22.874,150.314,1.0
12.4666,128.192576,37.934159,6204.1223136,-41.747,-22.998,150.375,1.0
12.4833,128.192605,37.934115,6201.550716,-43.094,-23.119,150.434,1.0
12.5,128.192635,37.93407,6198.9843,-44.552,-23.232,150.49,1.0
12.5166,128.192665,37.934026,6196.4221512,-46.119,-23.334,150.541,1.0
12.5333,128.192695,37.933982,6193.8648792,-47.779,-23.414,150.573,1.0
12.55,128.192725,37.933938,6191.311264800001,-49.529,-23.476,150.584,1.0
12.5666,128.192755,37.933894,6188.761308,-51.366,-23.525,150.583,1.0
12.5833,128.192786,37.933849,6186.2143992,-53.29,-23.568,150.576,1.0
12.6,128.192816,37.933805,6183.670538400001,-55.298,-23.609,150.568,1.0
12.6166,128.192847,37.933761,6181.129116,-57.387,-23.647,150.559,1.0
12.6333,128.192877,37.933717,6178.586474400001,-59.279,-23.659,150.593,1.0
12.65,128.192908,37.933673,6176.0447472000005,-60.984,-23.644,150.67,1.0
12.6666,128.192939,37.933629,6173.5042392,-62.464,-23.616,150.765,1.0
12.6833,128.19297,37.933585,6170.9643408,-63.692,-23.59,150.86,1.0
12.7,128.193,37.933541,6168.424442400001,-64.663,-23.569,150.943,1.0
12.7166,128.193031,37.933497,6165.8839344,-65.393,-23.553,151.013,1.0
12.7333,128.193062,37.933453,6163.345255200001,-66.125,-23.56,151.061,1.0
12.75,128.193093,37.933409,6160.806576,-66.912,-23.592,151.089,1.0
12.7666,128.193125,37.933365,6158.2672872,-67.781,-23.634,151.106,1.0
12.7833,128.193156,37.933321,6155.727084000001,-68.745,-23.672,151.12,1.0
12.8,128.193187,37.933277,6153.1859664,-69.796,-23.699,151.135,1.0
12.8166,128.193218,37.933233,6150.643324800001,-70.914,-23.716,151.152,1.0
12.8333,128.19325,37.933189,6148.101292800001,-72.147,-23.743,151.163,1.0
12.85,128.193281,37.933145,6145.558956000001,-73.482,-23.784,151.167,1.0
12.8666,128.193312,37.933101,6143.0157048,-74.924,-23.833,151.165,1.0
12.8833,128.193344,37.933057,6140.4715392,-76.484,-23.882,151.16,1.0
12.9,128.193376,37.933013,6137.9261544,-78.164,-23.927,151.153,1.0
12.9166,128.193407,37.932969,6135.3792456,-79.958,-23.967,151.146,1.0
12.9333,128.193439,37.932926,6132.8314224000005,-81.855,-24.007,151.138,1.0
12.95,128.193471,37.932882,6130.281770400001,-83.846,-24.048,151.129,1.0
12.9666,128.193503,37.932838,6127.7302896,-85.928,-24.089,151.119,1.0
12.9833,128.193535,37.932794,6125.17698,-88.098,-24.131,151.108,1.0
13.0,128.193567,37.93275,6122.621232,-90.351,-24.172,151.096,1.0
13.0166,128.193599,37.932707,6120.0627408,-92.686,-24.212,151.083,1.0
13.0333,128.193631,37.932663,6117.501811200001,-95.095,-24.252,151.07,1.0
13.0499,128.193663,37.932619,6114.937833600001,-97.576,-24.291,151.057,1.0
13.0666,128.193695,37.932576,6112.370808,-100.124,-24.331,151.044,1.0
13.0833,128.193727,37.932532,6109.800124800001,-102.735,-24.37,151.032,1.0
13.1,128.193759,37.932489,6107.2260888,-105.405,-24.409,151.019,1.0
13.1166,128.193792,37.932445,6104.6483952,-108.131,-24.448,151.008,1.0
13.1333,128.193824,37.932402,6102.0664344,-110.91,-24.487,150.997,1.0
13.15,128.193857,37.932358,6099.4802064000005,-113.738,-24.526,150.987,1.0
13.1666,128.193889,37.932315,6096.889406400001,-116.611,-24.564,150.977,1.0
13.1833,128.193922,37.932271,6094.2940344,-119.526,-24.603,150.97,1.0
13.2,128.193954,37.932228,6091.6934808,-122.481,-24.641,150.963,1.0
13.2166,128.193987,37.932185,6089.088050400001,-125.473,-24.679,150.958,1.0
13.2333,128.194019,37.932141,6086.476219200001,-128.199,-24.707,150.917,1.0
13.25,128.194052,37.932098,6083.8592064,-130.65,-24.742,150.821,1.0
13.2666,128.194084,37.932055,6081.2373168,-132.852,-24.815,150.669,1.0
13.2833,128.194117,37.932011,6078.6099408,-134.833,-24.957,150.46,1.0
13.3,128.19415,37.931968,6075.9767736,-136.632,-25.186,150.19,1.0
13.3166,128.194183,37.931925,6073.336900800001,-138.292,-25.515,149.851,1.0
13.3333,128.194215,37.931882,6070.6884936,-139.637,-25.92,149.429,1.0
13.35,128.194248,37.931839,6068.0321616,-140.694,-26.383,148.935,1.0
13.3666,128.194281,37.931796,6065.367295200001,-141.489,-26.888,148.402,1.0
13.3833,128.194314,37.931753,6062.6935895999995,-142.077,-27.421,147.865,1.0
13.4,128.194347,37.93171,6060.01074,-142.513,-27.962,147.351,1.0
13.4166,128.19438,37.931667,6057.3166128,-142.856,-28.488,146.881,1.0
13.4333,128.194413,37.931624,6054.6109032,-143.182,-28.972,146.471,1.0
13.45,128.194446,37.931581,6051.8930016,-143.532,-29.388,146.135,1.0
13.4666,128.194479,37.931538,6049.1616888,-143.927,-29.725,145.874,1.0
13.4833,128.194512,37.931496,6046.4160504,-144.366,-29.998,145.669,1.0
13.5,128.194545,37.931453,6043.656696,-144.842,-30.224,145.505,1.0
13.5166,128.194579,37.931411,6040.8833208,-145.343,-30.421,145.365,1.0
13.5333,128.194612,37.931368,6038.095620000001,-145.996,-30.576,145.279,1.0
13.55,128.194645,37.931326,6035.292984000001,-146.796,-30.69,145.244,1.0
13.5666,128.194679,37.931284,6032.475108,-147.734,-30.779,145.239,1.0
13.5833,128.194712,37.931242,6029.6413824,-148.805,-30.859,145.244,1.0
13.6,128.194746,37.9312,6026.791502399999,-149.999,-30.946,145.244,1.0
13.6166,128.194779,37.931158,6023.925468,-151.31,-31.041,145.237,1.0
13.6333,128.194813,37.931116,6021.0441936,-152.632,-31.154,145.208,1.0
13.65,128.194847,37.931075,6018.147679200001,-153.942,-31.279,145.16,1.0
13.6666,128.19488,37.931033,6015.2365344,-155.233,-31.412,145.102,1.0
13.6833,128.194914,37.930991,6012.3113688,-156.503,-31.55,145.046,1.0
13.7,128.194947,37.93095,6009.3718776000005,-157.754,-31.69,144.997,1.0
13.7166,128.194981,37.930908,6006.418670400001,-158.989,-31.833,144.956,1.0
13.7333,128.195015,37.930867,6003.451137600001,-160.019,-31.992,144.891,1.0
13.75,128.195048,37.930826,6000.4701936,-160.851,-32.179,144.795,1.0
13.7666,128.195082,37.930785,5997.4761432,-161.518,-32.389,144.688,1.0
13.7833,128.195116,37.930744,5994.4692912,-162.053,-32.61,144.588,1.0
13.8,128.195149,37.930702,5991.449637600001,-162.49,-32.832,144.504,1.0
13.8166,128.195183,37.930661,5988.4159632,-162.86,-33.051,144.436,1.0
13.8333,128.195217,37.930621,5985.369487200001,-163.136,-33.277,144.369,1.0
13.85,128.19525,37.93058,5982.309295200001,-163.337,-33.509,144.297,1.0
13.8666,128.195284,37.930539,5979.234777600001,-163.482,-33.743,144.225,1.0
13.8833,128.195318,37.930498,5976.1459343999995,-163.588,-33.976,144.156,1.0
13.9,128.195352,37.930457,5973.042156,-163.663,-34.203,144.092,1.0
13.9166,128.195385,37.930417,5969.923442400001,-163.719,-34.425,144.034,1.0
13.9333,128.195419,37.930376,5966.7900984,-163.761,-34.631,143.974,1.0
13.95,128.195453,37.930336,5963.6415144,-163.795,-34.822,143.912,1.0
13.9666,128.195486,37.930295,5960.4776904,-163.818,-35.003,143.849,1.0
13.9833,128.19552,37.930255,5957.2989312,-163.83,-35.18,143.787,1.0
14.0,128.195554,37.930215,5954.104932,-163.831,-35.357,143.726,1.0
14.0166,128.195587,37.930175,5950.895388000001,-163.822,-35.534,143.667,1.0
14.0333,128.195621,37.930135,5947.672128,-163.786,-35.698,143.61,1.0
14.05,128.195655,37.930095,5944.433628000001,-163.726,-35.849,143.553,1.0
14.0666,128.195688,37.930055,5941.1801928,-163.644,-35.992,143.497,1.0
14.0833,128.195722,37.930015,5937.9118224,-163.544,-36.133,143.442,1.0
14.1,128.195756,37.929975,5934.628212,-163.429,-36.275,143.387,1.0
14.1166,128.195789,37.929935,5931.3299712,-163.303,-36.42,143.334,1.0
14.1333,128.195823,37.929896,5928.017709600001,-163.143,-36.567,143.276,1.0
14.15,128.195857,37.929856,5924.6905128,-162.952,-36.714,143.214,1.0
14.1666,128.19589,37.929817,5921.3489904,-162.737,-36.861,143.15,1.0
14.1833,128.195924,37.929777,5917.992228,-162.501,-37.009,143.086,1.0
14.2,128.195957,37.929738,5914.62114,-162.25,-37.157,143.023,1.0
14.2166,128.195991,37.929699,5911.2351168,-161.987,-37.304,142.961,1.0
14.2333,128.196025,37.92966,5907.834768000001,-161.702,-37.458,142.894,1.0
14.25,128.196058,37.92962,5904.4197888,-161.397,-37.618,142.821,1.0
14.2666,128.196092,37.929581,5900.989874400001,-161.077,-37.781,142.745,1.0
