Time,Longitude,Latitude,Altitude,Roll (deg),Pitch (deg),Yaw (deg),Health
0.0,128.181881,37.923646,7000.146528,0.0,-0.003,0.0,1.0
0.0166,128.181881,37.923691,7000.1605488000005,0.0,-0.012,0.0,1.0
0.0333,128.181881,37.923736,7000.173960000001,0.0,-0.025,0.0,1.0
0.05,128.181881,37.923781,7000.186152000001,0.0,-0.039,0.0,1.0
0.0666,128.181881,37.923826,7000.1977344,0.0,-0.054,0.0,1.0
0.0833,128.181881,37.923871,7000.2084024,0.0,-0.069,359.999,1.0
0.1,128.181881,37.923916,7000.218460800001,0.0,-0.085,359.999,1.0
0.1166,128.181881,37.923961,7000.2276048,-0.004,-0.099,359.999,1.0
0.1333,128.181881,37.924005,7000.2361392,-0.012,-0.113,359.997,1.0
0.15,128.181881,37.924051,7000.2443688,-0.028,-0.126,359.995,1.0
0.1666,128.181881,37.924096,7000.251379200001,-0.048,-0.138,359.993,1.0
0.1833,128.181881,37.924141,7000.2580848,-0.07,-0.149,359.99,1.0
0.2,128.181881,37.924186,7000.263876,-0.096,-0.16,359.987,1.0
0.2166,128.181881,37.924231,7000.2690575999995,-0.127,-0.17,359.983,1.0
0.2333,128.181881,37.924276,7000.2733248,-0.163,-0.179,359.979,1.0
0.25,128.181881,37.924321,7000.2772872000005,-0.204,-0.187,359.975,1.0
0.2666,128.181881,37.924366,7000.28064,-0.251,-0.195,359.97,1.0
0.2833,128.181881,37.924411,7000.283078400001,-0.302,-0.202,359.965,1.0
0.3,128.181881,37.924456,7000.285212,-0.359,-0.209,359.96,1.0
0.3166,128.181881,37.924501,7000.2864312,-0.421,-0.216,359.955,1.0
0.3333,128.181881,37.924546,7000.2858216,-0.386,-0.227,359.952,1.0
0.35,128.181881,37.924591,7000.283688,-0.251,-0.24,359.953,1.0
0.3666,128.181881,37.924636,7000.2794208,-0.018,-0.257,359.956,1.0
0.3833,128.181881,37.924681,7000.274544,0.12,-0.275,359.947,1.0
0.4,128.181881,37.924727,7000.2690575999995,0.168,-0.294,359.925,1.0
0.4166,128.181881,37.924772,7000.2632664,0.121,-0.313,359.895,1.0
0.4333,128.181881,37.924817,7000.2574752,-0.022,-0.332,359.861,1.0
0.45,128.181881,37.924862,7000.2519888,-0.262,-0.351,359.826,1.0
0.4666,128.181881,37.924907,7000.2474168,-0.597,-0.369,359.791,1.0
0.4833,128.181881,37.924952,7000.243759200001,-1.025,-0.387,359.756,1.0
0.5,128.181881,37.924998,7000.2413208,-1.541,-0.404,359.722,1.0
0.5166,128.181881,37.925043,7000.241016,-2.141,-0.421,359.69,1.0
0.5333,128.181881,37.925088,7000.24254,-2.824,-0.437,359.658,1.0
0.55,128.181881,37.925133,7000.246197600001,-3.584,-0.452,359.627,1.0
0.5666,128.181881,37.925178,7000.2522936,-4.419,-0.466,359.598,1.0
0.5833,128.181881,37.925223,7000.2599136,-5.326,-0.48,359.569,1.0
0.6,128.181881,37.925269,7000.2696672,-6.3,-0.494,359.541,1.0
0.6166,128.181881,37.925314,7000.2815544000005,-7.34,-0.506,359.515,1.0
0.6333,128.181881,37.925359,7000.295270400001,-8.443,-0.519,359.489,1.0
0.65,128.181881,37.925404,7000.3108152,-9.606,-0.53,359.464,1.0
0.6666,128.181881,37.925449,7000.3281888,-10.825,-0.542,359.439,1.0
0.6833,128.181881,37.925495,7000.347391200001,-12.1,-0.553,359.416,1.0
0.7,128.181881,37.92554,7000.3681176,-13.426,-0.564,359.394,1.0
0.7166,128.18188,37.925585,7000.3906728,-14.803,-0.575,359.372,1.0
0.7333,128.18188,37.92563,7000.4150568000005,-16.227,-0.586,359.351,1.0
0.75,128.18188,37.925675,7000.440964800001,-17.697,-0.597,359.331,1.0
0.7666,128.18188,37.925721,7000.468396800001,-19.21,-0.607,359.311,1.0
0.7833,128.18188,37.925766,7000.4973528,-20.765,-0.618,359.293,1.0
0.8,128.18188,37.925811,7000.5275280000005,-22.359,-0.629,359.275,1.0
0.8166,128.18188,37.925856,7000.559532,-23.991,-0.64,359.258,1.0
0.8333,128.181879,37.925901,7000.5924504,-25.658,-0.651,359.241,1.0
0.85,128.181879,37.925947,7000.626892800001,-27.36,-0.662,359.226,1.0
0.8666,128.181879,37.925992,7000.662554400001,-29.095,-0.674,359.211,1.0
0.8833,128.181879,37.926037,7000.6994352,-30.861,-0.686,359.197,1.0
0.9,128.181878,37.926082,7000.7369256,-32.651,-0.698,359.184,1.0
0.9166,128.181878,37.926128,7000.7747208,-34.458,-0.709,359.173,1.0
0.9333,128.181878,37.926173,7000.8128208,-36.273,-0.721,359.163,1.0
0.95,128.181877,37.926218,7000.8512256,-38.091,-0.732,359.155,1.0
0.9666,128.181877,37.926263,7000.8890208,-39.906,-0.743,359.149,1.0
0.9833,128.181876,37.926309,7000.926816,-41.711,-0.753,359.145,1.0
1.0,128.181876,37.926354,7000.964306400001,-43.504,-0.763,359.142,1.0
1.0166,128.181875,37.926399,7001.000882400001,-45.278,-0.773,359.141,1.0
1.0333,128.181875,37.926444,7001.0368488,-47.03,-0.782,359.141,1.0
1.05,128.181874,37.92649,7001.071900800001,-48.757,-0.791,359.142,1.0
1.0666,128.181874,37.926535,7001.1057336,-50.456,-0.8,359.144,1.0
1.0833,128.181873,37.92658,7001.138652000001,-52.123,-0.809,359.147,1.0
1.1,128.181873,37.926625,7001.1700464000005,-53.756,-0.817,359.151,1.0
1.1166,128.181872,37.926671,7001.2002216,-55.352,-0.825,359.156,1.0
1.1333,128.181871,37.926716,7001.2288728,-56.909,-0.832,359.162,1.0
1.15,128.181871,37.926761,7001.2556952,-58.424,-0.839,359.168,1.0
1.1666,128.18187,37.926807,7001.2809936,-59.894,-0.846,359.175,1.0
1.1833,128.181869,37.926852,7001.3044632,-61.318,-0.852,359.182,1.0
1.2,128.181868,37.926897,7001.3257992,-62.693,-0.858,359.19,1.0
1.2166,128.181868,37.926943,7001.345001600001,-64.015,-0.863,359.199,1.0
1.2333,128.181867,37.926988,7001.362375199999,-65.284,-0.867,359.208,1.0
1.25,128.181866,37.927033,7001.377310400001,-66.496,-0.871,359.217,1.0
1.2666,128.181865,37.927079,7001.3898072,-67.65,-0.875,359.227,1.0
1.2833,128.181865,37.927124,7001.400170400001,-68.743,-0.878,359.237,1.0
1.3,128.181864,37.92717,7001.4080952,-69.773,-0.881,359.247,1.0
1.3166,128.181863,37.927215,7001.4132768,-70.737,-0.883,359.257,1.0
1.3333,128.181862,37.92726,7001.416020000001,-71.633,-0.885,359.268,1.0
1.35,128.181861,37.927306,7001.416020000001,-72.459,-0.886,359.278,1.0
1.3666,128.18186,37.927351,7001.4126672,-73.144,-0.883,359.291,1.0
1.3833,128.18186,37.927397,7001.4065712,-73.694,-0.875,359.304,1.0
1.4,128.181859,37.927442,7001.397732,-74.112,-0.865,359.319,1.0
1.4166,128.181858,37.927488,7001.38554,-74.4,-0.854,359.333,1.0
1.4333,128.181857,37.927533,7001.3703000000005,-74.562,-0.844,359.349,1.0
1.45,128.181856,37.927579,7001.3517071999995,-74.605,-0.833,359.364,1.0
1.4666,128.181856,37.927624,7001.3297616,-74.532,-0.823,359.38,1.0
1.4833,128.181855,37.92767,7001.304768,-74.351,-0.811,359.396,1.0
1.5,128.181854,37.927715,7001.2767264,-74.104,-0.799,359.413,1.0
1.5166,128.181854,37.927761,7001.245332,-73.791,-0.783,359.431,1.0
1.5333,128.181853,37.927806,7001.2108896,-73.403,-0.763,359.45,1.0
1.55,128.181852,37.927852,7001.175228000001,-73.107,-0.756,359.451,1.0
1.5666,128.181851,37.927898,7001.1368232,-72.886,-0.759,359.42,1.0
1.5833,128.181851,37.927943,7001.0962848,-72.756,-0.76,359.347,1.0
1.6,128.18185,37.927989,7001.0536128,-72.725,-0.753,359.219,1.0
1.6166,128.181849,37.928034,7001.009112,-72.796,-0.729,359.029,1.0
1.6333,128.181848,37.92808,7000.963087200001,-72.968,-0.686,358.769,1.0
1.65,128.181847,37.928126,7000.9155384000005,-73.24,-0.621,358.438,1.0
1.6666,128.181847,37.928171,7000.8670752,-73.607,-0.54,358.047,1.0
1.6833,128.181846,37.928217,7000.817088000001,-74.067,-0.445,357.608,1.0
1.7,128.181844,37.928263,7000.766796000001,-74.616,-0.344,357.137,1.0
1.7166,128.181843,37.928308,7000.7155896,-75.249,-0.24,356.65,1.0
1.7333,128.181842,37.928354,7000.6637736,-75.963,-0.141,356.164,1.0
1.75,128.181841,37.9284,7000.6116528,-76.753,-0.051,355.693,1.0
1.7666,128.181839,37.928445,7000.5592272,-77.617,0.026,355.256,1.0
1.7833,128.181838,37.928491,7000.506192000001,-78.549,0.086,354.867,1.0
1.8,128.181836,37.928537,7000.4525472000005,-79.548,0.127,354.542,1.0
1.8166,128.181834,37.928582,7000.398597600001,-80.609,0.148,354.297,1.0
1.8333,128.181832,37.928628,7000.343428800001,-81.732,0.147,354.147,1.0
1.85,128.18183,37.928674,7000.2870408,-82.914,0.126,354.099,1.0
1.8666,128.181828,37.928719,7000.2294336,-84.155,0.09,354.14,1.0
1.8833,128.181826,37.928765,7000.1703024,-85.453,0.044,354.256,1.0
1.9,128.181824,37.92881,7000.109342400001,-86.81,-0.007,354.429,1.0
1.9166,128.181821,37.928856,7000.0462488,-88.226,-0.061,354.644,1.0
1.9333,128.181819,37.928902,6999.9810216000005,-89.701,-0.114,354.884,1.0
1.95,128.181816,37.928947,6999.913356000001,-91.236,-0.164,355.131,1.0
1.9666,128.181813,37.928993,6999.842642400001,-92.83,-0.21,355.369,1.0
1.9833,128.181811,37.929039,6999.7691856,-94.485,-0.253,355.582,1.0
2.0,128.181808,37.929084,6999.6926808,-96.199,-0.293,355.758,1.0
2.0166,128.181805,37.92913,6999.613128000001,-97.971,-0.331,355.902,1.0
2.0333,128.181802,37.929175,6999.5299176,-99.8,-0.368,356.021,1.0
2.05,128.181799,37.929221,6999.4433544,-101.685,-0.403,356.12,1.0
2.0666,128.181796,37.929267,6999.352828800001,-103.621,-0.436,356.205,1.0
2.0833,128.181792,37.929312,6999.258645600001,-105.608,-0.468,356.279,1.0
2.1,128.181789,37.929358,6999.160804800001,-107.642,-0.498,356.343,1.0
2.1166,128.181786,37.929403,6999.058696800001,-109.722,-0.528,356.399,1.0
2.1333,128.181783,37.929449,6998.952626400001,-111.844,-0.557,356.449,1.0
2.15,128.181779,37.929495,6998.8422888,-114.008,-0.585,356.493,1.0
2.1666,128.181776,37.92954,6998.727684000001,-116.21,-0.614,356.532,1.0
2.1833,128.181772,37.929586,6998.6082024,-118.451,-0.642,356.567,1.0
2.2,128.181769,37.929632,6998.4847584,-120.728,-0.671,356.599,1.0
2.2166,128.181765,37.929677,6998.3561328000005,-123.04,-0.699,356.627,1.0
2.2333,128.181761,37.929723,6998.22324,-125.386,-0.729,356.652,1.0
2.25,128.181758,37.929768,6998.0851656,-127.764,-0.759,356.674,1.0
2.2666,128.181754,37.929814,6997.942214400001,-130.173,-0.789,356.694,1.0
2.2833,128.18175,37.92986,6997.794386400001,-132.611,-0.82,356.712,1.0
2.3,128.181746,37.929905,6997.6416816,-135.078,-0.851,356.728,1.0
2.3166,128.181742,37.929951,6997.4834904,-137.571,-0.884,356.742,1.0
2.3333,128.181739,37.929996,6997.3204224,-140.089,-0.917,356.755,1.0
2.35,128.181735,37.930042,6997.151868,-142.631,-0.951,356.767,1.0
2.3666,128.181731,37.930088,6996.978132,-145.195,-0.985,356.777,1.0
2.3833,128.181727,37.930133,6996.7989096,-147.779,-1.02,356.787,1.0
2.4,128.181723,37.930179,6996.614200800001,-150.382,-1.056,356.797,1.0
2.4166,128.181719,37.930225,6996.424310400001,-153.002,-1.092,356.805,1.0
2.4333,128.181715,37.93027,6996.2286288000005,-155.637,-1.129,356.814,1.0
2.45,128.181711,37.930316,6996.027460800001,-158.287,-1.165,356.823,1.0
2.4666,128.181707,37.930361,6995.820806400001,-160.949,-1.203,356.831,1.0
2.4833,128.181703,37.930407,6995.608360800001,-163.622,-1.24,356.84,1.0
2.5,128.181699,37.930453,6995.3901240000005,-166.304,-1.277,356.849,1.0
2.5166,128.181695,37.930498,6995.166096000001,-168.994,-1.314,356.858,1.0
2.5333,128.18169,37.930544,6994.9365816,-171.69,-1.351,356.868,1.0
2.55,128.181686,37.93059,6994.701276,-174.391,-1.388,356.878,1.0
2.5666,128.181682,37.930635,6994.4598744,-177.094,-1.424,356.888,1.0
2.5833,128.181678,37.930681,6994.2139008,-179.597,-1.459,356.886,1.0
2.6,128.181674,37.930726,6993.962745600001,178.093,-1.494,356.871,1.0
2.6166,128.18167,37.930772,6993.7073232,175.982,-1.528,356.85,1.0
2.6333,128.181666,37.930818,6993.447633600001,174.069,-1.563,356.825,1.0
2.65,128.181662,37.930863,6993.1821528,172.147,-1.598,356.814,1.0
2.6666,128.181658,37.930909,6992.9108808,170.22,-1.637,356.817,1.0
2.6833,128.181654,37.930955,6992.6335128,168.282,-1.682,356.83,1.0
2.7,128.18165,37.931,6992.3500488,166.325,-1.734,356.849,1.0
2.7166,128.181646,37.931046,6992.0614032,164.552,-1.81,356.865,1.0
2.7333,128.181642,37.931092,6991.7666616,162.953,-1.922,356.878,1.0
2.75,128.181638,37.931137,6991.467348,161.531,-2.055,356.893,1.0
2.7666,128.181634,37.931183,6991.1634624,160.285,-2.196,356.907,1.0
2.7833,128.18163,37.931229,6990.854700000001,159.212,-2.339,356.922,1.0
2.8,128.181626,37.931274,6990.541670400001,158.3,-2.483,356.932,1.0
2.8166,128.181622,37.93132,6990.224373600001,157.541,-2.627,356.937,1.0
2.8333,128.181618,37.931366,6989.903419200001,156.931,-2.774,356.939,1.0
2.85,128.181614,37.931411,6989.5785024,156.468,-2.923,356.939,1.0
2.8666,128.18161,37.931457,6989.2496232,156.148,-3.077,356.942,1.0
2.8833,128.181606,37.931503,6988.917086400001,155.967,-3.238,356.949,1.0
2.9,128.181602,37.931549,6988.581196800001,155.92,-3.408,356.963,1.0
2.9166,128.181598,37.931594,6988.2416496000005,156.001,-3.59,356.984,1.0
2.9333,128.181594,37.93164,6987.8987496,156.204,-3.788,357.013,1.0
2.95,128.18159,37.931686,6987.552496800001,156.523,-4.002,357.052,1.0
2.9666,128.181586,37.931732,6987.2028912000005,156.952,-4.235,357.099,1.0
2.9833,128.181582,37.931778,6986.850237600001,157.486,-4.485,357.154,1.0
3.0,128.181578,37.931824,6986.4942312,158.119,-4.748,357.213,1.0
3.0166,128.181574,37.931869,6986.1339576,158.846,-5.023,357.277,1.0
3.0333,128.18157,37.931915,6985.7697216,159.663,-5.31,357.343,1.0
3.05,128.181566,37.931961,6985.4009136,160.565,-5.607,357.41,1.0
3.0666,128.181563,37.932007,6985.026924000001,161.548,-5.914,357.477,1.0
3.0833,128.181559,37.932053,6984.6480576,162.607,-6.231,357.544,1.0
3.1,128.181555,37.932099,6984.263400000001,163.739,-6.56,357.609,1.0
3.1166,128.181551,37.932145,6983.8717320000005,164.919,-6.899,357.673,1.0
3.1333,128.181547,37.932191,6983.472444,166.119,-7.251,357.737,1.0
3.15,128.181543,37.932237,6983.0652312,167.311,-7.616,357.801,1.0
3.1666,128.181539,37.932283,6982.648874400001,168.475,-7.993,357.864,1.0
3.1833,128.181536,37.932329,6982.222764,169.592,-8.382,357.926,1.0
3.2,128.181532,37.932375,6981.7862904,170.647,-8.78,357.985,1.0
3.2166,128.181528,37.932421,6981.3391488,171.625,-9.18,358.039,1.0
3.2333,128.181525,37.932467,6980.880120000001,172.518,-9.575,358.087,1.0
3.25,128.181521,37.932512,6980.4085944,173.378,-9.961,358.124,1.0
3.2666,128.181517,37.932558,6979.924572,174.171,-10.336,358.152,1.0
3.2833,128.181513,37.932604,6979.4268336000005,174.868,-10.697,358.174,1.0
3.3,128.18151,37.93265,6978.915074400001,175.466,-11.046,358.191,1.0
3.3166,128.181506,37.932696,6978.3886848,175.958,-11.381,358.204,1.0
3.3333,128.181503,37.932742,6977.847055200001,176.34,-11.704,358.214,1.0
3.35,128.181499,37.932788,6977.290490400001,176.622,-12.0,358.224,1.0
3.3666,128.181495,37.932834,6976.718076,176.812,-12.258,358.237,1.0
3.3833,128.181492,37.93288,6976.129812,176.915,-12.473,358.253,1.0
3.4,128.181488,37.932926,6975.5253936,176.93,-12.646,358.271,1.0
3.4166,128.181485,37.932972,6974.9057352,176.858,-12.78,358.289,1.0
3.4333,128.181481,37.933017,6974.270227200001,176.701,-12.881,358.306,1.0
3.45,128.181478,37.933063,6973.619174400001,176.461,-12.956,358.322,1.0
3.4666,128.181474,37.933109,6972.9528816,176.141,-13.013,358.337,1.0
3.4833,128.181471,37.933155,6972.2716536,175.742,-13.057,358.352,1.0
3.5,128.181467,37.933201,6971.5751856,175.267,-13.091,358.365,1.0
3.5166,128.181464,37.933246,6970.863782400001,174.719,-13.117,358.379,1.0
3.5333,128.18146,37.933292,6970.1377488,174.1,-13.138,358.393,1.0
3.55,128.181457,37.933338,6969.3970848,173.411,-13.154,358.407,1.0
3.5666,128.181453,37.933384,6968.642400000001,172.655,-13.169,358.422,1.0
3.5833,128.18145,37.933429,6967.8736944,171.833,-13.182,358.438,1.0
3.6,128.181447,37.933475,6967.090968,170.948,-13.197,358.454,1.0
3.6166,128.181443,37.933521,6966.2945256,170.001,-13.215,358.472,1.0
3.6333,128.18144,37.933566,6965.4843672,168.994,-13.233,358.492,1.0
3.65,128.181437,37.933612,6964.661102399999,167.929,-13.251,358.512,1.0
3.6666,128.181433,37.933657,6963.8247312,166.807,-13.265,358.533,1.0
3.6833,128.18143,37.933703,6962.9755584,165.63,-13.277,358.553,1.0
3.7,128.181427,37.933749,6962.113584000001,164.4,-13.284,358.574,1.0
3.7166,128.181424,37.933794,6961.2391128,163.117,-13.288,358.596,1.0
3.7333,128.181421,37.93384,6960.3524496,161.783,-13.288,358.617,1.0
3.75,128.181418,37.933885,6959.4538992,160.399,-13.286,358.638,1.0
3.7666,128.181415,37.933931,6958.543156800001,158.967,-13.281,358.659,1.0
3.7833,128.181412,37.933976,6957.6211368,157.487,-13.275,358.681,1.0
3.8,128.181409,37.934022,6956.6878392,155.961,-13.267,358.702,1.0
3.8166,128.181406,37.934068,6955.743264000001,154.39,-13.259,358.725,1.0
3.8333,128.181403,37.934113,6954.787716,152.774,-13.25,358.747,1.0
3.85,128.1814,37.934158,6953.8215,151.115,-13.241,358.771,1.0
3.8666,128.181397,37.934204,6952.8449208,149.414,-13.232,358.795,1.0
3.8833,128.181394,37.934249,6951.858283200001,147.672,-13.223,358.82,1.0
3.9,128.181392,37.934295,6950.861892000001,145.889,-13.216,358.846,1.0
3.9166,128.181389,37.93434,6949.8554424,144.067,-13.209,358.874,1.0
3.9333,128.181387,37.934386,6948.8398488,142.207,-13.203,358.902,1.0
3.95,128.181384,37.934431,6947.814806400001,140.31,-13.199,358.933,1.0
3.9666,128.181382,37.934477,6946.780924800001,138.376,-13.195,358.964,1.0
3.9833,128.181379,37.934522,6945.7385088,136.408,-13.192,358.998,1.0
4.0,128.181377,37.934568,6944.6890824,134.61,-13.188,359.015,1.0
4.0166,128.181375,37.934613,6943.632645600001,132.978,-13.175,359.006,1.0
4.0333,128.181372,37.934658,6942.5695032,131.515,-13.147,358.971,1.0
4.05,128.18137,37.934704,6941.4996552,130.216,-13.109,358.919,1.0
4.0666,128.181368,37.934749,6940.424016,129.076,-13.066,358.856,1.0
4.0833,128.181366,37.934795,6939.3428904,128.088,-13.022,358.79,1.0
4.1,128.181364,37.93484,6938.256583200001,127.243,-12.981,358.721,1.0
4.1166,128.181362,37.934886,6937.1653992,126.53,-12.948,358.649,1.0
4.1333,128.18136,37.934931,6936.069948,125.945,-12.924,358.577,1.0
4.15,128.181358,37.934976,6934.9702296,125.483,-12.907,358.505,1.0
4.1666,128.181356,37.935022,6933.866244,125.144,-12.896,358.435,1.0
4.1833,128.181354,37.935067,6932.758600800001,124.925,-12.89,358.368,1.0
4.2,128.181352,37.935113,6931.6473000000005,124.824,-12.887,358.305,1.0
4.2166,128.18135,37.935158,6930.532646400001,124.836,-12.887,358.245,1.0
4.2333,128.181348,37.935204,6929.4149448,124.958,-12.889,358.189,1.0
4.25,128.181346,37.93525,6928.2941952,125.187,-12.892,358.136,1.0
4.2666,128.181344,37.935295,6927.1707024,125.517,-12.896,358.086,1.0
4.2833,128.181342,37.935341,6926.0447712,125.946,-12.902,358.039,1.0
4.3,128.18134,37.935386,6924.915792000001,126.469,-12.908,357.995,1.0
4.3166,128.181338,37.935432,6923.784374400001,127.083,-12.915,357.953,1.0
4.3333,128.181336,37.935478,6922.6502136,127.784,-12.922,357.912,1.0
4.35,128.181334,37.935523,6921.513614400001,128.568,-12.93,357.874,1.0
4.3666,128.181332,37.935569,6920.3745768,129.434,-12.938,357.837,1.0
4.3833,128.18133,37.935615,6919.232796,130.376,-12.946,357.802,1.0
4.4,128.181328,37.93566,6918.088881600001,131.393,-12.954,357.768,1.0
4.4166,128.181326,37.935706,6916.942224,132.481,-12.962,357.735,1.0
4.4333,128.181323,37.935752,6915.793128,133.636,-12.977,357.711,1.0
4.45,128.181321,37.935798,6914.6412887999995,134.853,-13.012,357.708,1.0
4.4666,128.181319,37.935843,6913.486706400001,136.127,-13.075,357.735,1.0
4.4833,128.181317,37.935889,6912.3287712,137.452,-13.179,357.802,1.0
4.5,128.181315,37.935935,6911.1665688,138.764,-13.331,357.916,1.0
4.5166,128.181313,37.935981,6909.9994896,139.976,-13.536,358.085,1.0
4.5333,128.181311,37.936027,6908.826619200001,141.031,-13.801,358.315,1.0
4.55,128.181309,37.936072,6907.6482624,141.934,-14.125,358.597,1.0
4.5666,128.181307,37.936118,6906.4628952,142.673,-14.499,358.918,1.0
4.5833,128.181305,37.936164,6905.2702128,143.251,-14.915,359.267,1.0
4.6,128.181303,37.93621,6904.069300800001,143.677,-15.358,359.631,1.0
4.6166,128.181301,37.936256,6902.8595496,143.958,-15.815,359.998,1.0
4.6333,128.1813,37.936301,6901.6406544,144.105,-16.268,0.358,1.0
4.65,128.181298,37.936347,6900.411396,144.141,-16.701,0.698,1.0
4.6666,128.181296,37.936393,6899.171469600001,144.073,-17.094,1.016,1.0
4.6833,128.181295,37.936439,6897.9208751999995,143.913,-17.432,1.301,1.0
4.7,128.181293,37.936485,6896.6590032,143.666,-17.7,1.54,1.0
4.7166,128.181292,37.93653,6895.3864632,143.34,-17.886,1.721,1.0
4.7333,128.18129,37.936576,6894.102950400001,142.94,-17.98,1.832,1.0
4.75,128.181289,37.936622,6892.8084648,142.468,-17.987,1.874,1.0
4.7666,128.181288,37.936667,6891.5027016,141.924,-17.921,1.858,1.0
4.7833,128.181287,37.936713,6890.1862704000005,141.309,-17.797,1.793,1.0
4.8,128.181286,37.936759,6888.859476,140.622,-17.631,1.692,1.0
4.8166,128.181285,37.936804,6887.5226232,139.861,-17.438,1.566,1.0
4.8333,128.181284,37.93685,6886.1763216,139.024,-17.234,1.427,1.0
4.85,128.181283,37.936896,6884.8205712,138.111,-17.031,1.287,1.0
4.8666,128.181282,37.936941,6883.4559816,137.118,-16.846,1.159,1.0
4.8833,128.181281,37.936987,6882.0825528,136.048,-16.683,1.048,1.0
4.9,128.181281,37.937032,6880.7008944,134.901,-16.541,0.953,1.0
4.9166,128.18128,37.937078,6879.311311200001,133.683,-16.417,0.871,1.0
4.9333,128.18128,37.937124,6877.914108,132.395,-16.308,0.8,1.0
4.95,128.181279,37.937169,6876.5095896,131.042,-16.211,0.736,1.0
4.9666,128.181279,37.937215,6875.098060800001,129.626,-16.124,0.679,1.0
4.9833,128.181278,37.93726,6873.6798264,128.151,-16.047,0.629,1.0
5.0,128.181278,37.937306,6872.2548864,126.62,-15.977,0.583,1.0
5.0166,128.181278,37.937351,6870.8235456,125.036,-15.914,0.542,1.0
5.0333,128.181278,37.937397,6869.3864136,123.4,-15.857,0.504,1.0
5.05,128.181277,37.937442,6867.9431856,121.717,-15.806,0.471,1.0
5.0666,128.181277,37.937488,6866.4941664,119.989,-15.761,0.441,1.0
5.0833,128.181277,37.937533,6865.039965600001,118.218,-15.719,0.415,1.0
5.1,128.181277,37.937579,6863.580278400001,116.406,-15.682,0.391,1.0
5.1166,128.181277,37.937625,6862.1154096,114.557,-15.649,0.37,1.0
5.1333,128.181277,37.93767,6860.6459688,112.671,-15.619,0.352,1.0
5.15,128.181278,37.937716,6859.1716512,110.753,-15.592,0.336,1.0
5.1666,128.181278,37.937761,6857.6930664,108.802,-15.567,0.322,1.0
5.1833,128.181278,37.937807,6856.210519200001,106.871,-15.548,0.308,1.0
5.2,128.181279,37.937852,6854.7240096000005,104.976,-15.534,0.295,1.0
5.2166,128.181279,37.937898,6853.233842400001,103.128,-15.525,0.282,1.0
5.2333,128.181279,37.937943,6851.7403224,101.336,-15.52,0.27,1.0
5.25,128.18128,37.937989,6850.2434496000005,99.605,-15.517,0.258,1.0
5.2666,128.18128,37.938034,6848.743528800001,97.942,-15.517,0.246,1.0
5.2833,128.181281,37.93808,6847.2402552,96.348,-15.518,0.235,1.0
5.3,128.181281,37.938126,6845.7339336000005,94.828,-15.52,0.225,1.0
5.3166,128.181282,37.938171,6844.224564,93.383,-15.524,0.215,1.0
5.3333,128.181282,37.938217,6842.7121464,92.014,-15.529,0.206,1.0
5.35,128.181283,37.938262,6841.1969856000005,90.721,-15.535,0.196,1.0
5.3666,128.181283,37.938308,6839.6790816,89.504,-15.541,0.188,1.0
5.3833,128.181284,37.938354,6838.1581295999995,88.364,-15.548,0.179,1.0
5.4,128.181284,37.938399,6836.6344344,87.301,-15.556,0.171,1.0
5.4166,128.181285,37.938445,6835.107996000001,86.315,-15.564,0.162,1.0
5.4333,128.181286,37.938491,6833.578509600001,85.405,-15.573,0.154,1.0
5.45,128.181286,37.938536,6832.0465848,84.572,-15.583,0.146,1.0
5.4666,128.181287,37.938582,6830.5119168,83.816,-15.593,0.138,1.0
5.4833,128.181287,37.938628,6828.9745056,83.222,-15.609,0.131,1.0
5.5,128.181288,37.938674,6827.4343512000005,82.784,-15.63,0.124,1.0
5.5166,128.181289,37.938719,6825.8914536,82.5,-15.655,0.117,1.0
5.5333,128.181289,37.938765,6824.3452032000005,82.367,-15.68,0.11,1.0
5.55,128.18129,37.938811,6822.7962096,82.381,-15.706,0.103,1.0
5.5666,128.181291,37.938857,6821.2438632,82.535,-15.732,0.096,1.0
5.5833,128.181291,37.938903,6819.688773600001,82.824,-15.758,0.088,1.0
5.6,128.181292,37.938948,6818.1303312,83.241,-15.785,0.081,1.0
5.6166,128.181292,37.938994,6816.5688408000005,83.781,-15.814,0.073,1.0
5.6333,128.181293,37.93904,6815.004912,84.361,-15.845,0.066,1.0
5.65,128.181293,37.939086,6813.4379352,84.985,-15.878,0.059,1.0
5.6666,128.181294,37.939132,6811.868520000001,85.669,-15.915,0.053,1.0
5.6833,128.181294,37.939178,6810.2963616,86.43,-15.957,0.047,1.0
5.7,128.181295,37.939224,6808.721155200001,87.282,-16.004,0.041,1.0
5.7166,128.181295,37.93927,6807.1432056,88.236,-16.054,0.035,1.0
5.7333,128.181296,37.939316,6805.562208,89.29,-16.105,0.029,1.0
5.75,128.181296,37.939362,6803.9781624,90.443,-16.156,0.023,1.0
5.7666,128.181297,37.939408,6802.3910688000005,91.69,-16.207,0.016,1.0
5.7833,128.181297,37.939454,6800.801536800001,93.029,-16.255,0.009,1.0
5.8,128.181297,37.9395,6799.208956800001,94.455,-16.303,0.001,1.0
5.8166,128.181298,37.939546,6797.613633600001,95.965,-16.35,359.993,1.0
5.8333,128.181298,37.939592,6796.0152624,97.554,-16.395,359.984,1.0
5.85,128.181298,37.939638,6794.4144528,99.22,-16.44,359.975,1.0
5.8666,128.181299,37.939685,6792.8112048,100.957,-16.483,359.965,1.0
5.8833,128.181299,37.939731,6791.2052136,102.764,-16.526,359.954,1.0
5.9,128.181299,37.939777,6789.5964792,104.638,-16.567,359.943,1.0
5.9166,128.181299,37.939823,6787.985306400001,106.574,-16.608,359.931,1.0
5.9333,128.1813,37.939869,6786.372,108.57,-16.647,359.919,1.0
5.95,128.1813,37.939916,6784.7559504,110.624,-16.685,359.906,1.0
5.9666,128.1813,37.939962,6783.1377672,112.732,-16.723,359.892,1.0
5.9833,128.1813,37.940008,6781.517145600001,114.888,-16.764,359.89,1.0
6.0,128.1813,37.940054,6779.8943904,117.087,-16.817,359.913,1.0
6.0166,128.181301,37.940101,6778.269196800001,119.324,-16.886,359.968,1.0
6.0333,128.181301,37.940147,6776.64126,121.594,-16.976,0.058,1.0
6.05,128.181301,37.940193,6775.0108848,123.895,-17.089,0.183,1.0
6.0666,128.181301,37.94024,6773.3777664,126.225,-17.226,0.338,1.0
6.0833,128.181301,37.940286,6771.7412952,128.554,-17.385,0.519,1.0
6.1,128.181301,37.940333,6770.1008616,130.86,-17.566,0.722,1.0
6.1166,128.181301,37.940379,6768.456465600001,133.118,-17.767,0.943,1.0
6.1333,128.181302,37.940425,6766.807192800001,135.312,-17.989,1.178,1.0
6.15,128.181302,37.940472,6765.152738400001,137.433,-18.23,1.42,1.0
6.1666,128.181302,37.940518,6763.492492800001,139.472,-18.486,1.664,1.0
6.1833,128.181303,37.940565,6761.8255416,141.424,-18.759,1.907,1.0
6.2,128.181303,37.940611,6760.1512752,143.283,-19.046,2.147,1.0
6.2166,128.181303,37.940657,6758.4693888,145.043,-19.348,2.384,1.0
6.2333,128.181304,37.940704,6756.778663200001,146.696,-19.667,2.618,1.0
6.25,128.181304,37.94075,6755.0784888,148.24,-20.001,2.849,1.0
6.2666,128.181305,37.940797,6753.367951200001,149.666,-20.353,3.078,1.0
6.2833,128.181306,37.940843,6751.6467456,150.976,-20.72,3.305,1.0
6.3,128.181306,37.940889,6749.9136528,152.164,-21.102,3.528,1.0
6.3166,128.181307,37.940936,6748.1686728,153.231,-21.492,3.744,1.0
6.3333,128.181308,37.940982,6746.411500800001,154.183,-21.88,3.948,1.0
6.35,128.181309,37.941028,6744.6412224000005,155.021,-22.262,4.139,1.0
6.3666,128.18131,37.941074,6742.859056800001,155.833,-22.637,4.31,1.0
6.3833,128.181311,37.94112,6741.0640896,156.606,-23.003,4.462,1.0
6.4,128.181312,37.941167,6739.2563208,157.317,-23.358,4.601,1.0
6.4166,128.181313,37.941213,6737.4342264,157.955,-23.7,4.729,1.0
6.4333,128.181315,37.941259,6735.597806400001,158.512,-24.03,4.849,1.0
6.45,128.181316,37.941305,6733.7467560000005,158.986,-24.35,4.96,1.0
6.4666,128.181317,37.941351,6731.8816848,159.383,-24.658,5.064,1.0
6.4833,128.181319,37.941397,6730.001983200001,159.714,-24.958,5.159,1.0
6.5,128.18132,37.941443,6728.107651200001,159.988,-25.249,5.247,1.0
6.5166,128.181322,37.941488,6726.198384000001,160.209,-25.531,5.328,1.0
6.5333,128.181323,37.941534,6724.2738768,160.376,-25.805,5.406,1.0
6.55,128.181325,37.94158,6722.333824800001,160.484,-26.071,5.481,1.0
6.5666,128.181327,37.941626,6720.377618400001,160.526,-26.329,5.561,1.0
6.5833,128.181328,37.941671,6718.404648,160.475,-26.576,5.648,1.0
6.6,128.18133,37.941717,6716.4170472000005,160.386,-26.816,5.739,1.0
6.6166,128.181332,37.941763,6714.413596800001,160.248,-27.049,5.832,1.0
6.6333,128.181334,37.941808,6712.3933824000005,160.047,-27.276,5.927,1.0
6.65,128.181336,37.941854,6710.3567088,159.764,-27.497,6.025,1.0
6.6666,128.181338,37.941899,6708.3032712,159.394,-27.702,6.12,1.0
6.6833,128.18134,37.941944,6706.233374400001,158.939,-27.881,6.208,1.0
6.7,128.181342,37.94199,6704.147323200001,158.404,-28.028,6.285,1.0
6.7166,128.181344,37.942035,6702.0448128,157.793,-28.14,6.347,1.0
6.7333,128.181347,37.94208,6699.9267576,157.109,-28.216,6.396,1.0
6.75,128.181349,37.942125,6697.7931576,156.355,-28.256,6.429,1.0
6.7666,128.181351,37.94217,6695.6443176,155.533,-28.262,6.447,1.0
6.7833,128.181354,37.942215,6693.480542400001,154.646,-28.237,6.45,1.0
6.8,128.181357,37.94226,6691.302136800001,153.694,-28.181,6.438,1.0
6.8166,128.181359,37.942305,6689.110015200001,152.68,-28.098,6.412,1.0
6.8333,128.181362,37.94235,6686.9041776,151.605,-27.99,6.371,1.0
6.85,128.181365,37.942395,6684.685233600001,150.468,-27.859,6.316,1.0
6.8666,128.181367,37.942439,6682.453792800001,149.272,-27.708,6.248,1.0
6.8833,128.18137,37.942484,6680.2104648,148.018,-27.538,6.165,1.0
6.9,128.181373,37.942529,6677.955249600001,146.703,-27.358,6.072,1.0
6.9166,128.181376,37.942573,6675.6908904,145.548,-27.191,5.953,1.0
6.9333,128.181379,37.942618,6673.4164728000005,144.543,-27.042,5.812,1.0
6.95,128.181383,37.942663,6671.1326064,143.691,-26.911,5.661,1.0
6.9666,128.181386,37.942707,6668.839900800001,142.994,-26.795,5.51,1.0
6.9833,128.181389,37.942752,6666.5392704000005,142.452,-26.692,5.363,1.0
7.0,128.181392,37.942796,6664.2307152,142.06,-26.6,5.222,1.0
7.0166,128.181396,37.942841,6661.9151496,141.814,-26.519,5.089,1.0
7.0333,128.181399,37.942885,6659.592573600001,141.71,-26.446,4.964,1.0
7.05,128.181403,37.94293,6657.2639016,141.741,-26.382,4.846,1.0
7.0666,128.181406,37.942974,6654.929133600001,141.904,-26.325,4.736,1.0
7.0833,128.18141,37.943019,6652.5888792000005,142.192,-26.274,4.633,1.0
7.1,128.181413,37.943063,6650.243138400001,142.602,-26.229,4.536,1.0
7.1166,128.181417,37.943108,6647.8928256,143.128,-26.189,4.445,1.0
7.1333,128.18142,37.943152,6645.5379408,143.766,-26.154,4.359,1.0
7.15,128.181424,37.943197,6643.1790936,144.511,-26.122,4.279,1.0
7.1666,128.181427,37.943241,6640.816588799999,145.36,-26.093,4.202,1.0
7.1833,128.181431,37.943286,6638.4504264,146.307,-26.067,4.13,1.0
7.2,128.181434,37.94333,6636.081216,147.35,-26.044,4.062,1.0
7.2166,128.181438,37.943375,6633.708348,148.484,-26.022,3.997,1.0
7.2333,128.181441,37.94342,6631.332432,149.705,-26.002,3.935,1.0
7.25,128.181445,37.943464,6628.953468000001,151.01,-25.984,3.876,1.0
7.2666,128.181448,37.943509,6626.571456000001,152.395,-25.967,3.82,1.0
7.2833,128.181452,37.943554,6624.186396,153.857,-25.951,3.766,1.0
7.3,128.181455,37.943598,6621.798592800001,155.392,-25.936,3.715,1.0
7.3166,128.181459,37.943643,6619.407741600001,156.997,-25.922,3.666,1.0
7.3333,128.181462,37.943688,6617.014452000001,158.669,-25.908,3.619,1.0
7.35,128.181466,37.943732,6614.6181144,160.405,-25.894,3.573,1.0
7.3666,128.181469,37.943777,6612.219338400001,162.202,-25.881,3.53,1.0
7.3833,128.181473,37.943822,6609.8178192000005,164.057,-25.868,3.488,1.0
7.4,128.181476,37.943867,6607.4138616,165.968,-25.856,3.448,1.0
7.4166,128.18148,37.943912,6605.007160800001,167.931,-25.843,3.409,1.0
7.4333,128.181483,37.943956,6602.5983264,169.944,-25.831,3.372,1.0
7.45,128.181487,37.944001,6600.1867488,172.005,-25.818,3.336,1.0
7.4666,128.18149,37.944046,6597.773037600001,174.112,-25.805,3.301,1.0
7.4833,128.181494,37.944091,6595.355973600001,176.25,-25.792,3.269,1.0
7.5,128.181497,37.944136,6592.9358616,178.402,-25.779,3.24,1.0
7.5166,128.181501,37.944181,6590.512396800001,-179.446,-25.765,3.214,1.0
7.5333,128.181505,37.944226,6588.085579200001,-177.304,-25.752,3.193,1.0
7.55,128.181508,37.944271,6585.6554088,-175.173,-25.739,3.173,1.0
7.5666,128.181512,37.944316,6583.2215808,-173.057,-25.727,3.155,1.0
7.5833,128.181515,37.944361,6580.785314400001,-170.951,-25.714,3.137,1.0
7.6,128.181519,37.944406,6578.345695200001,-168.853,-25.701,3.12,1.0
7.6166,128.181522,37.944451,6575.9033328000005,-166.755,-25.688,3.102,1.0
7.6333,128.181526,37.944496,6573.458532000001,-164.649,-25.674,3.084,1.0
7.65,128.181529,37.944541,6571.010988000001,-162.529,-25.661,3.065,1.0
7.6666,128.181533,37.944586,6568.5613104,-160.387,-25.646,3.046,1.0
7.6833,128.181536,37.944631,6566.1094992,-158.218,-25.631,3.027,1.0
7.7,128.18154,37.944676,6563.6558592,-156.016,-25.616,3.008,1.0
7.7166,128.181544,37.944721,6561.1997808,-153.779,-25.599,2.989,1.0
7.7333,128.181547,37.944766,6558.7415688,-151.509,-25.581,2.971,1.0
7.75,128.181551,37.944812,6556.280918400001,-149.209,-25.563,2.955,1.0
7.7666,128.181554,37.944857,6553.8181343999995,-146.88,-25.545,2.941,1.0
7.7833,128.181558,37.944902,6551.352912,-144.524,-25.525,2.929,1.0
7.8,128.181562,37.944947,6548.8852512,-142.143,-25.505,2.918,1.0
7.8166,128.181565,37.944993,6546.415456800001,-139.739,-25.484,2.91,1.0
7.8333,128.181569,37.945038,6543.942919200001,-137.313,-25.463,2.904,1.0
7.85,128.181573,37.945083,6541.467943199999,-134.868,-25.441,2.9,1.0
7.8666,128.181576,37.945129,6538.990224000001,-132.404,-25.418,2.899,1.0
7.8833,128.18158,37.945174,6536.5097616,-129.918,-25.404,2.887,1.0
7.9,128.181584,37.945219,6534.026556000001,-127.404,-25.41,2.852,1.0
7.9166,128.181587,37.945265,6531.539692800001,-124.86,-25.439,2.78,1.0
7.9333,128.181591,37.94531,6529.049781600001,-122.284,-25.492,2.667,1.0
7.95,128.181595,37.945355,6526.5556032,-119.689,-25.568,2.51,1.0
7.9666,128.181598,37.945401,6524.0577672,-117.117,-25.668,2.305,1.0
7.9833,128.181602,37.945446,6521.555054400001,-114.607,-25.788,2.052,1.0
8.0,128.181605,37.945492,6519.048074400001,-112.196,-25.925,1.752,1.0
8.0166,128.181609,37.945537,6516.5359128,-109.916,-26.074,1.407,1.0
8.0333,128.181612,37.945583,6514.018874400001,-107.796,-26.229,1.018,1.0
8.05,128.181616,37.945628,6511.4963496,-105.857,-26.387,0.585,1.0
8.0666,128.181619,37.945673,6508.9686432,-104.112,-26.543,0.111,1.0
8.0833,128.181622,37.945719,6506.4354504,-102.569,-26.692,359.609,1.0
8.1,128.181625,37.945764,6503.897076,-101.233,-26.828,359.1,1.0
8.1166,128.181628,37.94581,6501.352910400001,-100.004,-26.941,358.598,1.0
8.1333,128.181631,37.945855,6498.8035632,-98.903,-27.032,358.113,1.0
8.15,128.181634,37.945901,6496.2496439999995,-97.943,-27.109,357.65,1.0
8.1666,128.181636,37.945946,6493.690543199999,-97.125,-27.175,357.209,1.0
8.1833,128.181638,37.945991,6491.1265656000005,-96.442,-27.233,356.789,1.0
8.2,128.181641,37.946037,6488.5583208,-95.878,-27.283,356.39,1.0
8.2166,128.181643,37.946082,6485.9851992,-95.415,-27.325,356.009,1.0
8.2333,128.181644,37.946128,6483.4075056,-95.036,-27.359,355.644,1.0
8.25,128.181646,37.946173,6480.8255448,-94.726,-27.387,355.294,1.0
8.2666,128.181648,37.946218,6478.2393168,-94.476,-27.409,354.958,1.0
8.2833,128.181649,37.946264,6475.6488216,-94.278,-27.43,354.635,1.0
8.3,128.18165,37.946309,6473.0543640000005,-94.128,-27.45,354.323,1.0
8.3166,128.181651,37.946354,6470.4556391999995,-94.024,-27.471,354.022,1.0
8.3333,128.181652,37.9464,6467.853256800001,-93.962,-27.493,353.731,1.0
8.35,128.181652,37.946445,6465.246912,-93.936,-27.522,353.449,1.0
8.3666,128.181653,37.94649,6462.6366048,-93.946,-27.558,353.176,1.0
8.3833,128.181653,37.946536,6460.0223352,-93.994,-27.598,352.91,1.0
8.4,128.181653,37.946581,6457.4041032,-94.084,-27.641,352.651,1.0
8.4166,128.181653,37.946626,6454.781604,-94.215,-27.686,352.397,1.0
8.4333,128.181653,37.946672,6452.154837600001,-94.387,-27.733,352.149,1.0
8.45,128.181652,37.946717,6449.5241088,-94.596,-27.78,351.906,1.0
8.4666,128.181652,37.946762,6446.8891128000005,-94.84,-27.828,351.667,1.0
8.4833,128.181651,37.946807,6444.2495448,-95.113,-27.878,351.432,1.0
8.5,128.18165,37.946853,6441.6057096,-95.413,-27.928,351.2,1.0
8.5166,128.181649,37.946898,6438.9573024,-95.736,-27.978,350.971,1.0
8.5333,128.181647,37.946943,6436.304628000001,-96.078,-28.03,350.746,1.0
8.55,128.181646,37.946988,6433.6470768,-96.435,-28.083,350.523,1.0
8.5666,128.181644,37.947033,6430.9849536,-96.805,-28.136,350.302,1.0
8.5833,128.181642,37.947078,6428.318258400001,-97.183,-28.19,350.084,1.0
8.6,128.18164,37.947123,6425.6466864,-97.567,-28.246,349.868,1.0
8.6166,128.181638,37.947169,6422.969932800001,-97.954,-28.303,349.654,1.0
8.6333,128.181635,37.947214,6420.2886072,-98.342,-28.361,349.442,1.0
8.65,128.181632,37.947259,6417.6021,-98.728,-28.421,349.231,1.0
8.6666,128.18163,37.947304,6414.910106400001,-99.122,-28.483,349.023,1.0
8.6833,128.181626,37.947349,6412.2132360000005,-99.528,-28.548,348.815,1.0
8.7,128.181623,37.947394,6409.510879200001,-99.956,-28.615,348.61,1.0
8.7166,128.18162,37.947439,6406.803036,-100.409,-28.687,348.405,1.0
8.7333,128.181616,37.947483,6404.089401600001,-100.894,-28.761,348.202,1.0
8.75,128.181612,37.947528,6401.3702808,-101.413,-28.838,348.0,1.0
8.7666,128.181608,37.947573,6398.645064,-101.966,-28.918,347.799,1.0
8.7833,128.181604,37.947618,6395.913751200001,-102.557,-29.001,347.599,1.0
8.8,128.1816,37.947663,6393.176647200001,-103.185,-29.087,347.398,1.0
8.8166,128.181595,37.947707,6390.4328376,-103.847,-29.175,347.199,1.0
8.8333,128.181591,37.947752,6387.682627200001,-104.542,-29.266,346.999,1.0
8.85,128.181586,37.947797,6384.926015999999,-105.268,-29.36,346.8,1.0
8.8666,128.18158,37.947841,6382.1626992,-106.021,-29.456,346.601,1.0
8.8833,128.181575,37.947886,6379.392372,-106.795,-29.555,346.403,1.0
8.9,128.18157,37.94793,6376.6150344,-107.585,-29.657,346.204,1.0
8.9166,128.181564,37.947975,6373.830686400001,-108.385,-29.762,346.006,1.0
8.9333,128.181558,37.948019,6371.039023200001,-109.188,-29.869,345.809,1.0
8.95,128.181552,37.948063,6368.2400448,-109.989,-29.978,345.611,1.0
8.9666,128.181546,37.948108,6365.4337512,-110.783,-30.09,345.415,1.0
8.9833,128.18154,37.948152,6362.6198376,-111.565,-30.205,345.219,1.0
9.0,128.181533,37.948196,6359.7979992,-112.33,-30.323,345.024,1.0
9.0166,128.181527,37.948241,6356.9685408000005,-113.074,-30.443,344.83,1.0
9.0333,128.18152,37.948285,6354.1308528,-113.795,-30.566,344.637,1.0
9.05,128.181513,37.948329,6351.2855448,-114.489,-30.692,344.445,1.0
9.0666,128.181506,37.948373,6348.4317024,-115.155,-30.82,344.255,1.0
9.0833,128.181499,37.948417,6345.5699352,-115.794,-30.95,344.066,1.0
9.1,128.181491,37.948461,6342.699633600001,-116.405,-31.083,343.878,1.0
9.1166,128.181484,37.948505,6339.820797600001,-116.99,-31.219,343.692,1.0
9.1333,128.181476,37.948549,6336.933427200001,-117.548,-31.357,343.508,1.0
9.15,128.181468,37.948592,6334.0372176,-118.083,-31.497,343.326,1.0
9.1666,128.18146,37.948636,6331.132168800001,-118.593,-31.639,343.145,1.0
9.1833,128.181452,37.94868,6328.2182808,-119.082,-31.783,342.967,1.0
9.2,128.181444,37.948723,6325.2952488,-119.549,-31.928,342.789,1.0
9.2166,128.181435,37.948767,6322.363072800001,-119.998,-32.075,342.614,1.0
9.2333,128.181427,37.94881,6319.4217528,-120.428,-32.224,342.44,1.0
9.25,128.181418,37.948854,6316.4712887999995,-120.842,-32.374,342.268,1.0
9.2666,128.181409,37.948897,6313.5110712,-121.24,-32.525,342.097,1.0
9.2833,128.1814,37.948941,6310.5417096,-121.624,-32.678,341.928,1.0
9.3,128.181391,37.948984,6307.5625944,-121.995,-32.831,341.76,1.0
9.3166,128.181382,37.949027,6304.5737256,-122.354,-32.986,341.594,1.0
9.3333,128.181372,37.94907,6301.5751032,-122.701,-33.141,341.429,1.0
9.35,128.181363,37.949113,6298.5667272,-123.037,-33.298,341.265,1.0
9.3666,128.181353,37.949156,6295.548597600001,-123.364,-33.455,341.102,1.0
9.3833,128.181343,37.949199,6292.520104800001,-123.681,-33.612,340.941,1.0
9.4,128.181333,37.949242,6289.4821632,-123.99,-33.771,340.781,1.0
9.4166,128.181323,37.949285,6286.4338584,-124.29,-33.93,340.621,1.0
9.4333,128.181313,37.949328,6283.3751904,-124.582,-34.089,340.463,1.0
9.45,128.181302,37.949371,6280.306464,-124.867,-34.249,340.306,1.0
9.4666,128.181292,37.949413,6277.227679200001,-125.146,-34.41,340.15,1.0
9.4833,128.181281,37.949456,6274.1385312,-125.418,-34.571,339.995,1.0
9.5,128.18127,37.949498,6271.0387152,-125.684,-34.732,339.84,1.0
9.5166,128.18126,37.949541,6267.928536,-125.947,-34.894,339.687,1.0
9.5333,128.181248,37.949583,6264.8079935999995,-126.205,-35.057,339.534,1.0
9.55,128.181237,37.949625,6261.6767832000005,-126.461,-35.219,339.382,1.0
9.5666,128.181226,37.949668,6258.534904800001,-126.714,-35.383,339.231,1.0
9.5833,128.181215,37.94971,6255.3826632,-126.966,-35.546,339.081,1.0
9.6,128.181203,37.949752,6252.2194488000005,-127.215,-35.71,338.931,1.0
9.6166,128.181191,37.949794,6249.0452616,-127.463,-35.874,338.782,1.0
9.6333,128.18118,37.949836,6245.860406400001,-127.709,-36.038,338.633,1.0
9.65,128.181168,37.949877,6242.664883200001,-127.954,-36.203,338.485,1.0
9.6666,128.181156,37.949919,6239.4583872,-128.196,-36.368,338.337,1.0
9.6833,128.181143,37.949961,6236.240918400001,-128.436,-36.533,338.19,1.0
9.7,128.181131,37.950002,6233.0124768000005,-128.674,-36.699,338.043,1.0
9.7166,128.181119,37.950044,6229.7727576,-128.908,-36.864,337.897,1.0
9.7333,128.181106,37.950085,6226.522370400001,-129.138,-37.03,337.75,1.0
9.75,128.181094,37.950127,6223.2610104000005,-129.365,-37.196,337.605,1.0
9.7666,128.181081,37.950168,6219.9883728,-129.587,-37.362,337.459,1.0
9.7833,128.181068,37.950209,6216.7044576,-129.806,-37.529,337.314,1.0
9.8,128.181055,37.95025,6213.4095696,-130.019,-37.695,337.17,1.0
9.8166,128.181042,37.950291,6210.103404,-130.229,-37.862,337.025,1.0
9.8333,128.181028,37.950332,6206.785960800001,-130.434,-38.029,336.881,1.0
9.85,128.181015,37.950373,6203.45724,-130.634,-38.195,336.738,1.0
9.8666,128.181002,37.950414,6200.117241600001,-130.83,-38.363,336.595,1.0
9.8833,128.180988,37.950454,6196.7659656000005,-131.022,-38.53,336.452,1.0
9.9,128.180974,37.950495,6193.4031072,-131.208,-38.697,336.309,1.0
9.9166,128.180961,37.950535,6190.029276,-131.391,-38.864,336.166,1.0
9.9333,128.180947,37.950576,6186.6435576,-131.569,-39.032,336.024,1.0
9.95,128.180933,37.950616,6183.2468664,-131.742,-39.199,335.882,1.0
9.9666,128.180919,37.950656,6179.838288000001,-131.911,-39.366,335.74,1.0
9.9833,128.180904,37.950696,6176.418432,-132.075,-39.534,335.599,1.0
10.0,128.18089,37.950736,6172.9869936,-132.234,-39.701,335.457,1.0
10.0166,128.180875,37.950776,6169.5442776,-132.388,-39.868,335.316,1.0
10.0333,128.180861,37.950816,6166.089674400001,-132.536,-40.035,335.174,1.0
10.05,128.180846,37.950856,6162.6237936,-132.678,-40.202,335.033,1.0
10.0666,128.180831,37.950895,6159.1463304,-132.815,-40.369,334.891,1.0
10.0833,128.180817,37.950935,6155.65698,-132.945,-40.536,334.75,1.0
10.1,128.180802,37.950974,6152.156352000001,-133.069,-40.702,334.608,1.0
10.1166,128.180787,37.951014,6148.644141600001,-133.186,-40.869,334.467,1.0
10.1333,128.180771,37.951053,6145.120044,-133.295,-41.035,334.325,1.0
10.15,128.180756,37.951092,6141.584364,-133.398,-41.2,334.183,1.0
10.1666,128.180741,37.951131,6138.037101600001,-133.492,-41.366,334.041,1.0
10.1833,128.180725,37.95117,6134.478256800001,-133.578,-41.531,333.898,1.0
10.2,128.18071,37.951209,6130.9078296,-133.656,-41.695,333.755,1.0
10.2166,128.180694,37.951248,6127.325515200001,-133.622,-41.846,333.595,1.0
10.2333,128.180678,37.951287,6123.7319232,-133.479,-41.984,333.419,1.0
10.25,128.180662,37.951326,6120.127968000001,-133.234,-42.114,333.233,1.0
10.2666,128.180647,37.951364,6116.513344800001,-132.902,-42.241,333.046,1.0
10.2833,128.180631,37.951403,6112.8880536,-132.502,-42.369,332.861,1.0
10.3,128.180614,37.951441,6109.2517896,-132.056,-42.498,332.681,1.0
10.3166,128.180598,37.951479,6105.604248,-131.584,-42.629,332.505,1.0
10.3333,128.180582,37.951517,6101.9457336000005,-131.104,-42.76,332.332,1.0
10.35,128.180566,37.951555,6098.2756368,-130.631,-42.89,332.161,1.0
10.3666,128.180549,37.951593,6094.5939576,-130.177,-43.02,331.992,1.0
10.3833,128.180532,37.951631,6090.900696000001,-129.748,-43.148,331.823,1.0
10.4,128.180516,37.951669,6087.195852000001,-129.35,-43.275,331.654,1.0
10.4166,128.180499,37.951707,6083.4797304,-128.986,-43.401,331.484,1.0
10.4333,128.180482,37.951744,6079.7520264,-128.656,-43.525,331.312,1.0
10.45,128.180465,37.951782,6076.0130448,-128.36,-43.649,331.139,1.0
10.4666,128.180448,37.951819,6072.2627856,-128.096,-43.771,330.964,1.0
10.4833,128.18043,37.951856,6068.5012488,-127.861,-43.893,330.787,1.0
10.5,128.180413,37.951893,6064.7284344,-127.653,-44.014,330.607,1.0
10.5166,128.180396,37.95193,6060.944952000001,-127.47,-44.135,330.426,1.0
10.5333,128.180378,37.951967,6057.150192000001,-127.306,-44.255,330.242,1.0
10.55,128.18036,37.952004,6053.3444592000005,-127.161,-44.374,330.056,1.0
10.5666,128.180342,37.95204,6049.5277536,-127.029,-44.494,329.869,1.0
10.5833,128.180324,37.952077,6045.7006848,-126.909,-44.614,329.68,1.0
10.6,128.180306,37.952113,6041.862338400001,-126.798,-44.734,329.49,1.0
10.6166,128.180288,37.95215,6038.0136288,-126.694,-44.854,329.299,1.0
10.6333,128.18027,37.952186,6034.1542512000005,-126.595,-44.974,329.107,1.0
10.65,128.180252,37.952222,6030.284205600001,-126.501,-45.095,328.914,1.0
10.6666,128.180233,37.952258,6026.4031872000005,-126.411,-45.216,328.721,1.0
10.6833,128.180215,37.952294,6022.512110400001,-126.325,-45.339,328.529,1.0
10.7,128.180196,37.95233,6018.6103656000005,-126.241,-45.466,328.339,1.0
10.7166,128.180177,37.952365,6014.6979528,-126.158,-45.598,328.153,1.0
10.7333,128.180158,37.952401,6010.7751768,-126.082,-45.732,327.97,1.0
10.75,128.180139,37.952436,6006.8417328000005,-126.014,-45.869,327.787,1.0
10.7666,128.18012,37.952471,6002.8976207999995,-125.958,-46.006,327.604,1.0
10.7833,128.180101,37.952507,5998.9431456,-125.913,-46.143,327.42,1.0
10.8,128.180082,37.952542,5994.9780024,-125.878,-46.28,327.234,1.0
10.8166,128.180062,37.952577,5991.0021912,-125.851,-46.417,327.048,1.0
10.8333,128.180043,37.952611,5987.0160168,-125.831,-46.554,326.86,1.0
10.85,128.180023,37.952646,5983.019479200001,-125.815,-46.69,326.671,1.0
10.8666,128.180004,37.952681,5979.0125784,-125.803,-46.826,326.48,1.0
10.8833,128.179984,37.952715,5974.9953144,-125.793,-46.963,326.289,1.0
10.9,128.179964,37.95275,5970.9673824,-125.782,-47.099,326.097,1.0
10.9166,128.179944,37.952784,5966.929392000001,-125.77,-47.235,325.903,1.0
10.9333,128.179924,37.952818,5962.880733600001,-125.755,-47.371,325.709,1.0
10.95,128.179904,37.952852,5958.8220168,-125.736,-47.507,325.513,1.0
10.9666,128.179883,37.952886,5954.7529368000005,-125.713,-47.642,325.317,1.0
10.9833,128.179863,37.95292,5950.6737984,-125.684,-47.777,325.119,1.0
11.0,128.179843,37.952953,5946.584296800001,-125.648,-47.912,324.921,1.0
11.0166,128.179822,37.952987,5942.484432,-125.605,-48.046,324.721,1.0
11.0333,128.179801,37.95302,5938.374204,-125.555,-48.18,324.521,1.0
11.05,128.179781,37.953054,5934.2542224,-125.498,-48.313,324.319,1.0
11.0666,128.17976,37.953087,5930.1235728,-125.433,-48.446,324.117,1.0
11.0833,128.179739,37.95312,5925.983169600001,-125.362,-48.578,323.913,1.0
11.1,128.179718,37.953153,5921.8324032,-125.283,-48.71,323.708,1.0
11.1166,128.179697,37.953186,5917.671578400001,-125.199,-48.841,323.503,1.0
11.1333,128.179675,37.953218,5913.5003904000005,-125.109,-48.971,323.296,1.0
11.15,128.179654,37.953251,5909.319144,-125.014,-49.102,323.088,1.0
11.1666,128.179633,37.953283,5905.1278391999995,-124.915,-49.231,322.879,1.0
11.1833,128.179611,37.953315,5900.926476,-124.812,-49.36,322.669,1.0
11.2,128.17959,37.953348,5896.715054400001,-124.705,-49.487,322.457,1.0
11.2166,128.179568,37.95338,5892.4935744,-124.597,-49.612,322.241,1.0
11.2333,128.179546,37.953412,5888.2617312,-124.485,-49.731,322.019,1.0
11.25,128.179524,37.953443,5884.0201344,-124.369,-49.845,321.791,1.0
11.2666,128.179503,37.953475,5879.768784000001,-124.246,-49.956,321.56,1.0
11.2833,128.179481,37.953507,5875.5073752,-124.114,-50.066,321.327,1.0
11.3,128.179458,37.953538,5871.235908,-123.972,-50.176,321.093,1.0
11.3166,128.179436,37.953569,5866.954992000001,-123.823,-50.286,320.859,1.0
11.3333,128.179414,37.953601,5862.6640176,-123.667,-50.396,320.625,1.0
11.35,128.179392,37.953632,5858.3632896,-123.506,-50.506,320.39,1.0
11.3666,128.179369,37.953663,5854.052808,-123.336,-50.615,320.154,1.0
11.3833,128.179347,37.953693,5849.7328776,-123.157,-50.723,319.916,1.0
11.4,128.179324,37.953724,5845.4031936,-122.969,-50.829,319.676,1.0
11.4166,128.179301,37.953755,5841.0637560000005,-122.773,-50.935,319.435,1.0
11.4333,128.179279,37.953785,5836.7148696,-122.569,-51.04,319.193,1.0
11.45,128.179256,37.953815,5832.3565344,-122.357,-51.145,318.95,1.0
11.4666,128.179233,37.953845,5827.9884456,-122.139,-51.248,318.706,1.0
11.4833,128.17921,37.953875,5823.610908,-121.915,-51.352,318.461,1.0
11.5,128.179187,37.953905,5819.2242264,-121.686,-51.454,318.214,1.0
11.5166,128.179163,37.953935,5814.828096,-121.452,-51.556,317.967,1.0
11.5333,128.17914,37.953965,5810.4222119999995,-121.216,-51.657,317.718,1.0
11.55,128.179117,37.953994,5806.0074888,-120.976,-51.757,317.469,1.0
11.5666,128.179093,37.954024,5801.5833168,-120.735,-51.856,317.218,1.0
11.5833,128.17907,37.954053,5797.149696,-120.491,-51.955,316.966,1.0
11.6,128.179046,37.954082,5792.707236,-120.247,-52.054,316.713,1.0
11.6166,128.179022,37.954111,5788.2553272000005,-120.001,-52.151,316.458,1.0
11.6333,128.178998,37.95414,5783.794274400001,-119.756,-52.248,316.203,1.0
11.65,128.178975,37.954168,5779.3243824,-119.511,-52.345,315.946,1.0
11.6666,128.178951,37.954197,5774.8453464,-119.266,-52.44,315.688,1.0
11.6833,128.178926,37.954225,5770.3574712,-119.023,-52.536,315.428,1.0
11.7,128.178902,37.954254,5765.860452000001,-118.781,-52.63,315.167,1.0
11.7166,128.178878,37.954282,5761.3545936,-118.54,-52.724,314.905,1.0
11.7333,128.178854,37.95431,5756.839896,-118.301,-52.818,314.642,1.0
11.75,128.178829,37.954337,5752.316664,-118.065,-52.911,314.378,1.0
11.7666,128.178805,37.954365,5747.784288000001,-117.83,-53.003,314.112,1.0
11.7833,128.17878,37.954393,5743.243377600001,-117.598,-53.095,313.845,1.0
11.8,128.178756,37.95442,5738.693628000001,-117.369,-53.187,313.577,1.0
11.8166,128.178731,37.954447,5734.135344,-117.142,-53.278,313.307,1.0
11.8333,128.178706,37.954475,5729.5685256,-116.918,-53.368,313.037,1.0
11.85,128.178681,37.954502,5724.9931728,-116.696,-53.458,312.765,1.0
11.8666,128.178656,37.954528,5720.4092856,-116.476,-53.548,312.491,1.0
11.8833,128.178631,37.954555,5715.816864,-116.259,-53.638,312.217,1.0
11.9,128.178606,37.954582,5711.2162128,-116.044,-53.726,311.941,1.0
11.9166,128.178581,37.954608,5706.607027200001,-115.831,-53.815,311.664,1.0
11.9333,128.178555,37.954634,5701.989612,-115.62,-53.903,311.386,1.0
11.95,128.17853,37.954661,5697.3636624,-115.411,-53.991,311.106,1.0
11.9666,128.178504,37.954687,5692.729788000001,-115.204,-54.078,310.826,1.0
11.9833,128.178479,37.954712,5688.087684000001,-114.998,-54.165,310.544,1.0
12.0,128.178453,37.954738,5683.437045600001,-114.793,-54.252,310.261,1.0
12.0166,128.178427,37.954764,5678.778787200001,-114.589,-54.338,309.976,1.0
12.0333,128.178401,37.954789,5674.1119944,-114.386,-54.424,309.691,1.0
12.05,128.178376,37.954814,5669.4372768,-114.183,-54.509,309.404,1.0
12.0666,128.17835,37.95484,5664.7546344,-113.981,-54.594,309.116,1.0
12.0833,128.178323,37.954865,5660.0640672,-113.779,-54.679,308.827,1.0
12.1,128.178297,37.954889,5655.3655751999995,-113.578,-54.763,308.537,1.0
12.1166,128.178271,37.954914,5650.6591584,-113.376,-54.847,308.246,1.0
12.1333,128.178245,37.954939,5645.9448168,-113.173,-54.93,307.953,1.0
12.15,128.178218,37.954963,5641.222855200001,-112.97,-55.013,307.659,1.0
12.1666,128.178192,37.954987,5636.4929688,-112.767,-55.096,307.364,1.0
12.1833,128.178165,37.955011,5631.7554624,-112.563,-55.178,307.068,1.0
12.2,128.178139,37.955035,5627.010336,-112.357,-55.261,306.772,1.0
12.2166,128.178112,37.955059,5622.2575896,-112.149,-55.344,306.475,1.0
12.2333,128.178085,37.955083,5617.4969184,-111.939,-55.429,306.178,1.0
12.25,128.178058,37.955106,5612.728932,-111.727,-55.514,305.88,1.0
12.2666,128.178031,37.95513,5607.9536304,-111.515,-55.6,305.583,1.0
12.2833,128.178004,37.955153,5603.1707088,-111.301,-55.686,305.284,1.0
12.3,128.177977,37.955176,5598.3801672,-111.087,-55.772,304.985,1.0
12.3166,128.17795,37.955199,5593.582310400001,-110.873,-55.859,304.685,1.0
12.3333,128.177923,37.955221,5588.777138400001,-110.659,-55.946,304.384,1.0
12.35,128.177896,37.955244,5583.964651200001,-110.444,-56.032,304.082,1.0
12.3666,128.177868,37.955266,5579.1448488,-110.228,-56.118,303.778,1.0
12.3833,128.177841,37.955289,5574.3177312,-110.012,-56.204,303.474,1.0
12.4,128.177813,37.955311,5569.4832983999995,-109.795,-56.289,303.168,1.0
12.4166,128.177786,37.955333,5564.6418552000005,-109.577,-56.374,302.86,1.0
12.4333,128.177758,37.955355,5559.793096800001,-109.358,-56.458,302.552,1.0
12.45,128.17773,37.955376,5554.937328000001,-109.138,-56.541,302.242,1.0
12.4666,128.177702,37.955398,5550.074244,-108.917,-56.624,301.93,1.0
12.4833,128.177674,37.955419,5545.2044544,-108.695,-56.705,301.617,1.0
12.5,128.177646,37.95544,5540.3276544,-108.472,-56.785,301.302,1.0
12.5166,128.177618,37.955461,5535.4435392,-108.247,-56.864,300.986,1.0
12.5333,128.17759,37.955482,5530.5527184,-108.022,-56.941,300.667,1.0
12.55,128.177562,37.955503,5525.655192,-107.795,-57.017,300.347,1.0
12.5666,128.177534,37.955523,5520.7506552,-107.566,-57.092,300.025,1.0
12.5833,128.177505,37.955544,5515.839108,-107.336,-57.164,299.701,1.0
12.6,128.177477,37.955564,5510.9208552,-107.105,-57.235,299.376,1.0
12.6166,128.177449,37.955584,5505.996201600001,-106.872,-57.305,299.048,1.0
12.6333,128.17742,37.955604,5501.0645376,-106.637,-57.372,298.719,1.0
12.65,128.177392,37.955624,5496.126168,-106.4,-57.438,298.388,1.0
12.6666,128.177363,37.955644,5491.181397600001,-106.161,-57.502,298.056,1.0
12.6833,128.177334,37.955663,5486.2299216,-105.921,-57.564,297.721,1.0
12.7,128.177305,37.955682,5481.2720448,-105.677,-57.624,297.385,1.0
12.7166,128.177277,37.955701,5476.3077672,-105.432,-57.683,297.047,1.0
12.7333,128.177248,37.95572,5471.3370888,-105.184,-57.74,296.708,1.0
12.75,128.177219,37.955739,5466.3600096,-104.932,-57.796,296.368,1.0
12.7666,128.17719,37.955758,5461.3765296,-104.676,-57.852,296.027,1.0
12.7833,128.17716,37.955776,5456.3866488,-104.417,-57.906,295.684,1.0
12.8,128.177131,37.955795,5451.390672,-104.155,-57.96,295.341,1.0
12.8166,128.177102,37.955813,5446.3885992000005,-103.89,-58.014,294.997,1.0
12.8333,128.177073,37.955831,5441.3804304,-103.622,-58.066,294.651,1.0
12.85,128.177043,37.955849,5436.3658608000005,-103.352,-58.117,294.305,1.0
12.8666,128.177014,37.955866,5431.3455,-103.079,-58.168,293.958,1.0
12.8833,128.176985,37.955884,5426.3190432,-102.804,-58.217,293.609,1.0
12.9,128.176955,37.955901,5421.286795200001,-102.527,-58.266,293.26,1.0
12.9166,128.176925,37.955918,5416.248451200001,-102.248,-58.313,292.909,1.0
12.9333,128.176896,37.955935,5411.204315999999,-101.966,-58.36,292.558,1.0
12.95,128.176866,37.955952,5406.1543896,-101.682,-58.406,292.205,1.0
12.9666,128.176836,37.955969,5401.0989768,-101.397,-58.45,291.852,1.0
12.9833,128.176806,37.955986,5396.037468,-101.109,-58.494,291.498,1.0
13.0,128.176776,37.956002,5390.970472800001,-100.82,-58.537,291.143,1.0
13.0166,128.176746,37.956018,5385.8979912,-100.529,-58.579,290.786,1.0
13.0333,128.176716,37.956034,5380.820023200001,-100.236,-58.62,290.429,1.0
13.0499,128.176686,37.95605,5375.736264,-99.941,-58.66,290.071,1.0
13.0666,128.176656,37.956066,5370.647323200001,-99.645,-58.699,289.713,1.0
13.0833,128.176626,37.956081,5365.552896,-99.348,-58.737,289.353,1.0
13.1,128.176596,37.956097,5360.4529824,-99.049,-58.774,288.992,1.0
13.1166,128.176565,37.956112,5355.3478872000005,-98.749,-58.81,288.631,1.0
13.1333,128.176535,37.956127,5350.2376104,-98.447,-58.845,288.269,1.0
13.15,128.176505,37.956142,5345.122152000001,-98.144,-58.879,287.906,1.0
13.1666,128.176474,37.956156,5340.001512,-97.839,-58.912,287.542,1.0
13.1833,128.176444,37.956171,5334.8756904,-97.534,-58.944,287.178,1.0
13.2,128.176413,37.956185,5329.744992000001,-97.227,-58.975,286.813,1.0
13.2166,128.176382,37.956199,5324.6094168,-96.919,-59.005,286.447,1.0
13.2333,128.176352,37.956213,5319.46866,-96.61,-59.033,286.08,1.0
13.25,128.176321,37.956227,5314.3233312,-96.3,-59.061,285.713,1.0
13.2666,128.17629,37.956241,5309.1728207999995,-95.989,-59.088,285.345,1.0
13.2833,128.176259,37.956254,5304.017738400001,-95.677,-59.114,284.976,1.0
13.3,128.176228,37.956268,5298.858084,-95.364,-59.139,284.607,1.0
13.3166,128.176197,37.956281,5293.6938576,-95.05,-59.163,284.237,1.0
13.3333,128.176166,37.956294,5288.5247544,-94.734,-59.185,283.867,1.0
13.35,128.176135,37.956307,5283.3513840000005,-94.418,-59.207,283.496,1.0
13.3666,128.176104,37.956319,5278.173441600001,-94.101,-59.227,283.124,1.0
13.3833,128.176073,37.956332,5272.9909272,-93.783,-59.247,282.752,1.0
13.4,128.176042,37.956344,5267.8041456,-93.465,-59.265,282.379,1.0
13.4166,128.17601,37.956356,5262.613096800001,-93.145,-59.283,282.006,1.0
13.4333,128.175979,37.956368,5257.4177808,-92.824,-59.299,281.633,1.0
13.45,128.175948,37.95638,5252.218197600001,-92.503,-59.314,281.259,1.0
13.4666,128.175916,37.956391,5247.014347200001,-92.18,-59.328,280.884,1.0
13.4833,128.175885,37.956403,5241.8068392,-91.857,-59.341,280.51,1.0
13.5,128.175853,37.956414,5236.5947592,-91.532,-59.353,280.134,1.0
13.5166,128.175822,37.956425,5231.3790216,-91.207,-59.363,279.759,1.0
13.5333,128.17579,37.956436,5226.1593216,-90.881,-59.373,279.383,1.0
13.55,128.175758,37.956447,5220.935964,-90.554,-59.382,279.007,1.0
13.5666,128.175726,37.956457,5215.708644,-90.226,-59.389,278.631,1.0
13.5833,128.175695,37.956468,5210.477361599999,-89.897,-59.395,278.254,1.0
13.6,128.175663,37.956478,5205.2427264,-89.567,-59.4,277.878,1.0
13.6166,128.175631,37.956488,5200.004433600001,-89.236,-59.404,277.501,1.0
13.6333,128.175599,37.956498,5194.762483200001,-88.905,-59.407,277.124,1.0
13.65,128.175567,37.956507,5189.5168752,-88.572,-59.409,276.747,1.0
13.6666,128.175535,37.956517,5184.2679144,-88.239,-59.409,276.369,1.0
13.6833,128.175503,37.956526,5179.0156008,-87.905,-59.408,275.992,1.0
13.7,128.175471,37.956535,5173.7599344,-87.57,-59.407,275.615,1.0
13.7166,128.175439,37.956544,5168.501220000001,-87.235,-59.404,275.237,1.0
13.7333,128.175406,37.956553,5163.2391528,-86.898,-59.399,274.86,1.0
13.75,128.175374,37.956562,5157.9737328,-86.561,-59.394,274.483,1.0
13.7666,128.175342,37.95657,5152.705569600001,-86.224,-59.387,274.105,1.0
13.7833,128.17531,37.956578,5147.4340536,-85.886,-59.38,273.728,1.0
13.8,128.175277,37.956586,5142.1597944,-85.547,-59.371,273.351,1.0
13.8166,128.175245,37.956594,5136.8824872000005,-85.207,-59.361,272.974,1.0
13.8333,128.175212,37.956602,5131.602436800001,-84.868,-59.35,272.598,1.0
13.85,128.17518,37.956609,5126.3196431999995,-84.528,-59.337,272.221,1.0
13.8666,128.175147,37.956617,5121.0341064,-84.187,-59.324,271.845,1.0
13.8833,128.175115,37.956624,5115.7458264,-83.846,-59.309,271.469,1.0
13.9,128.175082,37.956631,5110.455108,-83.505,-59.293,271.093,1.0
13.9166,128.175049,37.956638,5105.161951200001,-83.164,-59.276,270.718,1.0
13.9333,128.175017,37.956644,5099.866051200001,-82.822,-59.258,270.343,1.0
13.95,128.174984,37.956651,5094.5680176000005,-82.481,-59.238,269.968,1.0
13.9666,128.174951,37.956657,5089.267545600001,-82.139,-59.218,269.593,1.0
13.9833,128.174918,37.956663,5083.9646352,-81.798,-59.196,269.22,1.0
14.0,128.174885,37.956669,5078.6595912,-81.456,-59.173,268.846,1.0
14.0166,128.174852,37.956675,5073.3527184,-81.114,-59.148,268.473,1.0
14.0333,128.174819,37.95668,5068.0434072,-80.773,-59.123,268.1,1.0
14.05,128.174786,37.956686,5062.7322672,-80.432,-59.097,267.728,1.0
14.0666,128.174753,37.956691,5057.4189936,-80.091,-59.069,267.357,1.0
14.0833,128.17472,37.956696,5052.104196,-79.75,-59.04,266.986,1.0
14.1,128.174687,37.956701,5046.7872648,-79.41,-59.01,266.616,1.0
14.1166,128.174654,37.956705,5041.4685048,-79.07,-58.979,266.246,1.0
14.1333,128.174621,37.95671,5036.1485256,-78.73,-58.946,265.877,1.0
14.15,128.174588,37.956714,5030.8264128,-78.391,-58.913,265.508,1.0
14.1666,128.174554,37.956718,5025.5030808,-78.052,-58.878,265.14,1.0
14.1833,128.174521,37.956722,5020.178224800001,-77.714,-58.842,264.773,1.0
14.2,128.174488,37.956726,5014.8518448,-77.376,-58.805,264.407,1.0
14.2166,128.174454,37.956729,5009.5242456000005,-77.038,-58.767,264.041,1.0
14.2333,128.174421,37.956732,5004.1951224,-76.702,-58.728,263.676,1.0
14.25,128.174387,37.956736,4998.8650848,-76.366,-58.687,263.312,1.0
14.2666,128.174354,37.956739,4993.533523200001,-76.03,-58.646,262.949,1.0
14.2833,128.17432,37.956741,4988.201352,-75.695,-58.603,262.587,1.0
14.3,128.174287,37.956744,4982.8679616,-75.361,-58.559,262.225,1.0
14.3166,128.174253,37.956746,4977.533352,-75.028,-58.514,261.864,1.0
14.3333,128.17422,37.956749,4972.1981328,-74.695,-58.468,261.504,1.0
14.35,128.174186,37.956751,4966.8619992,-74.364,-58.42,261.146,1.0
