Time,Longitude,Latitude,Altitude,Roll (deg),Pitch (deg),Yaw (deg),Health
0.0,128.197121,37.931908,5837.2616808,2.0,-1.004,202.999,1.0
0.0166,128.197099,37.931867,5837.157744,2.0,-1.014,202.999,1.0
0.0333,128.197077,37.931825,5837.052283200001,2.099,-1.015,203.013,1.0
0.05,128.197055,37.931784,5836.9456032,2.293,-0.993,203.041,1.0
0.0666,128.197032,37.931742,5836.8377040000005,2.587,-0.931,203.078,1.0
0.0833,128.19701,37.931701,5836.727976,2.983,-0.817,203.121,1.0
0.1,128.196988,37.93166,5836.616724,3.481,-0.649,203.169,1.0
0.1166,128.196966,37.931618,5836.503338400001,4.079,-0.445,203.218,1.0
0.1333,128.196943,37.931577,5836.3878192,4.771,-0.219,203.27,1.0
0.15,128.196921,37.931535,5836.2698616,5.553,0.016,203.322,1.0
0.1666,128.196899,37.931494,5836.149770400001,6.419,0.255,203.377,1.0
0.1833,128.196876,37.931452,5836.028155200001,7.366,0.495,203.434,1.0
0.2,128.196854,37.931411,5835.905625599999,8.388,0.734,203.493,1.0
0.2166,128.196832,37.931369,5835.7821816000005,9.482,0.972,203.556,1.0
0.2333,128.196809,37.931328,5835.658128,10.645,1.208,203.623,1.0
0.25,128.196787,37.931286,5835.5340744000005,11.873,1.442,203.694,1.0
0.2666,128.196764,37.931245,5835.4106304,13.164,1.675,203.77,1.0
0.2833,128.196742,37.931203,5835.287491200001,14.515,1.907,203.852,1.0
0.3,128.19672,37.931162,5835.1655712,15.924,2.139,203.94,1.0
0.3166,128.196697,37.93112,5835.044870400001,17.389,2.37,204.034,1.0
0.3333,128.196675,37.931078,5834.9272176,18.888,2.604,204.135,1.0
0.35,128.196652,37.931037,5834.8129176,20.402,2.84,204.242,1.0
0.3666,128.19663,37.930995,5834.702275199999,21.916,3.08,204.355,1.0
0.3833,128.196607,37.930954,5834.5962048,23.413,3.322,204.474,1.0
0.4,128.196585,37.930912,5834.495316,24.883,3.566,204.6,1.0
0.4166,128.196562,37.93087,5834.400523200001,26.315,3.812,204.733,1.0
0.4333,128.196539,37.930829,5834.3121312,27.702,4.058,204.875,1.0
0.45,128.196517,37.930787,5834.2307496,29.039,4.306,205.025,1.0
0.4666,128.196494,37.930746,5834.156988000001,30.323,4.554,205.184,1.0
0.4833,128.196471,37.930704,5834.091456000001,31.55,4.801,205.351,1.0
0.5,128.196448,37.930663,5834.0332392,32.722,5.047,205.527,1.0
0.5166,128.196425,37.930621,5833.983252000001,33.839,5.292,205.71,1.0
0.5333,128.196402,37.93058,5833.9417992,34.902,5.534,205.901,1.0
0.55,128.196379,37.930538,5833.9082712,35.913,5.77,206.098,1.0
0.5666,128.196356,37.930497,5833.8829728,36.875,5.998,206.298,1.0
0.5833,128.196332,37.930456,5833.8662088,37.79,6.217,206.499,1.0
0.6,128.196309,37.930414,5833.857674400001,38.661,6.425,206.701,1.0
0.6166,128.196286,37.930373,5833.8573696,39.492,6.623,206.903,1.0
0.6333,128.196262,37.930332,5833.8652944,40.286,6.811,207.105,1.0
0.65,128.196239,37.930291,5833.8814488,41.047,6.989,207.307,1.0
0.6666,128.196215,37.930249,5833.9058328,41.778,7.158,207.507,1.0
0.6833,128.196191,37.930208,5833.938141600001,42.483,7.318,207.708,1.0
0.7,128.196167,37.930167,5833.97868,43.164,7.47,207.907,1.0
0.7166,128.196143,37.930126,5834.0271432,43.826,7.614,208.106,1.0
0.7333,128.196119,37.930085,5834.0835312,44.471,7.751,208.304,1.0
0.75,128.196095,37.930044,5834.1475392,45.102,7.882,208.501,1.0
0.7666,128.196071,37.930003,5834.219472,45.72,8.005,208.698,1.0
0.7833,128.196047,37.929962,5834.2993295999995,46.328,8.123,208.893,1.0
0.8,128.196022,37.929921,5834.3865024,46.925,8.236,209.089,1.0
0.8166,128.195998,37.92988,5834.4816,47.513,8.343,209.283,1.0
0.8333,128.195973,37.929839,5834.5843176,48.093,8.446,209.477,1.0
0.85,128.195948,37.929799,5834.6943504,48.665,8.544,209.671,1.0
0.8666,128.195924,37.929758,5834.8120032,49.229,8.638,209.863,1.0
0.8833,128.195899,37.929717,5834.9369712,49.786,8.728,210.056,1.0
0.9,128.195874,37.929677,5835.0695592,50.336,8.814,210.248,1.0
0.9166,128.195849,37.929636,5835.2091576,50.88,8.896,210.44,1.0
0.9333,128.195823,37.929595,5835.3560712,51.418,8.975,210.632,1.0
0.95,128.195798,37.929555,5835.5099952,51.949,9.051,210.823,1.0
0.9666,128.195773,37.929515,5835.6709296,52.474,9.124,211.015,1.0
0.9833,128.195747,37.929474,5835.839179200001,52.993,9.194,211.206,1.0
1.0,128.195721,37.929434,5836.014134399999,53.506,9.261,211.398,1.0
1.0166,128.195696,37.929394,5836.1961,54.013,9.326,211.589,1.0
1.0333,128.19567,37.929353,5836.3841616,54.585,9.383,211.784,1.0
1.05,128.195644,37.929313,5836.578319200001,55.219,9.432,211.982,1.0
1.0666,128.195618,37.929273,5836.7779632,55.907,9.477,212.182,1.0
1.0833,128.195591,37.929233,5836.9827888,56.639,9.519,212.382,1.0
1.1,128.195565,37.929193,5837.192796,57.404,9.558,212.581,1.0
1.1166,128.195539,37.929153,5837.4088992,58.192,9.596,212.78,1.0
1.1333,128.195512,37.929113,5837.6304887999995,58.992,9.632,212.977,1.0
1.15,128.195486,37.929073,5837.857564800001,59.794,9.667,213.174,1.0
1.1666,128.195459,37.929033,5838.090432,60.59,9.701,213.371,1.0
1.1833,128.195432,37.928994,5838.3290904000005,61.373,9.733,213.568,1.0
1.2,128.195405,37.928954,5838.5732352,62.136,9.763,213.765,1.0
1.2166,128.195378,37.928914,5838.8231712,62.875,9.791,213.962,1.0
1.2333,128.195351,37.928875,5839.078288799999,63.587,9.817,214.161,1.0
1.25,128.195323,37.928835,5839.3385880000005,64.269,9.841,214.36,1.0
1.2666,128.195296,37.928796,5839.6043736,64.919,9.864,214.561,1.0
1.2833,128.195268,37.928756,5839.875036,65.538,9.884,214.764,1.0
1.3,128.19524,37.928717,5840.15088,66.124,9.902,214.968,1.0
1.3166,128.195212,37.928678,5840.431296000001,66.678,9.918,215.173,1.0
1.3333,128.195184,37.928639,5840.716284000001,67.202,9.933,215.38,1.0
1.35,128.195156,37.9286,5841.0061488,67.697,9.945,215.587,1.0
1.3666,128.195128,37.928561,5841.299976,68.164,9.956,215.796,1.0
1.3833,128.195099,37.928522,5841.5983752,68.605,9.964,216.006,1.0
1.4,128.195071,37.928483,5841.9010416,69.022,9.972,216.217,1.0
1.4166,128.195042,37.928444,5842.207365600001,69.417,9.978,216.428,1.0
1.4333,128.195013,37.928406,5842.517956800001,69.792,9.983,216.639,1.0
1.45,128.194984,37.928367,5842.831900800001,70.149,9.987,216.851,1.0
1.4666,128.194955,37.928328,5843.150112,70.489,9.99,217.062,1.0
1.4833,128.194926,37.92829,5843.4713712,70.814,9.992,217.274,1.0
1.5,128.194896,37.928251,5843.7965928,71.126,9.993,217.485,1.0
1.5166,128.194867,37.928213,5844.1248624,71.427,9.993,217.696,1.0
1.5333,128.194837,37.928175,5844.4567896,71.717,9.993,217.907,1.0
1.55,128.194808,37.928137,5844.7917648,71.999,9.991,218.117,1.0
1.5666,128.194778,37.928099,5845.130092800001,72.273,9.989,218.327,1.0
1.5833,128.194748,37.928061,5845.4711640000005,72.54,9.986,218.536,1.0
1.6,128.194717,37.928023,5845.815588,72.801,9.983,218.745,1.0
1.6166,128.194687,37.927985,5846.162755200001,73.058,9.98,218.952,1.0
1.6333,128.194657,37.927947,5846.512665600001,73.313,9.981,219.158,1.0
1.65,128.194626,37.927909,5846.8653192,73.566,9.984,219.363,1.0
1.6666,128.194595,37.927871,5847.220716,73.815,9.991,219.565,1.0
1.6833,128.194565,37.927834,5847.578856000001,74.057,9.998,219.767,1.0
1.7,128.194534,37.927796,5847.9397392,74.29,10.007,219.968,1.0
1.7166,128.194503,37.927759,5848.303365600001,74.511,10.016,220.168,1.0
1.7333,128.194471,37.927722,5848.6694304,74.661,10.031,220.366,1.0
1.75,128.19444,37.927684,5849.038543199999,74.744,10.052,220.563,1.0
1.7666,128.194408,37.927647,5849.410704,74.768,10.076,220.758,1.0
1.7833,128.194377,37.92761,5849.7862176,74.742,10.101,220.953,1.0
1.8,128.194345,37.927573,5850.164169600001,74.678,10.125,221.149,1.0
1.8166,128.194313,37.927536,5850.545169600001,74.585,10.147,221.345,1.0
1.8333,128.194281,37.9275,5850.9289128,74.475,10.167,221.541,1.0
1.85,128.194249,37.927463,5851.3153992,74.355,10.186,221.737,1.0
1.8666,128.194216,37.927426,5851.704628800001,74.235,10.203,221.934,1.0
1.8833,128.194184,37.92739,5852.0962968,74.121,10.218,222.13,1.0
1.9,128.194151,37.927353,5852.4904032,74.018,10.233,222.326,1.0
1.9166,128.194118,37.927317,5852.886947999999,73.93,10.246,222.52,1.0
1.9333,128.194086,37.927281,5853.286236,73.859,10.26,222.714,1.0
1.95,128.194053,37.927244,5853.6879624,73.808,10.272,222.907,1.0
1.9666,128.194019,37.927208,5854.0921272000005,73.778,10.285,223.099,1.0
1.9833,128.193986,37.927172,5854.4987304,73.768,10.297,223.289,1.0
2.0,128.193953,37.927136,5854.9077720000005,73.778,10.309,223.478,1.0
2.0166,128.193919,37.9271,5855.319556800001,73.807,10.321,223.667,1.0
2.0333,128.193886,37.927065,5855.7334752,73.855,10.332,223.854,1.0
2.05,128.193852,37.927029,5856.150136800001,73.92,10.344,224.04,1.0
2.0666,128.193818,37.926993,5856.5692368,74.001,10.355,224.226,1.0
2.0833,128.193784,37.926958,5856.990470400001,74.096,10.366,224.41,1.0
2.1,128.19375,37.926922,5857.414447200001,74.203,10.377,224.595,1.0
2.1166,128.193716,37.926887,5857.8408624,74.321,10.387,224.779,1.0
2.1333,128.193682,37.926851,5858.269716,74.45,10.396,224.962,1.0
2.15,128.193647,37.926816,5858.701008,74.587,10.406,225.146,1.0
2.1666,128.193613,37.926781,5859.134738400001,74.731,10.414,225.329,1.0
2.1833,128.193578,37.926746,5859.5706024,74.882,10.422,225.512,1.0
2.2,128.193543,37.926711,5860.0089048,75.039,10.43,225.696,1.0
2.2166,128.193508,37.926676,5860.4493408,75.201,10.436,225.879,1.0
2.2333,128.193473,37.926641,5860.8922152000005,75.367,10.442,226.063,1.0
2.25,128.193438,37.926607,5861.3372232,75.536,10.448,226.247,1.0
2.2666,128.193402,37.926572,5861.784364800001,75.708,10.453,226.431,1.0
2.2833,128.193367,37.926537,5862.23364,75.883,10.457,226.615,1.0
2.3,128.193331,37.926503,5862.6850488,76.061,10.461,226.8,1.0
2.3166,128.193296,37.926469,5863.1385912000005,76.239,10.463,226.985,1.0
2.3333,128.19326,37.926434,5863.5939624,76.418,10.464,227.17,1.0
2.35,128.193224,37.9264,5864.0514672,76.597,10.463,227.356,1.0
2.3666,128.193188,37.926366,5864.510800800001,76.776,10.461,227.543,1.0
2.3833,128.193152,37.926332,5864.972268,76.954,10.456,227.731,1.0
2.4,128.193115,37.926298,5865.435564,77.132,10.449,227.919,1.0
2.4166,128.193079,37.926265,5865.9003840000005,77.31,10.441,228.107,1.0
2.4333,128.193043,37.926231,5866.367337600001,77.488,10.431,228.296,1.0
2.45,128.193006,37.926197,5866.835815200001,77.667,10.419,228.485,1.0
2.4666,128.192969,37.926164,5867.3058168,77.846,10.406,228.675,1.0
2.4833,128.192932,37.92613,5867.777342400001,78.027,10.393,228.865,1.0
2.5,128.192895,37.926097,5868.250696800001,78.208,10.378,229.055,1.0
2.5166,128.192858,37.926064,5868.725270400001,78.391,10.362,229.246,1.0
2.5333,128.192821,37.92603,5869.201368,78.574,10.346,229.436,1.0
2.55,128.192783,37.925997,5869.6786848,78.758,10.329,229.627,1.0
2.5666,128.192746,37.925964,5870.1575256,78.943,10.312,229.818,1.0
2.5833,128.192708,37.925932,5870.6375856,79.128,10.295,230.009,1.0
2.6,128.192671,37.925899,5871.118864800001,79.315,10.277,230.2,1.0
2.6166,128.192633,37.925866,5871.6010584000005,79.502,10.259,230.391,1.0
2.6333,128.192595,37.925834,5872.084776,79.69,10.241,230.582,1.0
2.65,128.192557,37.925801,5872.5691031999995,79.878,10.224,230.773,1.0
2.6666,128.192518,37.925769,5873.0549544000005,80.067,10.206,230.964,1.0
2.6833,128.19248,37.925736,5873.5414152,80.257,10.188,231.154,1.0
2.7,128.192442,37.925704,5874.028790400001,80.447,10.171,231.345,1.0
2.7166,128.192403,37.925672,5874.51708,80.638,10.154,231.536,1.0
2.7333,128.192364,37.92564,5875.005979200001,80.829,10.137,231.727,1.0
2.75,128.192326,37.925608,5875.4957928,81.02,10.121,231.917,1.0
2.7666,128.192287,37.925576,5875.9865208,81.211,10.105,232.108,1.0
2.7833,128.192248,37.925545,5876.4775536,81.403,10.09,232.298,1.0
2.8,128.192208,37.925513,5876.969500800001,81.595,10.075,232.489,1.0
2.8166,128.192169,37.925482,5877.4617528,81.787,10.06,232.679,1.0
2.8333,128.19213,37.92545,5877.9546144000005,81.979,10.047,232.869,1.0
2.85,128.19209,37.925419,5878.4477808,82.17,10.033,233.06,1.0
2.8666,128.192051,37.925388,5878.9415568,82.36,10.02,233.25,1.0
2.8833,128.192011,37.925357,5879.4356376000005,82.549,10.006,233.44,1.0
2.9,128.191971,37.925326,5879.930328,82.735,9.992,233.63,1.0
2.9166,128.191931,37.925295,5880.4250184,82.92,9.977,233.821,1.0
2.9333,128.191891,37.925264,5880.9200136,83.103,9.962,234.011,1.0
2.95,128.191851,37.925233,5881.4153136,83.285,9.946,234.202,1.0
2.9666,128.191811,37.925203,5881.9109184,83.464,9.93,234.393,1.0
2.9833,128.19177,37.925172,5882.4065232,83.641,9.913,234.584,1.0
3.0,128.19173,37.925142,5882.902128000001,83.817,9.895,234.775,1.0
3.0166,128.191689,37.925111,5883.3977328,83.991,9.877,234.966,1.0
3.0333,128.191648,37.925081,5883.8936424,84.163,9.859,235.157,1.0
3.05,128.191607,37.925051,5884.389247200001,84.334,9.84,235.348,1.0
3.0666,128.191566,37.925021,5884.884852000001,84.502,9.82,235.539,1.0
3.0833,128.191525,37.924991,5885.380152000001,84.669,9.8,235.73,1.0
3.1,128.191484,37.924962,5885.875452000001,84.834,9.78,235.921,1.0
3.1166,128.191443,37.924932,5886.370447200001,84.997,9.759,236.113,1.0
3.1333,128.191401,37.924902,5886.865137600001,85.158,9.737,236.304,1.0
3.15,128.19136,37.924873,5887.359828000001,85.317,9.715,236.495,1.0
3.1666,128.191318,37.924844,5887.8539088,85.474,9.693,236.687,1.0
3.1833,128.191276,37.924814,5888.3476848,85.629,9.67,236.878,1.0
3.2,128.191235,37.924785,5888.841156,85.782,9.647,237.069,1.0
3.2166,128.191193,37.924756,5889.3340176,85.933,9.623,237.261,1.0
3.2333,128.191151,37.924727,5889.826269600001,86.082,9.599,237.452,1.0
3.25,128.191108,37.924698,5890.3182168,86.229,9.574,237.644,1.0
3.2666,128.191066,37.92467,5890.809554400001,86.374,9.549,237.835,1.0
3.2833,128.191024,37.924641,5891.299977600001,86.516,9.524,238.027,1.0
3.3,128.190981,37.924613,5891.790096000001,86.656,9.498,238.218,1.0
3.3166,128.190938,37.924584,5892.2793,86.794,9.472,238.41,1.0
3.3333,128.190896,37.924556,5892.7678944,86.93,9.445,238.601,1.0
3.35,128.190853,37.924528,5893.255879200001,87.063,9.418,238.793,1.0
3.3666,128.19081,37.9245,5893.7429496,87.194,9.391,238.985,1.0
3.3833,128.190767,37.924472,5894.2291056,87.323,9.363,239.176,1.0
3.4,128.190724,37.924444,5894.714347200001,87.449,9.335,239.368,1.0
3.4166,128.19068,37.924416,5895.1989792,87.573,9.307,239.559,1.0
3.4333,128.190637,37.924389,5895.682392000001,87.695,9.278,239.751,1.0
3.45,128.190594,37.924361,5896.1651952,87.814,9.249,239.942,1.0
3.4666,128.19055,37.924334,5896.646779200001,87.931,9.22,240.134,1.0
3.4833,128.190506,37.924307,5897.127144,88.045,9.191,240.325,1.0
3.5,128.190463,37.924279,5897.6065944,88.157,9.161,240.516,1.0
3.5166,128.190419,37.924252,5898.0851304,88.267,9.131,240.708,1.0
3.5333,128.190375,37.924226,5898.562447200001,88.374,9.1,240.899,1.0
3.55,128.190331,37.924199,5899.0385448,88.479,9.07,241.091,1.0
3.5666,128.190286,37.924172,5899.5134232,88.581,9.039,241.282,1.0
3.5833,128.190242,37.924145,5899.987387200001,88.681,9.008,241.473,1.0
3.6,128.190198,37.924119,5900.4598272,88.779,8.976,241.665,1.0
3.6166,128.190153,37.924093,5900.9310479999995,88.875,8.945,241.856,1.0
3.6333,128.190108,37.924066,5901.4010496,88.968,8.913,242.047,1.0
3.65,128.190064,37.92404,5901.869832,89.06,8.881,242.238,1.0
3.6666,128.190019,37.924014,5902.3370904,89.149,8.849,242.429,1.0
3.6833,128.189974,37.923988,5902.8031296,89.236,8.816,242.62,1.0
3.7,128.189929,37.923962,5903.2676448,89.321,8.784,242.811,1.0
3.7166,128.189884,37.923937,5903.730636,89.404,8.751,243.002,1.0
3.7333,128.189839,37.923911,5904.192408,89.485,8.718,243.193,1.0
3.75,128.189793,37.923886,5904.652656,89.564,8.685,243.384,1.0
3.7666,128.189748,37.923861,5905.1116848,89.642,8.651,243.575,1.0
3.7833,128.189702,37.923835,5905.5688848,89.718,8.618,243.765,1.0
3.8,128.189657,37.92381,5906.0245608000005,89.792,8.584,243.956,1.0
3.8166,128.189611,37.923785,5906.4787128,89.864,8.55,244.147,1.0
3.8333,128.189565,37.92376,5906.931340800001,89.935,8.516,244.337,1.0
3.85,128.18952,37.923736,5907.3824448000005,90.004,8.482,244.528,1.0
3.8666,128.189474,37.923711,5907.832024800001,90.072,8.448,244.718,1.0
3.8833,128.189427,37.923687,5908.279776,90.139,8.413,244.908,1.0
3.9,128.189381,37.923662,5908.7260032,90.204,8.379,245.099,1.0
3.9166,128.189335,37.923638,5909.1704016,90.269,8.344,245.289,1.0
3.9333,128.189289,37.923614,5909.613276,90.331,8.309,245.479,1.0
3.95,128.189242,37.92359,5910.0543216,90.393,8.275,245.669,1.0
3.9666,128.189196,37.923566,5910.493538400001,90.454,8.24,245.859,1.0
3.9833,128.189149,37.923542,5910.9312312,90.514,8.204,246.049,1.0
4.0,128.189102,37.923518,5911.3670952,90.573,8.169,246.239,1.0
4.0166,128.189055,37.923495,5911.8011304,90.63,8.134,246.428,1.0
4.0333,128.189009,37.923471,5912.2333368,90.687,8.098,246.618,1.0
4.05,128.188962,37.923448,5912.663714400001,90.743,8.063,246.808,1.0
4.0666,128.188914,37.923425,5913.0922632,90.799,8.027,246.997,1.0
4.0833,128.188867,37.923402,5913.518983200001,90.853,7.991,247.187,1.0
4.1,128.18882,37.923379,5913.943874400001,90.907,7.955,247.376,1.0
4.1166,128.188773,37.923356,5914.3669368,90.96,7.919,247.565,1.0
4.1333,128.188725,37.923333,5914.787865600001,91.013,7.883,247.755,1.0
4.15,128.188678,37.923311,5915.2069656,91.065,7.847,247.944,1.0
4.1666,128.18863,37.923288,5915.6242368,91.116,7.811,248.133,1.0
4.1833,128.188582,37.923266,5916.039679200001,91.166,7.774,248.322,1.0
4.2,128.188534,37.923244,5916.452988000001,91.216,7.738,248.511,1.0
4.2166,128.188487,37.923222,5916.8641632,91.266,7.702,248.7,1.0
4.2333,128.188439,37.9232,5917.273509600001,91.314,7.665,248.889,1.0
4.25,128.188391,37.923178,5917.6807224,91.362,7.628,249.078,1.0
4.2666,128.188342,37.923156,5918.086106400001,91.41,7.592,249.266,1.0
4.2833,128.188294,37.923134,5918.489356800001,91.457,7.555,249.455,1.0
4.3,128.188246,37.923113,5918.8904736,91.504,7.518,249.644,1.0
4.3166,128.188198,37.923092,5919.289456800001,91.55,7.481,249.832,1.0
4.3333,128.188149,37.92307,5919.686611200001,91.595,7.444,250.021,1.0
4.35,128.188101,37.923049,5920.0813272000005,91.64,7.407,250.209,1.0
4.3666,128.188052,37.923028,5920.4742144,91.684,7.37,250.398,1.0
4.3833,128.188003,37.923007,5920.8646632,91.727,7.333,250.586,1.0
4.4,128.187954,37.922987,5921.253283200001,91.77,7.295,250.774,1.0
4.4166,128.187905,37.922966,5921.6394648000005,91.811,7.258,250.963,1.0
4.4333,128.187857,37.922945,5922.0238176,91.851,7.221,251.151,1.0
4.45,128.187807,37.922925,5922.405732,91.89,7.184,251.339,1.0
4.4666,128.187758,37.922905,5922.7855128,91.927,7.147,251.527,1.0
4.4833,128.187709,37.922885,5923.1628552,91.963,7.11,251.715,1.0
4.5,128.18766,37.922865,5923.5383688,91.998,7.072,251.904,1.0
4.5166,128.187611,37.922845,5923.911444,92.03,7.035,252.092,1.0
4.5333,128.187561,37.922825,5924.2820808,92.06,6.998,252.28,1.0
4.55,128.187512,37.922806,5924.6508888,92.089,6.961,252.468,1.0
4.5666,128.187462,37.922786,5925.0169536,92.115,6.924,252.656,1.0
4.5833,128.187412,37.922767,5925.3811896,92.139,6.888,252.844,1.0
4.6,128.187363,37.922747,5925.7426824,92.16,6.851,253.032,1.0
4.6166,128.187313,37.922728,5926.102346400001,92.178,6.814,253.22,1.0
4.6333,128.187263,37.922709,5926.4592672,92.194,6.778,253.408,1.0
4.65,128.187213,37.922691,5926.814054400001,92.206,6.742,253.597,1.0
4.6666,128.187163,37.922672,5927.166708,92.215,6.706,253.785,1.0
4.6833,128.187113,37.922653,5927.5166184,92.221,6.67,253.973,1.0
4.7,128.187063,37.922635,5927.8647,92.222,6.634,254.161,1.0
4.7166,128.187012,37.922616,5928.2100384000005,92.22,6.599,254.349,1.0
4.7333,128.186962,37.922598,5928.5532432,92.213,6.564,254.537,1.0
4.75,128.186912,37.92258,5928.894009600001,92.201,6.529,254.726,1.0
4.7666,128.186861,37.922562,5929.2323376,92.184,6.495,254.914,1.0
4.7833,128.186811,37.922544,5929.568532,92.161,6.461,255.102,1.0
4.8,128.18676,37.922527,5929.902288000001,92.132,6.428,255.291,1.0
4.8166,128.186709,37.922509,5930.2336056,92.097,6.395,255.479,1.0
4.8333,128.186659,37.922492,5930.5627896,92.055,6.362,255.667,1.0
4.85,128.186608,37.922475,5930.8895352,92.004,6.331,255.856,1.0
4.8666,128.186557,37.922457,5931.2138424,91.946,6.3,256.045,1.0
4.8833,128.186506,37.92244,5931.536016,91.879,6.269,256.233,1.0
4.9,128.186455,37.922424,5931.8560560000005,91.801,6.24,256.422,1.0
4.9166,128.186404,37.922407,5932.1736576,91.713,6.211,256.611,1.0
4.9333,128.186353,37.92239,5932.4888208,91.614,6.183,256.8,1.0
4.95,128.186302,37.922374,5932.8018504,91.502,6.156,256.989,1.0
4.9666,128.18625,37.922357,5933.1127464,91.376,6.13,257.179,1.0
4.9833,128.186199,37.922341,5933.4215088,91.237,6.105,257.368,1.0
5.0,128.186148,37.922325,5933.7278328,91.081,6.081,257.558,1.0
5.0166,128.186096,37.922309,5934.032328,90.91,6.058,257.748,1.0
5.0333,128.186045,37.922293,5934.3346896,90.722,6.036,257.938,1.0
5.05,128.185993,37.922278,5934.6352224,90.515,6.016,258.128,1.0
5.0666,128.185941,37.922262,5934.9336216,90.29,5.997,258.318,1.0
5.0833,128.18589,37.922247,5935.2298872,90.044,5.979,258.508,1.0
5.1,128.185838,37.922232,5935.524628800001,89.779,5.963,258.699,1.0
5.1166,128.185786,37.922217,5935.8172368000005,89.492,5.949,258.89,1.0
5.1333,128.185734,37.922202,5936.1086256,89.183,5.936,259.081,1.0
5.15,128.185682,37.922187,5936.3978808,88.852,5.925,259.272,1.0
5.1666,128.18563,37.922172,5936.6859168,88.499,5.917,259.463,1.0
5.1833,128.185578,37.922158,5936.972428800001,88.123,5.91,259.654,1.0
5.2,128.185526,37.922144,5937.2577216,87.725,5.905,259.846,1.0
5.2166,128.185474,37.922129,5937.5417952,87.344,5.899,260.037,1.0
5.2333,128.185421,37.922115,5937.8246496,86.987,5.89,260.229,1.0
5.25,128.185369,37.922101,5938.1062848,86.66,5.88,260.42,1.0
5.2666,128.185317,37.922088,5938.3870056000005,86.366,5.87,260.611,1.0
5.2833,128.185264,37.922074,5938.6665072,86.108,5.859,260.801,1.0
5.3,128.185212,37.92206,5938.9447896,85.886,5.85,260.991,1.0
5.3166,128.185159,37.922047,5939.2221576,85.698,5.841,261.18,1.0
5.3333,128.185107,37.922034,5939.498611200001,85.544,5.833,261.369,1.0
5.35,128.185054,37.92202,5939.7741504000005,85.421,5.826,261.556,1.0
5.3666,128.185002,37.922007,5940.048470400001,85.327,5.819,261.742,1.0
5.3833,128.184949,37.921994,5940.3221808,85.259,5.814,261.927,1.0
5.4,128.184896,37.921982,5940.594672,85.215,5.808,262.112,1.0
5.4166,128.184843,37.921969,5940.8665536,85.191,5.803,262.295,1.0
5.4333,128.184791,37.921956,5941.1378256,85.186,5.798,262.477,1.0
5.45,128.184738,37.921944,5941.4078784,85.196,5.793,262.659,1.0
5.4666,128.184685,37.921932,5941.6773216,85.219,5.788,262.84,1.0
5.4833,128.184632,37.921919,5941.9461552,85.254,5.783,263.02,1.0
5.5,128.184579,37.921907,5942.214074400001,85.299,5.778,263.201,1.0
5.5166,128.184526,37.921895,5942.481079200001,85.352,5.773,263.38,1.0
5.5333,128.184473,37.921884,5942.747474400001,85.412,5.766,263.56,1.0
5.55,128.184419,37.921872,5943.012955200001,85.478,5.76,263.74,1.0
5.5666,128.184366,37.92186,5943.2775216,85.549,5.752,263.919,1.0
5.5833,128.184313,37.921849,5943.5414784,85.624,5.742,264.099,1.0
5.6,128.18426,37.921838,5943.8048256,85.7,5.73,264.279,1.0
5.6166,128.184206,37.921827,5944.0672584,85.777,5.714,264.459,1.0
5.6333,128.184153,37.921816,5944.3287768,85.854,5.695,264.639,1.0
5.65,128.1841,37.921805,5944.5896856,85.933,5.673,264.82,1.0
5.6666,128.184046,37.921794,5944.8493751999995,86.015,5.649,265.001,1.0
5.6833,128.183993,37.921783,5945.1084552,86.1,5.623,265.182,1.0
5.7,128.183939,37.921773,5945.366316,86.19,5.596,265.364,1.0
5.7166,128.183886,37.921762,5945.6232624,86.284,5.569,265.545,1.0
5.7333,128.183832,37.921752,5945.8792944,86.382,5.54,265.727,1.0
5.75,128.183778,37.921742,5946.1341072,86.484,5.512,265.909,1.0
5.7666,128.183725,37.921732,5946.388005600001,86.589,5.483,266.091,1.0
5.7833,128.183671,37.921722,5946.6406848,86.697,5.453,266.273,1.0
5.8,128.183617,37.921713,5946.8921448,86.809,5.424,266.455,1.0
5.8166,128.183563,37.921703,5947.1423856,86.922,5.393,266.637,1.0
5.8333,128.18351,37.921694,5947.391712,87.038,5.363,266.819,1.0
5.85,128.183456,37.921684,5947.639514400001,87.155,5.332,267.002,1.0
5.8666,128.183402,37.921675,5947.8860976000005,87.273,5.301,267.184,1.0
5.8833,128.183348,37.921666,5948.1314616,87.392,5.269,267.367,1.0
5.9,128.183294,37.921657,5948.375606400001,87.513,5.237,267.55,1.0
5.9166,128.18324,37.921649,5948.618227200001,87.634,5.205,267.733,1.0
5.9333,128.183186,37.92164,5948.859628800001,87.755,5.172,267.916,1.0
5.95,128.183132,37.921632,5949.099506400001,87.877,5.139,268.099,1.0
5.9666,128.183078,37.921623,5949.337860000001,87.998,5.106,268.282,1.0
5.9833,128.183024,37.921615,5949.5746896,88.12,5.072,268.466,1.0
6.0,128.18297,37.921607,5949.8103,88.242,5.038,268.65,1.0
6.0166,128.182916,37.921599,5950.0440816,88.363,5.003,268.833,1.0
6.0333,128.182861,37.921591,5950.2763392,88.484,4.968,269.017,1.0
6.05,128.182807,37.921583,5950.5070728,88.605,4.933,269.201,1.0
6.0666,128.182753,37.921576,5950.7359776,88.725,4.897,269.385,1.0
6.0833,128.182699,37.921569,5950.9633584,88.845,4.861,269.569,1.0
6.1,128.182644,37.921561,5951.1889104,88.964,4.825,269.753,1.0
6.1166,128.18259,37.921554,5951.412938400001,89.083,4.788,269.938,1.0
6.1333,128.182536,37.921547,5951.6351376,89.201,4.751,270.122,1.0
6.15,128.182481,37.92154,5951.855508,89.319,4.713,270.306,1.0
6.1666,128.182427,37.921534,5952.0737448,89.436,4.675,270.491,1.0
6.1833,128.182372,37.921527,5952.2904576,89.552,4.637,270.675,1.0
6.2,128.182318,37.921521,5952.5053416,89.668,4.598,270.86,1.0
6.2166,128.182263,37.921514,5952.718092000001,89.783,4.559,271.045,1.0
6.2333,128.182209,37.921508,5952.9287088,89.898,4.52,271.23,1.0
6.25,128.182154,37.921502,5953.137801600001,90.012,4.48,271.414,1.0
6.2666,128.1821,37.921496,5953.344456000001,90.125,4.44,271.599,1.0
6.2833,128.182045,37.92149,5953.5492816000005,90.238,4.4,271.784,1.0
6.3,128.181991,37.921485,5953.7519736,90.351,4.359,271.969,1.0
6.3166,128.181936,37.921479,5953.952532,90.463,4.318,272.154,1.0
6.3333,128.181881,37.921474,5954.150956800001,90.575,4.277,272.339,1.0
6.35,128.181827,37.921469,5954.347248,90.686,4.235,272.524,1.0
6.3666,128.181772,37.921464,5954.541405600001,90.798,4.193,272.709,1.0
6.3833,128.181717,37.921459,5954.733124800001,90.91,4.152,272.894,1.0
6.4,128.181663,37.921454,5954.9224056,91.022,4.11,273.079,1.0
6.4166,128.181608,37.921449,5955.1095528,91.135,4.07,273.264,1.0
6.4333,128.181553,37.921445,5955.2945664,91.25,4.029,273.449,1.0
6.45,128.181498,37.92144,5955.4768368000005,91.365,3.99,273.634,1.0
6.4666,128.181444,37.921436,5955.6569736,91.48,3.95,273.82,1.0
6.4833,128.181389,37.921432,5955.8343672,91.597,3.912,274.005,1.0
6.5,128.181334,37.921428,5956.0093224,91.714,3.874,274.19,1.0
6.5166,128.181279,37.921424,5956.182144,91.831,3.837,274.375,1.0
6.5333,128.181224,37.92142,5956.3519176,91.949,3.8,274.561,1.0
6.55,128.18117,37.921417,5956.5195576,92.067,3.764,274.746,1.0
6.5666,128.181115,37.921413,5956.6844544000005,92.185,3.728,274.931,1.0
6.5833,128.18106,37.92141,5956.846608,92.304,3.693,275.117,1.0
6.6,128.181005,37.921407,5957.0060184,92.422,3.658,275.302,1.0
6.6166,128.18095,37.921404,5957.1629904,92.54,3.624,275.488,1.0
6.6333,128.180895,37.921401,5957.3172192,92.658,3.59,275.674,1.0
6.65,128.18084,37.921398,5957.4690096,92.773,3.555,275.859,1.0
6.6666,128.180785,37.921396,5957.617752000001,92.888,3.52,276.045,1.0
6.6833,128.180731,37.921393,5957.763751200001,93.001,3.485,276.231,1.0
6.7,128.180676,37.921391,5957.9070071999995,93.113,3.449,276.417,1.0
6.7166,128.180621,37.921388,5958.047520000001,93.223,3.413,276.602,1.0
6.7333,128.180566,37.921386,5958.1852896,93.331,3.376,276.788,1.0
6.75,128.180511,37.921385,5958.3200112,93.438,3.339,276.974,1.0
6.7666,128.180456,37.921383,5958.4519896,93.544,3.301,277.16,1.0
6.7833,128.180401,37.921381,5958.58092,93.648,3.262,277.346,1.0
6.8,128.180346,37.92138,5958.7068024,93.75,3.224,277.532,1.0
6.8166,128.180291,37.921378,5958.829941600001,93.851,3.185,277.718,1.0
6.8333,128.180236,37.921377,5958.9500328,93.95,3.145,277.904,1.0
6.85,128.180181,37.921376,5959.067076,94.047,3.105,278.091,1.0
6.8666,128.180126,37.921375,5959.1810712,94.142,3.065,278.277,1.0
6.8833,128.180071,37.921374,5959.2920184,94.235,3.024,278.463,1.0
6.9,128.180016,37.921373,5959.3999176,94.326,2.983,278.649,1.0
6.9166,128.179961,37.921373,5959.5047688,94.415,2.942,278.836,1.0
6.9333,128.179906,37.921372,5959.6062672,94.5,2.9,279.022,1.0
6.95,128.179851,37.921372,5959.704717600001,94.582,2.859,279.209,1.0
6.9666,128.179796,37.921372,5959.799815200001,94.66,2.817,279.395,1.0
6.9833,128.179741,37.921372,5959.891864800001,94.733,2.775,279.582,1.0
7.0,128.179686,37.921372,5959.980561599999,94.802,2.734,279.769,1.0
7.0166,128.179631,37.921373,5960.0659056,94.865,2.692,279.956,1.0
7.0333,128.179576,37.921373,5960.148201600001,94.922,2.65,280.143,1.0
7.05,128.179521,37.921374,5960.2271448,94.973,2.608,280.33,1.0
7.0666,128.179466,37.921374,5960.3027352,95.018,2.566,280.517,1.0
7.0833,128.179412,37.921375,5960.3749728,95.056,2.525,280.705,1.0
7.1,128.179357,37.921376,5960.4441624,95.087,2.483,280.893,1.0
7.1166,128.179302,37.921377,5960.5096944,95.111,2.441,281.08,1.0
7.1333,128.179247,37.921379,5960.571873600001,95.128,2.4,281.268,1.0
7.15,128.179192,37.92138,5960.630700000001,95.138,2.358,281.456,1.0
7.1666,128.179137,37.921382,5960.6861736,95.14,2.317,281.645,1.0
7.1833,128.179082,37.921383,5960.7385992,95.135,2.276,281.833,1.0
7.2,128.179027,37.921385,5960.7873672,95.122,2.236,282.022,1.0
7.2166,128.178972,37.921387,5960.832782400001,95.102,2.195,282.211,1.0
7.2333,128.178917,37.921389,5960.874844800001,95.073,2.155,282.399,1.0
7.25,128.178863,37.921392,5960.9135544,95.037,2.115,282.588,1.0
7.2666,128.178808,37.921394,5960.948911200001,94.994,2.076,282.778,1.0
7.2833,128.178753,37.921397,5960.980915200001,94.942,2.037,282.967,1.0
7.3,128.178698,37.921399,5961.0095664,94.882,1.999,283.156,1.0
7.3166,128.178643,37.921402,5961.034864800001,94.814,1.961,283.346,1.0
7.3333,128.178589,37.921405,5961.0568104,94.738,1.923,283.535,1.0
7.35,128.178534,37.921409,5961.075708,94.655,1.886,283.725,1.0
7.3666,128.178479,37.921412,5961.090948,94.563,1.85,283.915,1.0
7.3833,128.178424,37.921415,5961.10314,94.465,1.814,284.105,1.0
7.4,128.17837,37.921419,5961.112284000001,94.359,1.779,284.295,1.0
7.4166,128.178315,37.921423,5961.1180752,94.247,1.744,284.485,1.0
7.4333,128.17826,37.921426,5961.1205136,94.129,1.71,284.675,1.0
7.45,128.178206,37.92143,5961.1202088,94.004,1.677,284.865,1.0
7.4666,128.178151,37.921435,5961.116551200001,93.873,1.644,285.055,1.0
7.4833,128.178097,37.921439,5961.1095408,93.737,1.612,285.245,1.0
7.5,128.178042,37.921443,5961.099787200001,93.594,1.58,285.436,1.0
7.5166,128.177987,37.921448,5961.0869856,93.445,1.55,285.626,1.0
7.5333,128.177933,37.921453,5961.0711360000005,93.289,1.52,285.816,1.0
7.55,128.177878,37.921457,5961.0522384000005,93.127,1.491,286.006,1.0
7.5666,128.177824,37.921462,5961.030597600001,92.958,1.463,286.196,1.0
7.5833,128.177769,37.921468,5961.0059088,92.781,1.436,286.386,1.0
7.6,128.177715,37.921473,5960.9784768,92.597,1.41,286.576,1.0
7.6166,128.177661,37.921478,5960.9483016,92.404,1.385,286.766,1.0
7.6333,128.177606,37.921484,5960.915383200001,92.203,1.361,286.957,1.0
7.65,128.177552,37.92149,5960.8797216,91.993,1.338,287.147,1.0
7.6666,128.177498,37.921496,5960.8413168,91.773,1.317,287.337,1.0
7.6833,128.177443,37.921502,5960.8004736,91.544,1.296,287.527,1.0
7.7,128.177389,37.921508,5960.7568872,91.305,1.277,287.717,1.0
7.7166,128.177335,37.921514,5960.7108624,91.057,1.26,287.908,1.0
7.7333,128.177281,37.92152,5960.662704,90.798,1.243,288.098,1.0
7.75,128.177226,37.921527,5960.6118024,90.531,1.228,288.288,1.0
7.7666,128.177172,37.921534,5960.559072,90.254,1.215,288.478,1.0
7.7833,128.177118,37.921541,5960.5039032,89.968,1.202,288.669,1.0
7.8,128.177064,37.921548,5960.446600800001,89.675,1.191,288.859,1.0
7.8166,128.17701,37.921555,5960.3871648,89.374,1.182,289.049,1.0
7.8333,128.176956,37.921562,5960.3255952,89.066,1.173,289.239,1.0
7.85,128.176902,37.92157,5960.262501600001,88.754,1.166,289.429,1.0
7.8666,128.176848,37.921577,5960.1972744,88.437,1.161,289.619,1.0
7.8833,128.176794,37.921585,5960.1305232,88.113,1.156,289.809,1.0
7.9,128.17674,37.921593,5960.061943199999,87.786,1.154,289.998,1.0
7.9166,128.176687,37.921601,5959.9915344,87.457,1.153,290.187,1.0
7.9333,128.176633,37.921609,5959.9199064,87.13,1.152,290.376,1.0
7.95,128.176579,37.921617,5959.8467544000005,86.806,1.153,290.565,1.0
7.9666,128.176525,37.921626,5959.772383200001,86.488,1.155,290.754,1.0
7.9833,128.176472,37.921634,5959.6964880000005,86.177,1.157,290.942,1.0
8.0,128.176418,37.921643,5959.6193736000005,85.875,1.161,291.129,1.0
8.0166,128.176365,37.921652,5959.54104,85.582,1.166,291.317,1.0
8.0333,128.176311,37.921661,5959.4614872,85.301,1.172,291.503,1.0
8.05,128.176257,37.92167,5959.381020000001,85.032,1.178,291.69,1.0
8.0666,128.176204,37.921679,5959.299638400001,84.778,1.186,291.875,1.0
8.0833,128.176151,37.921688,5959.2170376,84.539,1.194,292.06,1.0
8.1,128.176097,37.921698,5959.1338272,84.316,1.204,292.245,1.0
8.1166,128.176044,37.921708,5959.049397600001,84.109,1.213,292.429,1.0
8.1333,128.17599,37.921717,5958.9643584000005,83.92,1.224,292.612,1.0
8.15,128.175937,37.921727,5958.878709600001,83.748,1.235,292.795,1.0
8.1666,128.175884,37.921737,5958.7921464,83.594,1.246,292.977,1.0
8.1833,128.175831,37.921747,5958.704973600001,83.456,1.258,293.159,1.0
8.2,128.175778,37.921758,5958.6171912,83.336,1.269,293.34,1.0
8.2166,128.175724,37.921768,5958.5284944,83.233,1.28,293.521,1.0
8.2333,128.175671,37.921779,5958.439492800001,83.146,1.292,293.701,1.0
8.25,128.175618,37.921789,5958.3498816,83.074,1.303,293.881,1.0
8.2666,128.175565,37.9218,5958.2596608,83.017,1.314,294.06,1.0
8.2833,128.175512,37.921811,5958.1688304,82.975,1.325,294.239,1.0
8.3,128.175459,37.921822,5958.077695200001,82.945,1.335,294.418,1.0
8.3166,128.175406,37.921833,5957.985950400001,82.927,1.345,294.597,1.0
8.3333,128.175354,37.921844,5957.893900800001,82.92,1.355,294.775,1.0
8.35,128.175301,37.921856,5957.8012416,82.923,1.364,294.953,1.0
8.3666,128.175248,37.921867,5957.7079728,82.934,1.373,295.131,1.0
8.3833,128.175195,37.921879,5957.6143992,82.953,1.381,295.308,1.0
8.4,128.175143,37.921891,5957.5205208,82.978,1.389,295.486,1.0
8.4166,128.17509,37.921903,5957.426032800001,83.01,1.396,295.664,1.0
8.4333,128.175038,37.921915,5957.3315448,83.046,1.4,295.842,1.0
8.45,128.174985,37.921927,5957.236447200001,83.084,1.401,296.02,1.0
8.4666,128.174933,37.92194,5957.1410448,83.123,1.398,296.199,1.0
8.4833,128.17488,37.921952,5957.0453376000005,83.166,1.391,296.379,1.0
8.5,128.174828,37.921965,5956.9490208,83.215,1.381,296.558,1.0
8.5166,128.174776,37.921977,5956.8523992,83.273,1.369,296.738,1.0
8.5333,128.174723,37.92199,5956.755168000001,83.34,1.355,296.919,1.0
8.55,128.174671,37.922003,5956.6573272000005,83.418,1.34,297.099,1.0
8.5666,128.174619,37.922016,5956.5588768,83.507,1.323,297.279,1.0
8.5833,128.174567,37.922029,5956.4598168,83.609,1.306,297.46,1.0
8.6,128.174515,37.922043,5956.360147200001,83.722,1.287,297.64,1.0
8.6166,128.174463,37.922056,5956.259868,83.848,1.268,297.821,1.0
8.6333,128.174411,37.92207,5956.1589792,83.987,1.247,298.002,1.0
8.65,128.174359,37.922084,5956.057176,84.138,1.226,298.182,1.0
8.6666,128.174307,37.922097,5955.9544584000005,84.301,1.203,298.362,1.0
8.6833,128.174255,37.922111,5955.8511312,84.476,1.179,298.543,1.0
8.7,128.174204,37.922126,5955.7468896,84.662,1.154,298.723,1.0
8.7166,128.174152,37.92214,5955.6417336,84.86,1.128,298.904,1.0
8.7333,128.1741,37.922154,5955.5356632,85.068,1.101,299.084,1.0
8.75,128.174049,37.922169,5955.4286784000005,85.287,1.073,299.264,1.0
8.7666,128.173997,37.922183,5955.3204744,85.514,1.044,299.445,1.0
8.7833,128.173946,37.922198,5955.211356000001,85.751,1.014,299.625,1.0
8.8,128.173894,37.922213,5955.100713600001,85.995,0.982,299.805,1.0
8.8166,128.173843,37.922228,5954.989156800001,86.246,0.95,299.986,1.0
8.8333,128.173792,37.922243,5954.8763808,86.504,0.916,300.166,1.0
8.85,128.173741,37.922258,5954.7620808,86.766,0.882,300.347,1.0
8.8666,128.173689,37.922273,5954.6465616,87.033,0.846,300.527,1.0
8.8833,128.173638,37.922289,5954.529518400001,87.303,0.809,300.708,1.0
8.9,128.173587,37.922304,5954.4109512,87.576,0.771,300.889,1.0
8.9166,128.173536,37.92232,5954.290860000001,87.851,0.732,301.07,1.0
8.9333,128.173485,37.922336,5954.1692448,88.128,0.692,301.251,1.0
8.95,128.173435,37.922352,5954.0458008000005,88.405,0.651,301.432,1.0
8.9666,128.173384,37.922368,5953.920528000001,88.682,0.608,301.614,1.0
8.9833,128.173333,37.922384,5953.7934264000005,88.957,0.565,301.795,1.0
9.0,128.173282,37.922401,5953.664496,89.231,0.521,301.977,1.0
9.0166,128.173232,37.922417,5953.5337368,89.502,0.475,302.159,1.0
9.0333,128.173181,37.922434,5953.400844,89.769,0.429,302.342,1.0
9.05,128.173131,37.922451,5953.2658176,90.032,0.382,302.524,1.0
9.0666,128.173081,37.922467,5953.1286576,90.292,0.334,302.707,1.0
9.0833,128.17303,37.922484,5952.9890592,90.546,0.285,302.891,1.0
9.1,128.17298,37.922502,5952.8473272,90.795,0.235,303.074,1.0
9.1166,128.17293,37.922519,5952.7034616,91.04,0.184,303.258,1.0
9.1333,128.17288,37.922536,5952.556852799999,91.279,0.132,303.442,1.0
9.15,128.17283,37.922554,5952.407805600001,91.514,0.079,303.626,1.0
9.1666,128.17278,37.922571,5952.25632,91.743,0.025,303.811,1.0
9.1833,128.17273,37.922589,5952.102396,91.968,-0.028,303.995,1.0
9.2,128.17268,37.922607,5951.9454240000005,92.187,-0.084,304.18,1.0
9.2166,128.172631,37.922625,5951.7860136,92.402,-0.14,304.365,1.0
9.2333,128.172581,37.922643,5951.623860000001,92.612,-0.197,304.551,1.0
9.25,128.172531,37.922661,5951.4586584,92.818,-0.255,304.736,1.0
9.2666,128.172482,37.92268,5951.2907136,93.02,-0.314,304.922,1.0
9.2833,128.172433,37.922698,5951.119720799999,93.217,-0.373,305.108,1.0
9.3,128.172383,37.922717,5950.9459848,93.411,-0.433,305.294,1.0
9.3166,128.172334,37.922736,5950.7688960000005,93.601,-0.494,305.48,1.0
9.3333,128.172285,37.922755,5950.589064000001,93.786,-0.556,305.666,1.0
9.35,128.172236,37.922774,5950.4058792000005,93.968,-0.618,305.852,1.0
9.3666,128.172187,37.922793,5950.219341600001,94.145,-0.68,306.039,1.0
9.3833,128.172138,37.922812,5950.029756000001,94.318,-0.743,306.225,1.0
9.4,128.172089,37.922831,5949.8368176,94.486,-0.806,306.412,1.0
9.4166,128.17204,37.922851,5949.6405264,94.65,-0.87,306.598,1.0
9.4333,128.171992,37.92287,5949.4408824,94.809,-0.934,306.785,1.0
9.45,128.171943,37.92289,5949.2378856000005,94.964,-0.999,306.972,1.0
9.4666,128.171894,37.92291,5949.031231200001,95.116,-1.064,307.158,1.0
9.4833,128.171846,37.92293,5948.821224,95.263,-1.13,307.345,1.0
9.5,128.171798,37.92295,5948.607559200001,95.406,-1.195,307.532,1.0
9.5166,128.171749,37.92297,5948.390236800001,95.546,-1.261,307.719,1.0
9.5333,128.171701,37.922991,5948.1695616,95.682,-1.328,307.905,1.0
9.55,128.171653,37.923011,5947.944924,95.815,-1.395,308.092,1.0
9.5666,128.171605,37.923032,5947.716628800001,95.946,-1.462,308.279,1.0
9.5833,128.171557,37.923052,5947.484676,96.073,-1.529,308.466,1.0
9.6,128.171509,37.923073,5947.248760800001,96.199,-1.597,308.653,1.0
9.6166,128.171462,37.923094,5947.009188000001,96.322,-1.665,308.839,1.0
9.6333,128.171414,37.923115,5946.7656528,96.443,-1.733,309.026,1.0
9.65,128.171366,37.923137,5946.51846,96.563,-1.802,309.213,1.0
9.6666,128.171319,37.923158,5946.267000000001,96.682,-1.87,309.399,1.0
9.6833,128.171272,37.923179,5946.0118824,96.801,-1.938,309.586,1.0
9.7,128.171224,37.923201,5945.7524976,96.92,-2.005,309.773,1.0
9.7166,128.171177,37.923222,5945.489150400001,97.04,-2.071,309.959,1.0
9.7333,128.17113,37.923244,5945.221536,97.161,-2.135,310.146,1.0
9.75,128.171083,37.923266,5944.9496544,97.283,-2.198,310.333,1.0
9.7666,128.171036,37.923288,5944.673810400001,97.405,-2.259,310.521,1.0
9.7833,128.170989,37.92331,5944.3933944,97.528,-2.319,310.708,1.0
9.8,128.170942,37.923333,5944.109015999999,97.65,-2.377,310.896,1.0
9.8166,128.170896,37.923355,5943.820370400001,97.771,-2.435,311.083,1.0
9.8333,128.170849,37.923377,5943.5274576,97.889,-2.492,311.271,1.0
9.85,128.170803,37.9234,5943.230277600001,98.005,-2.549,311.459,1.0
9.8666,128.170756,37.923423,5942.9288304,98.119,-2.607,311.646,1.0
9.8833,128.17071,37.923446,5942.623116,98.229,-2.665,311.834,1.0
9.9,128.170664,37.923469,5942.3128295999995,98.337,-2.723,312.021,1.0
9.9166,128.170618,37.923492,5941.9979711999995,98.442,-2.782,312.209,1.0
9.9333,128.170572,37.923515,5941.6791504,98.544,-2.841,312.396,1.0
9.95,128.170526,37.923538,5941.3554527999995,98.645,-2.901,312.584,1.0
9.9666,128.17048,37.923562,5941.027488000001,98.743,-2.961,312.771,1.0
9.9833,128.170434,37.923585,5940.694951200001,98.838,-3.022,312.959,1.0
10.0,128.170389,37.923609,5940.3581472000005,98.932,-3.083,313.146,1.0
10.0166,128.170343,37.923633,5940.016466399999,99.024,-3.144,313.333,1.0
10.0333,128.170298,37.923656,5939.6702136,99.114,-3.206,313.521,1.0
10.05,128.170253,37.92368,5939.3196935999995,99.202,-3.268,313.708,1.0
10.0666,128.170208,37.923704,5938.964296800001,99.289,-3.331,313.895,1.0
10.0833,128.170162,37.923729,5938.6040232000005,99.374,-3.394,314.082,1.0
10.1,128.170117,37.923753,5938.2394824,99.457,-3.457,314.269,1.0
10.1166,128.170073,37.923777,5937.8700648,99.539,-3.521,314.456,1.0
10.1333,128.170028,37.923802,5937.495770400001,99.619,-3.584,314.643,1.0
10.15,128.169983,37.923827,5937.116904,99.698,-3.649,314.83,1.0
10.1666,128.169939,37.923851,5936.733465600001,99.776,-3.713,315.017,1.0
10.1833,128.169894,37.923876,5936.344845600001,99.852,-3.778,315.204,1.0
10.2,128.16985,37.923901,5935.9516536,99.926,-3.843,315.391,1.0
10.2166,128.169805,37.923926,5935.5535848,100.0,-3.909,315.578,1.0
10.2333,128.169761,37.923952,5935.1506392,100.072,-3.975,315.765,1.0
10.25,128.169717,37.923977,5934.7428168,100.142,-4.041,315.951,1.0
10.2666,128.169673,37.924002,5934.3301176,100.212,-4.107,316.138,1.0
10.2833,128.16963,37.924028,5933.912541600001,100.28,-4.174,316.325,1.0
10.3,128.169586,37.924054,5933.4900888,100.347,-4.24,316.511,1.0
10.3166,128.169542,37.924079,5933.0624544,100.414,-4.308,316.698,1.0
10.3333,128.169499,37.924105,5932.6299432,100.479,-4.375,316.884,1.0
10.35,128.169455,37.924131,5932.1925552,100.543,-4.443,317.071,1.0
10.3666,128.169412,37.924157,5931.7499856,100.605,-4.511,317.257,1.0
10.3833,128.169369,37.924183,5931.3025392,100.667,-4.579,317.444,1.0
10.4,128.169326,37.92421,5930.849911200001,100.729,-4.647,317.63,1.0
10.4166,128.169283,37.924236,5930.392406400001,100.789,-4.716,317.816,1.0
10.4333,128.16924,37.924263,5929.929415200001,100.848,-4.785,318.003,1.0
10.45,128.169197,37.924289,5929.461852,100.906,-4.854,318.189,1.0
10.4666,128.169155,37.924316,5928.9888024,100.964,-4.923,318.375,1.0
10.4833,128.169112,37.924343,5928.5105711999995,101.021,-4.993,318.561,1.0
10.5,128.16907,37.92437,5928.0274632,101.077,-5.063,318.747,1.0
10.5166,128.169028,37.924397,5927.5391736,101.132,-5.133,318.933,1.0
10.5333,128.168985,37.924424,5927.045397600001,101.187,-5.203,319.12,1.0
10.55,128.168943,37.924451,5926.5467448,101.241,-5.273,319.306,1.0
10.5666,128.168901,37.924479,5926.042605600001,101.295,-5.344,319.492,1.0
10.5833,128.16886,37.924506,5925.5332848,101.348,-5.415,319.678,1.0
10.6,128.168818,37.924534,5925.0187824,101.4,-5.486,319.864,1.0
10.6166,128.168776,37.924561,5924.4990984,101.452,-5.557,320.049,1.0
10.6333,128.168735,37.924589,5923.973928,101.504,-5.629,320.235,1.0
10.65,128.168694,37.924617,5923.443576,101.555,-5.7,320.421,1.0
10.6666,128.168652,37.924645,5922.9080424,101.605,-5.772,320.607,1.0
10.6833,128.168611,37.924673,5922.3670224,101.655,-5.844,320.793,1.0
10.7,128.16857,37.924701,5921.820516,101.705,-5.916,320.978,1.0
10.7166,128.168529,37.924729,5921.268828,101.755,-5.989,321.164,1.0
10.7333,128.168489,37.924758,5920.7116536,101.804,-6.061,321.35,1.0
10.75,128.168448,37.924786,5920.149297600001,101.853,-6.134,321.535,1.0
10.7666,128.168408,37.924815,5919.5814552,101.901,-6.207,321.721,1.0
10.7833,128.168367,37.924843,5919.0081264,101.95,-6.28,321.907,1.0
10.8,128.168327,37.924872,5918.4293112000005,101.998,-6.354,322.092,1.0
10.8166,128.168287,37.924901,5917.845009600001,102.046,-6.427,322.278,1.0
10.8333,128.168247,37.92493,5917.2552216,102.094,-6.501,322.463,1.0
10.85,128.168207,37.924959,5916.659947200001,102.141,-6.575,322.649,1.0
10.8666,128.168167,37.924988,5916.059186400001,102.189,-6.649,322.834,1.0
10.8833,128.168127,37.925018,5915.453244,102.236,-6.723,323.019,1.0
10.9,128.168088,37.925047,5914.841205600001,102.283,-6.798,323.205,1.0
10.9166,128.168049,37.925076,5914.223985600001,102.33,-6.873,323.39,1.0
10.9333,128.168009,37.925106,5913.601279200001,102.377,-6.947,323.575,1.0
10.95,128.16797,37.925136,5912.9727816,102.424,-7.022,323.761,1.0
10.9666,128.167931,37.925165,5912.338797600001,102.471,-7.098,323.946,1.0
10.9833,128.167892,37.925195,5911.6990224,102.518,-7.173,324.131,1.0
11.0,128.167853,37.925225,5911.0537608,102.565,-7.248,324.316,1.0
11.0166,128.167815,37.925255,5910.4030128,102.612,-7.324,324.501,1.0
11.0333,128.167776,37.925285,5909.7464736,102.659,-7.4,324.686,1.0
11.05,128.167738,37.925315,5909.0841432,102.706,-7.476,324.871,1.0
11.0666,128.1677,37.925346,5908.4163264,102.754,-7.552,325.057,1.0
11.0833,128.167662,37.925376,5907.742718400001,102.801,-7.629,325.242,1.0
11.1,128.167624,37.925407,5907.0633192000005,102.848,-7.706,325.427,1.0
11.1166,128.167586,37.925437,5906.378433600001,102.894,-7.782,325.612,1.0
11.1333,128.167548,37.925468,5905.687756800001,102.94,-7.859,325.797,1.0
11.15,128.16751,37.925499,5904.990984000001,102.984,-7.936,325.982,1.0
11.1666,128.167473,37.925529,5904.288724800001,103.027,-8.012,326.167,1.0
11.1833,128.167435,37.92556,5903.5803696,103.068,-8.089,326.352,1.0
11.2,128.167398,37.925591,5902.8665280000005,103.105,-8.166,326.537,1.0
11.2166,128.167361,37.925623,5902.146590400001,103.139,-8.242,326.723,1.0
11.2333,128.167324,37.925654,5901.4208616,103.169,-8.318,326.908,1.0
11.25,128.167287,37.925685,5900.6890368,103.192,-8.394,327.094,1.0
11.2666,128.167251,37.925716,5899.9514208,103.209,-8.469,327.28,1.0
11.2833,128.167214,37.925748,5899.207708800001,103.217,-8.544,327.466,1.0
11.3,128.167178,37.92578,5898.458205600001,103.216,-8.618,327.652,1.0
11.3166,128.167142,37.925811,5897.702606400001,103.202,-8.692,327.839,1.0
11.3333,128.167106,37.925843,5896.940911200001,103.175,-8.764,328.027,1.0
11.35,128.16707,37.925875,5896.17312,103.132,-8.836,328.215,1.0
11.3666,128.167034,37.925907,5895.3992328,103.07,-8.906,328.403,1.0
11.3833,128.166998,37.925939,5894.6192496,102.986,-8.974,328.593,1.0
11.4,128.166963,37.925971,5893.833170400001,102.878,-9.041,328.783,1.0
11.4166,128.166927,37.926003,5893.0409952,102.742,-9.107,328.974,1.0
11.4333,128.166892,37.926035,5892.242419200001,102.574,-9.171,329.165,1.0
11.45,128.166857,37.926068,5891.438052,102.371,-9.232,329.358,1.0
11.4666,128.166822,37.9261,5890.627284000001,102.128,-9.292,329.552,1.0
11.4833,128.166787,37.926133,5889.810420000001,101.842,-9.349,329.747,1.0
11.5,128.166753,37.926166,5888.98746,101.508,-9.404,329.943,1.0
11.5166,128.166719,37.926198,5888.158708800001,101.124,-9.456,330.141,1.0
11.5333,128.166684,37.926231,5887.324776,100.75,-9.512,330.338,1.0
11.55,128.16665,37.926264,5886.485052000001,100.39,-9.571,330.535,1.0
11.5666,128.166616,37.926297,5885.640146400001,100.042,-9.631,330.733,1.0
11.5833,128.166583,37.92633,5884.7900592000005,99.702,-9.692,330.93,1.0
11.6,128.166549,37.926364,5883.9344856,99.369,-9.75,331.128,1.0
11.6166,128.166516,37.926397,5883.07434,99.039,-9.807,331.327,1.0
11.6333,128.166482,37.92643,5882.208708,98.709,-9.86,331.526,1.0
11.65,128.166449,37.926464,5881.3381992,98.374,-9.911,331.726,1.0
11.6666,128.166416,37.926497,5880.4628136,98.032,-9.958,331.925,1.0
11.6833,128.166383,37.926531,5879.582551200001,97.68,-10.003,332.125,1.0
11.7,128.166351,37.926565,5878.6974119999995,97.317,-10.044,332.324,1.0
11.7166,128.166318,37.926598,5877.807700800001,96.94,-10.083,332.523,1.0
11.7333,128.166286,37.926632,5876.9134176,96.549,-10.12,332.723,1.0
11.75,128.166253,37.926666,5876.0145624,96.143,-10.154,332.922,1.0
11.7666,128.166221,37.9267,5875.11144,95.722,-10.185,333.121,1.0
11.7833,128.166189,37.926734,5874.204050400001,95.286,-10.215,333.32,1.0
11.8,128.166158,37.926769,5873.2926984,94.835,-10.241,333.52,1.0
11.8166,128.166126,37.926803,5872.3770792000005,94.37,-10.266,333.719,1.0
11.8333,128.166095,37.926837,5871.457497600001,93.891,-10.288,333.918,1.0
11.85,128.166063,37.926872,5870.5345632,93.401,-10.308,334.117,1.0
11.8666,128.166032,37.926906,5869.6076664,92.899,-10.326,334.316,1.0
11.8833,128.166001,37.926941,5868.677112,92.388,-10.341,334.514,1.0
11.9,128.165971,37.926976,5867.743509600001,91.868,-10.354,334.713,1.0
11.9166,128.16594,37.92701,5866.8062496,91.34,-10.365,334.911,1.0
11.9333,128.165909,37.927045,5865.866246400001,90.807,-10.374,335.109,1.0
11.95,128.165879,37.92708,5864.9231952,90.27,-10.38,335.307,1.0
11.9666,128.165849,37.927115,5863.9770960000005,89.73,-10.383,335.505,1.0
11.9833,128.165819,37.92715,5863.0282536,89.188,-10.384,335.702,1.0
12.0,128.165789,37.927186,5862.0769728000005,88.645,-10.383,335.898,1.0
12.0166,128.165759,37.927221,5861.1232536,88.103,-10.38,336.094,1.0
12.0333,128.16573,37.927256,5860.167096,87.562,-10.374,336.29,1.0
12.05,128.1657,37.927292,5859.2088048000005,87.024,-10.365,336.485,1.0
12.0666,128.165671,37.927327,5858.24838,86.489,-10.354,336.68,1.0
12.0833,128.165642,37.927363,5857.2858216,85.958,-10.341,336.873,1.0
12.1,128.165613,37.927398,5856.3217392,85.432,-10.325,337.067,1.0
12.1166,128.165584,37.927434,5855.355828000001,84.911,-10.307,337.259,1.0
12.1333,128.165556,37.92747,5854.3883928000005,84.396,-10.287,337.451,1.0
12.15,128.165527,37.927506,5853.419433600001,83.887,-10.264,337.642,1.0
12.1666,128.165499,37.927542,5852.4492552,83.384,-10.239,337.832,1.0
12.1833,128.165471,37.927578,5851.4778576,82.888,-10.212,338.022,1.0
12.2,128.165443,37.927614,5850.5055456,82.399,-10.183,338.21,1.0
12.2166,128.165415,37.92765,5849.532014400001,81.918,-10.151,338.398,1.0
12.2333,128.165387,37.927686,5848.557873600001,81.444,-10.118,338.585,1.0
12.25,128.16536,37.927723,5847.5828184,80.978,-10.082,338.772,1.0
12.2666,128.165332,37.927759,5846.6071536,80.524,-10.045,338.957,1.0
12.2833,128.165305,37.927796,5845.630879200001,80.081,-10.006,339.142,1.0
12.3,128.165278,37.927832,5844.6543,79.65,-9.966,339.326,1.0
12.3166,128.165251,37.927869,5843.677111200001,79.229,-9.924,339.509,1.0
12.3333,128.165224,37.927905,5842.6999224,78.819,-9.88,339.691,1.0
12.35,128.165197,37.927942,5841.7227336000005,78.419,-9.834,339.872,1.0
12.3666,128.165171,37.927979,5840.7455448,78.028,-9.787,340.053,1.0
12.3833,128.165145,37.928016,5839.7683560000005,77.645,-9.738,340.232,1.0
12.4,128.165118,37.928053,5838.791472,77.27,-9.687,340.411,1.0
12.4166,128.165092,37.92809,5837.814588000001,76.903,-9.635,340.589,1.0
12.4333,128.165066,37.928127,5836.8383136,76.543,-9.582,340.765,1.0
12.45,128.165041,37.928164,5835.8626488,76.19,-9.527,340.942,1.0
12.4666,128.165015,37.928202,5834.8875935999995,75.843,-9.471,341.117,1.0
12.4833,128.16499,37.928239,5833.9128432,75.502,-9.414,341.292,1.0
12.5,128.164964,37.928276,5832.9393119999995,75.102,-9.349,341.464,1.0
12.5166,128.164939,37.928314,5831.966695200001,74.643,-9.278,341.635,1.0
12.5333,128.164914,37.928351,5830.9959072,74.131,-9.201,341.803,1.0
12.55,128.164889,37.928389,5830.026948,73.572,-9.123,341.972,1.0
12.5666,128.164865,37.928427,5829.0601224,72.974,-9.043,342.139,1.0
12.5833,128.16484,37.928464,5828.0951256,72.343,-8.962,342.307,1.0
12.6,128.164816,37.928502,5827.1322624,71.688,-8.881,342.474,1.0
12.6166,128.164792,37.92854,5826.171532800001,71.018,-8.799,342.642,1.0
12.6333,128.164768,37.928578,5825.2129368000005,70.338,-8.716,342.81,1.0
12.65,128.164744,37.928616,5824.256474400001,69.657,-8.633,342.977,1.0
12.6666,128.164721,37.928654,5823.3024504,68.98,-8.548,343.144,1.0
12.6833,128.164697,37.928692,5822.350560000001,68.311,-8.462,343.311,1.0
12.7,128.164674,37.928731,5821.4014128,67.655,-8.375,343.477,1.0
12.7166,128.164651,37.928769,5820.4550088000005,67.014,-8.286,343.641,1.0
12.7333,128.164627,37.928807,5819.5110432,66.392,-8.195,343.805,1.0
12.75,128.164604,37.928846,5818.569820799999,65.79,-8.102,343.967,1.0
12.7666,128.164582,37.928884,5817.6316464,65.208,-8.008,344.128,1.0
12.7833,128.164559,37.928923,5816.696215200001,64.649,-7.911,344.288,1.0
12.8,128.164536,37.928961,5815.7641368,64.111,-7.813,344.445,1.0
12.8166,128.164514,37.929,5814.835106400001,63.596,-7.714,344.601,1.0
12.8333,128.164492,37.929039,5813.9097336,63.101,-7.612,344.755,1.0
12.85,128.16447,37.929078,5812.9877136000005,62.628,-7.51,344.908,1.0
12.8666,128.164448,37.929116,5812.069351200001,62.174,-7.405,345.058,1.0
12.8833,128.164426,37.929155,5811.1546464,61.739,-7.299,345.207,1.0
12.9,128.164404,37.929194,5810.243904,61.322,-7.192,345.354,1.0
12.9166,128.164383,37.929233,5809.336819200001,60.921,-7.084,345.5,1.0
12.9333,128.164361,37.929272,5808.434001600001,60.536,-6.974,345.644,1.0
12.95,128.16434,37.929312,5807.5354512,60.166,-6.864,345.787,1.0
12.9666,128.164319,37.929351,5806.641168,59.809,-6.752,345.928,1.0
12.9833,128.164298,37.92939,5805.751152000001,59.464,-6.64,346.068,1.0
13.0,128.164277,37.929429,5804.865708,59.13,-6.526,346.206,1.0
13.0166,128.164256,37.929469,5803.9848360000005,58.806,-6.412,346.344,1.0
13.0333,128.164236,37.929508,5803.1088408000005,58.492,-6.297,346.48,1.0
13.0499,128.164215,37.929548,5802.2374176,58.186,-6.182,346.615,1.0
13.0666,128.164195,37.929587,5801.371176,57.888,-6.066,346.749,1.0
13.0833,128.164175,37.929627,5800.509506400001,57.598,-5.949,346.882,1.0
13.1,128.164154,37.929667,5799.6533232,57.314,-5.832,347.014,1.0
13.1166,128.164135,37.929706,5798.8020168,57.035,-5.715,347.145,1.0
13.1333,128.164115,37.929746,5797.956196800001,56.762,-5.597,347.276,1.0
13.15,128.164095,37.929786,5797.1155584,56.493,-5.478,347.406,1.0
13.1666,128.164076,37.929826,5796.2801016,56.229,-5.36,347.535,1.0
13.1833,128.164056,37.929866,5795.450436,55.968,-5.241,347.663,1.0
13.2,128.164037,37.929906,5794.626256800001,55.712,-5.122,347.791,1.0
13.2166,128.164018,37.929946,5793.8078688000005,55.458,-5.002,347.918,1.0
13.2333,128.163999,37.929986,5792.9949672,55.207,-4.883,348.045,1.0
13.25,128.16398,37.930026,5792.187856800001,54.959,-4.763,348.171,1.0
13.2666,128.163961,37.930066,5791.3865376,54.714,-4.642,348.296,1.0
13.2833,128.163943,37.930106,5790.591314400001,54.47,-4.522,348.421,1.0
13.3,128.163924,37.930147,5789.802187200001,54.229,-4.401,348.545,1.0
13.3166,128.163906,37.930187,5789.0188512,53.99,-4.28,348.669,1.0
13.3333,128.163888,37.930227,5788.241916,53.754,-4.159,348.793,1.0
13.35,128.16387,37.930268,5787.470772,53.523,-4.037,348.916,1.0
13.3666,128.163852,37.930308,5786.705724,53.296,-3.916,349.038,1.0
13.3833,128.163834,37.930349,5785.9470768,53.075,-3.795,349.161,1.0
13.4,128.163816,37.930389,5785.1945256,52.859,-3.674,349.283,1.0
13.4166,128.163799,37.93043,5784.4483752,52.65,-3.553,349.405,1.0
13.4333,128.163782,37.930471,5783.7086256,52.447,-3.432,349.527,1.0
13.45,128.163764,37.930511,5782.9752768,52.251,-3.312,349.648,1.0
13.4666,128.163747,37.930552,5782.2483288,52.06,-3.191,349.769,1.0
13.4833,128.16373,37.930593,5781.5277816,51.877,-3.07,349.889,1.0
13.5,128.163713,37.930634,5780.81394,51.699,-2.949,350.009,1.0
13.5166,128.163697,37.930675,5780.1064992,51.528,-2.829,350.129,1.0
13.5333,128.16368,37.930716,5779.405764,51.363,-2.708,350.249,1.0
13.55,128.163664,37.930757,5778.7120392,51.204,-2.588,350.368,1.0
13.5666,128.163647,37.930798,5778.024715200001,51.05,-2.468,350.487,1.0
13.5833,128.163631,37.930839,5777.3444016,50.901,-2.348,350.605,1.0
13.6,128.163615,37.93088,5776.6710984,50.758,-2.227,350.724,1.0
13.6166,128.163599,37.930921,5776.004500800001,50.619,-2.107,350.842,1.0
13.6333,128.163583,37.930962,5775.3449136,50.484,-1.988,350.96,1.0
13.65,128.163568,37.931004,5774.692336800001,50.354,-1.868,351.077,1.0
13.6666,128.163552,37.931045,5774.046770400001,50.228,-1.748,351.195,1.0
13.6833,128.163537,37.931086,5773.4085192,50.106,-1.629,351.312,1.0
13.7,128.163521,37.931128,5772.777278400001,49.987,-1.509,351.429,1.0
13.7166,128.163506,37.931169,5772.153048,49.871,-1.39,351.547,1.0
13.7333,128.163491,37.931211,5771.536437600001,49.759,-1.271,351.664,1.0
13.75,128.163476,37.931252,5770.926837600001,49.649,-1.152,351.781,1.0
13.7666,128.163461,37.931294,5770.3245528,49.543,-1.033,351.898,1.0
13.7833,128.163447,37.931335,5769.729583200001,49.439,-0.914,352.014,1.0
13.8,128.163432,37.931377,5769.1422336000005,49.337,-0.796,352.131,1.0
13.8166,128.163418,37.931418,5768.5618944,49.238,-0.677,352.248,1.0
13.8333,128.163403,37.93146,5767.98948,49.141,-0.558,352.365,1.0
13.85,128.163389,37.931502,5767.4243808,49.046,-0.44,352.482,1.0
13.8666,128.163375,37.931544,5766.8665968000005,48.952,-0.322,352.598,1.0
13.8833,128.163361,37.931585,5766.316737600001,48.861,-0.203,352.715,1.0
13.9,128.163348,37.931627,5765.7741936,48.771,-0.085,352.832,1.0
13.9166,128.163334,37.931669,5765.2395744000005,48.683,0.032,352.949,1.0
13.9333,128.163321,37.931711,5764.7125752,48.596,0.15,353.065,1.0
13.95,128.163307,37.931753,5764.193196,48.51,0.268,353.182,1.0
13.9666,128.163294,37.931795,5763.6814368000005,48.426,0.386,353.299,1.0
13.9833,128.163281,37.931837,5763.1776024,48.343,0.504,353.416,1.0
14.0,128.163268,37.931879,5762.681692800001,48.26,0.622,353.533,1.0
14.0166,128.163255,37.931921,5762.1934032,48.179,0.739,353.649,1.0
14.0333,128.163242,37.931963,5761.713038400001,48.098,0.857,353.766,1.0
14.05,128.16323,37.932005,5761.2405984,48.018,0.975,353.883,1.0
14.0666,128.163217,37.932047,5760.7760832,47.938,1.093,354.0,1.0
14.0833,128.163205,37.93209,5760.319492800001,47.859,1.211,354.117,1.0
14.1,128.163193,37.932132,5759.8708272,47.781,1.328,354.234,1.0
14.1166,128.163181,37.932174,5759.4303912000005,47.703,1.446,354.352,1.0
14.1333,128.163169,37.932216,5758.9975752,47.625,1.564,354.469,1.0
14.15,128.163157,37.932259,5758.5732935999995,47.547,1.682,354.586,1.0
14.1666,128.163145,37.932301,5758.1569368,47.469,1.8,354.703,1.0
14.1833,128.163134,37.932343,5757.748809600001,47.392,1.917,354.82,1.0
14.2,128.163122,37.932386,5757.3486072,47.315,2.035,354.938,1.0
14.2166,128.163111,37.932428,5756.9566343999995,47.237,2.153,355.055,1.0
14.2333,128.1631,37.932471,5756.573196,47.16,2.271,355.172,1.0
14.25,128.163089,37.932513,5756.1976824,47.082,2.389,355.29,1.0
14.2666,128.163078,37.932556,5755.8303983999995,47.004,2.507,355.407,1.0
14.2833,128.163067,37.932598,5755.4716488,46.926,2.625,355.525,1.0
14.3,128.163057,37.932641,5755.1211288,46.848,2.743,355.642,1.0
14.3166,128.163046,37.932683,5754.7788384000005,46.77,2.862,355.76,1.0
14.3333,128.163036,37.932726,5754.4450824000005,46.691,2.98,355.877,1.0
14.35,128.163025,37.932769,5754.119556000001,46.612,3.098,355.995,1.0
14.3666,128.163015,37.932811,5753.8025640000005,46.532,3.217,356.112,1.0
14.3833,128.163005,37.932854,5753.4941064,46.452,3.335,356.23,1.0
14.4,128.162995,37.932897,5753.1938784,46.372,3.454,356.347,1.0
14.4166,128.162986,37.93294,5752.9024896,46.291,3.573,356.465,1.0
14.4333,128.162976,37.932982,5752.6193304,46.209,3.692,356.582,1.0
14.45,128.162966,37.933025,5752.3447056,46.127,3.811,356.699,1.0
14.4666,128.162957,37.933068,5752.078920000001,46.045,3.93,356.817,1.0
14.4833,128.162948,37.933111,5751.8216688,45.961,4.049,356.934,1.0
14.5,128.162939,37.933153,5751.572952,45.878,4.168,357.052,1.0
14.5166,128.16293,37.933196,5751.332769600001,45.793,4.288,357.169,1.0
14.5333,128.162921,37.933239,5751.1014264000005,45.708,4.408,357.286,1.0
14.55,128.162912,37.933282,5750.8789224,45.622,4.527,357.404,1.0
14.5666,128.162904,37.933325,5750.6649528,45.535,4.647,357.521,1.0
14.5833,128.162895,37.933368,5750.4598224,45.448,4.767,357.638,1.0
14.6,128.162887,37.933411,5750.2635312,45.36,4.887,357.755,1.0
14.6166,128.162879,37.933454,5750.075774400001,45.272,5.008,357.872,1.0
14.6333,128.16287,37.933497,5749.8971616,45.183,5.128,357.989,1.0
14.65,128.162862,37.93354,5749.7270832,45.094,5.249,358.106,1.0
14.6666,128.162855,37.933583,5749.5661488,45.004,5.37,358.223,1.0
14.6833,128.162847,37.933626,5749.4140536,44.913,5.491,358.34,1.0
14.7,128.162839,37.933669,5749.270797600001,44.822,5.612,358.457,1.0
14.7166,128.162832,37.933712,5749.1363808,44.731,5.733,358.574,1.0
14.7333,128.162825,37.933755,5749.011108,44.639,5.854,358.69,1.0
14.75,128.162817,37.933798,5748.8946744,44.547,5.976,358.807,1.0
14.7666,128.16281,37.933841,5748.78708,44.454,6.098,358.923,1.0
14.7833,128.162803,37.933884,5748.6889344,44.361,6.22,359.04,1.0
14.8,128.162796,37.933928,5748.599628000001,44.268,6.342,359.156,1.0
