Time,Longitude,Latitude,Altitude,Roll (deg),Pitch (deg),Yaw (deg),Health
0.0,128.181881,37.923646,7000.146528,0.0,-0.003,0.0,1.0
0.0166,128.181881,37.923691,7000.1605488000005,0.0,-0.012,0.0,1.0
0.0333,128.181881,37.923736,7000.173960000001,0.0,-0.025,0.0,1.0
0.05,128.181881,37.923781,7000.186152000001,0.0,-0.04,359.999,1.0
0.0666,128.181881,37.923826,7000.1977344,0.0,-0.055,359.999,1.0
0.0833,128.181881,37.923871,7000.2084024,0.0,-0.071,0.0,1.0
0.1,128.181881,37.923916,7000.218156000001,0.0,-0.086,0.0,1.0
0.1166,128.181881,37.923961,7000.226995200001,0.0,-0.101,0.0,1.0
0.1333,128.181881,37.924006,7000.235224800001,0.0,-0.113,0.0,1.0
0.15,128.181881,37.924051,7000.24254,0.0,-0.124,0.0,1.0
0.1666,128.181881,37.924096,7000.248636,0.0,-0.133,0.0,1.0
0.1833,128.181881,37.924141,7000.2544272000005,0.0,-0.141,0.0,1.0
0.2,128.181881,37.924186,7000.2589992,0.0,-0.146,0.0,1.0
0.2166,128.181881,37.924231,7000.2629615999995,0.0,-0.15,0.0,1.0
0.2333,128.181881,37.924276,7000.266009600001,0.0,-0.153,0.0,1.0
0.25,128.181881,37.924321,7000.268448,0.0,-0.154,0.0,1.0
0.2666,128.181881,37.924366,7000.2696672,0.0,-0.155,0.0,1.0
0.2833,128.181881,37.924411,7000.270581600001,0.0,-0.154,0.0,1.0
0.3,128.181881,37.924456,7000.270581600001,0.0,-0.153,0.0,1.0
0.3166,128.181881,37.924501,7000.2696672,0.0,-0.151,0.0,1.0
0.3333,128.181881,37.924546,7000.2681432,0.0,-0.149,0.0,1.0
0.35,128.181881,37.924591,7000.266009600001,0.0,-0.147,0.0,1.0
0.3666,128.181881,37.924636,7000.2629615999995,0.001,-0.145,0.0,1.0
0.3833,128.181881,37.924682,7000.259304,0.001,-0.143,0.0,1.0
0.4,128.181881,37.924727,7000.2550368,0.001,-0.141,0.0,1.0
0.4166,128.181881,37.924772,7000.2501600000005,0.001,-0.139,0.0,1.0
0.4333,128.181881,37.924817,7000.2443688,0.001,-0.137,0.0,1.0
0.45,128.181881,37.924862,7000.237968,0.001,-0.135,0.0,1.0
0.4666,128.181881,37.924907,7000.2312624,0.001,-0.133,0.0,1.0
0.4833,128.181881,37.924952,7000.223642400001,0.001,-0.132,0.0,1.0
0.5,128.181881,37.924998,7000.2154128,0.002,-0.131,0.0,1.0
0.5166,128.181881,37.925043,7000.2065736,0.002,-0.13,0.0,1.0
0.5333,128.181881,37.925088,7000.1974296,0.002,-0.129,0.0,1.0
0.55,128.181881,37.925133,7000.1873712,0.002,-0.128,0.0,1.0
0.5666,128.181881,37.925179,7000.1767032,0.002,-0.127,0.0,1.0
0.5833,128.181881,37.925224,7000.1657304,0.002,-0.126,0.0,1.0
0.6,128.181881,37.925269,7000.154148,0.003,-0.125,0.0,1.0
0.6166,128.181881,37.925314,7000.141956,0.003,-0.124,0.0,1.0
0.6333,128.181881,37.92536,7000.1294592,0.003,-0.124,0.0,1.0
0.65,128.181881,37.925405,7000.116048,0.003,-0.123,0.0,1.0
0.6666,128.181881,37.92545,7000.102332,0.003,-0.122,0.0,1.0
0.6833,128.181881,37.925495,7000.088311200001,0.004,-0.121,0.0,1.0
0.7,128.181881,37.925541,7000.073376,0.004,-0.121,0.0,1.0
0.7166,128.181881,37.925586,7000.0584408,0.004,-0.12,0.0,1.0
0.7333,128.181881,37.925631,7000.0425912,0.004,-0.119,0.0,1.0
0.75,128.181881,37.925677,7000.026436800001,0.004,-0.118,0.001,1.0
0.7666,128.181881,37.925722,7000.009977600001,0.005,-0.117,0.001,1.0
0.7833,128.181881,37.925767,6999.9929088,0.005,-0.116,0.001,1.0
0.8,128.181881,37.925813,6999.9755352,0.005,-0.115,0.001,1.0
0.8166,128.181881,37.925858,6999.957552000001,0.005,-0.114,0.001,1.0
0.8333,128.181881,37.925903,6999.939264000001,0.006,-0.113,0.001,1.0
0.85,128.181881,37.925949,6999.9206712,0.006,-0.111,0.001,1.0
0.8666,128.181881,37.925994,6999.901468800001,0.006,-0.11,0.001,1.0
0.8833,128.181881,37.92604,6999.8819616,0.007,-0.109,0.001,1.0
0.9,128.181881,37.926085,6999.8621496000005,0.007,-0.108,0.001,1.0
0.9166,128.181881,37.92613,6999.841728,0.007,-0.107,0.0,1.0
0.9333,128.181881,37.926176,6999.821001600001,0.007,-0.106,0.0,1.0
0.95,128.181881,37.926221,6999.799970400001,0.008,-0.104,0.0,1.0
0.9666,128.181881,37.926267,6999.7786344,0.008,-0.103,0.0,1.0
0.9833,128.181881,37.926312,6999.7569936,0.008,-0.102,0.0,1.0
1.0,128.181881,37.926358,6999.735048,0.008,-0.1,0.0,1.0
1.0166,128.181881,37.926403,6999.712492800001,0.009,-0.099,0.0,1.0
1.0333,128.181881,37.926449,6999.689937600001,0.009,-0.098,0.001,1.0
1.05,128.181881,37.926494,6999.6667728,0.009,-0.096,0.001,1.0
1.0666,128.181881,37.926539,6999.643608,0.01,-0.095,0.001,1.0
1.0833,128.181881,37.926585,6999.619833600001,0.01,-0.094,0.001,1.0
1.1,128.181881,37.926631,6999.5960592,0.01,-0.092,0.001,1.0
1.1166,128.181881,37.926676,6999.5716752,0.011,-0.091,0.001,1.0
1.1333,128.181881,37.926722,6999.5472912000005,0.011,-0.089,0.001,1.0
1.15,128.181881,37.926767,6999.522602399999,0.011,-0.088,0.001,1.0
1.1666,128.181881,37.926813,6999.497304,0.012,-0.087,0.001,1.0
1.1833,128.181881,37.926858,6999.472005600001,0.012,-0.085,0.001,1.0
1.2,128.181881,37.926904,6999.4467072,0.013,-0.084,0.001,1.0
1.2166,128.181881,37.926949,6999.4207992,0.013,-0.082,0.001,1.0
1.2333,128.181881,37.926995,6999.3948912000005,0.013,-0.081,0.001,1.0
1.25,128.181881,37.927041,6999.3683736,0.014,-0.08,0.0,1.0
1.2666,128.181881,37.927086,6999.341856000001,0.014,-0.078,0.0,1.0
1.2833,128.181881,37.927132,6999.315338400001,0.014,-0.077,0.0,1.0
1.3,128.181881,37.927177,6999.288211200001,0.015,-0.075,0.0,1.0
1.3166,128.181881,37.927223,6999.261084000001,0.015,-0.074,0.001,1.0
1.3333,128.181881,37.927269,6999.233956800001,0.016,-0.072,0.001,1.0
1.35,128.181881,37.927314,6999.206220000001,0.016,-0.071,0.001,1.0
1.3666,128.181881,37.92736,6999.1784832,0.016,-0.069,0.001,1.0
1.3833,128.181881,37.927406,6999.150746400001,0.017,-0.067,0.001,1.0
1.4,128.181881,37.927451,6999.1227048,0.017,-0.066,0.001,1.0
1.4166,128.181881,37.927497,6999.094358400001,0.018,-0.064,0.001,1.0
1.4333,128.181881,37.927543,6999.066012,0.018,-0.063,0.001,1.0
1.45,128.181881,37.927588,6999.037360800001,0.019,-0.061,0.001,1.0
1.4666,128.181881,37.927634,6999.008709600001,0.019,-0.06,0.001,1.0
1.4833,128.181881,37.92768,6998.979753600001,0.02,-0.058,0.001,1.0
1.5,128.181881,37.927726,6998.950492800001,0.02,-0.057,0.001,1.0
1.5166,128.181881,37.927771,6998.9215368000005,0.021,-0.055,0.001,1.0
1.5333,128.181881,37.927817,6998.8919712,0.021,-0.054,0.001,1.0
1.55,128.181881,37.927863,6998.862710400001,0.022,-0.052,0.001,1.0
1.5666,128.181881,37.927909,6998.8331448,0.022,-0.051,0.001,1.0
1.5833,128.181881,37.927954,6998.803274400001,0.023,-0.049,0.001,1.0
1.6,128.181881,37.928,6998.7734040000005,0.023,-0.048,0.001,1.0
1.6166,128.181881,37.928046,6998.743533600001,0.024,-0.046,0.001,1.0
1.6333,128.181881,37.928092,6998.7136632,0.024,-0.045,0.001,1.0
1.65,128.181881,37.928138,6998.683488000001,0.025,-0.043,0.001,1.0
1.6666,128.181881,37.928183,6998.6533128,0.025,-0.042,0.001,1.0
1.6833,128.181881,37.928229,6998.622832800001,0.026,-0.04,0.001,1.0
1.7,128.181881,37.928275,6998.5923528,0.026,-0.038,0.001,1.0
1.7166,128.181881,37.928321,6998.5618728,0.027,-0.037,0.001,1.0
1.7333,128.181881,37.928367,6998.5313928000005,0.028,-0.035,0.001,1.0
1.75,128.181881,37.928413,6998.500608,0.028,-0.034,0.001,1.0
1.7666,128.181881,37.928459,6998.4698232,0.029,-0.032,0.001,1.0
1.7833,128.181881,37.928505,6998.439038400001,0.029,-0.031,0.001,1.0
1.8,128.181881,37.92855,6998.4082536000005,0.03,-0.029,0.001,1.0
1.8166,128.181881,37.928596,6998.3774688,0.031,-0.027,0.001,1.0
1.8333,128.181881,37.928642,6998.346379200001,0.031,-0.026,0.001,1.0
1.85,128.181881,37.928688,6998.3152896,0.032,-0.024,0.001,1.0
1.8666,128.181881,37.928734,6998.284504800001,0.032,-0.023,0.001,1.0
1.8833,128.181881,37.92878,6998.253110400001,0.033,-0.021,0.001,1.0
1.9,128.181881,37.928826,6998.2220208,0.034,-0.02,0.001,1.0
1.9166,128.181881,37.928872,6998.1909312,0.034,-0.018,0.001,1.0
1.9333,128.181881,37.928918,6998.159841600001,0.035,-0.017,0.001,1.0
1.95,128.181881,37.928964,6998.128447200001,0.035,-0.016,0.001,1.0
1.9666,128.181881,37.92901,6998.0970528,0.036,-0.014,0.001,1.0
1.9833,128.181881,37.929056,6998.065963200001,0.037,-0.013,0.001,1.0
2.0,128.181881,37.929102,6998.034568800001,0.037,-0.011,0.001,1.0
2.0166,128.181881,37.929148,6998.003174400001,0.038,-0.01,0.001,1.0
2.0333,128.181881,37.929194,6997.9720848,0.039,-0.008,0.001,1.0
2.05,128.181881,37.92924,6997.940690400001,0.039,-0.007,0.001,1.0
2.0666,128.181881,37.929286,6997.909296000001,0.04,-0.007,0.001,1.0
2.0833,128.181881,37.929332,6997.877901600001,0.041,-0.006,0.001,1.0
2.1,128.181881,37.929378,6997.8465072,0.041,-0.006,0.002,1.0
2.1166,128.181881,37.929424,6997.8151128,0.042,-0.006,0.002,1.0
2.1333,128.181881,37.929471,6997.7837184,0.043,-0.006,0.002,1.0
2.15,128.181881,37.929517,6997.752324000001,0.044,-0.006,0.002,1.0
2.1666,128.181881,37.929563,6997.7209296,0.044,-0.006,0.002,1.0
2.1833,128.181881,37.929609,6997.6895352,0.045,-0.007,0.002,1.0
2.2,128.181882,37.929655,6997.6581408,0.046,-0.008,0.002,1.0
2.2166,128.181882,37.929701,6997.6267464,0.046,-0.008,0.002,1.0
2.2333,128.181882,37.929747,6997.595352000001,0.047,-0.009,0.002,1.0
2.25,128.181882,37.929793,6997.5639576,0.048,-0.01,0.002,1.0
2.2666,128.181882,37.92984,6997.5325632,0.048,-0.011,0.002,1.0
2.2833,128.181882,37.929886,6997.5011688,0.049,-0.011,0.002,1.0
2.3,128.181882,37.929932,6997.4697744000005,0.05,-0.012,0.002,1.0
2.3166,128.181882,37.929978,6997.43838,0.051,-0.013,0.002,1.0
2.3333,128.181882,37.930024,6997.406985600001,0.051,-0.013,0.002,1.0
2.35,128.181882,37.930071,6997.375591200001,0.052,-0.014,0.002,1.0
2.3666,128.181882,37.930117,6997.343892000001,0.053,-0.015,0.002,1.0
2.3833,128.181882,37.930163,6997.312497600001,0.053,-0.015,0.002,1.0
2.4,128.181882,37.930209,6997.2811032,0.054,-0.016,0.002,1.0
2.4166,128.181882,37.930256,6997.2497088,0.055,-0.016,0.001,1.0
2.4333,128.181882,37.930302,6997.218314400001,0.056,-0.016,0.001,1.0
2.45,128.181882,37.930348,6997.186920000001,0.056,-0.017,0.001,1.0
2.4666,128.181882,37.930394,6997.1555256,0.057,-0.017,0.001,1.0
2.4833,128.181882,37.930441,6997.1241312,0.058,-0.017,0.001,1.0
2.5,128.181882,37.930487,6997.0927368,0.059,-0.018,0.002,1.0
2.5166,128.181882,37.930533,6997.0613424,0.059,-0.018,0.002,1.0
2.5333,128.181882,37.93058,6997.029947999999,0.06,-0.018,0.002,1.0
2.55,128.181882,37.930626,6996.9988584,0.061,-0.018,0.002,1.0
2.5666,128.181882,37.930672,6996.967464,0.062,-0.019,0.002,1.0
2.5833,128.181882,37.930719,6996.9360696,0.063,-0.019,0.002,1.0
2.6,128.181882,37.930765,6996.9046751999995,0.063,-0.019,0.002,1.0
2.6166,128.181882,37.930811,6996.8732808,0.064,-0.02,0.002,1.0
2.6333,128.181882,37.930858,6996.8421912,0.065,-0.02,0.002,1.0
2.65,128.181882,37.930904,6996.8107968,0.066,-0.02,0.002,1.0
2.6666,128.181882,37.930951,6996.7794023999995,0.067,-0.021,0.002,1.0
2.6833,128.181882,37.930997,6996.7483128,0.068,-0.021,0.002,1.0
2.7,128.181882,37.931043,6996.7169184,0.069,-0.022,0.002,1.0
2.7166,128.181882,37.93109,6996.685524,0.069,-0.022,0.002,1.0
2.7333,128.181882,37.931136,6996.654434399999,0.07,-0.023,0.002,1.0
2.75,128.181882,37.931183,6996.62304,0.071,-0.023,0.002,1.0
2.7666,128.181882,37.931229,6996.5919504,0.072,-0.023,0.002,1.0
2.7833,128.181882,37.931276,6996.560860800001,0.073,-0.024,0.002,1.0
2.8,128.181882,37.931322,6996.5294664,0.074,-0.024,0.002,1.0
2.8166,128.181882,37.931369,6996.4983768,0.075,-0.025,0.002,1.0
2.8333,128.181882,37.931415,6996.467287200001,0.076,-0.025,0.002,1.0
2.85,128.181882,37.931462,6996.436197600001,0.077,-0.025,0.002,1.0
2.8666,128.181882,37.931508,6996.405108,0.078,-0.026,0.002,1.0
2.8833,128.181882,37.931555,6996.374018400001,0.079,-0.026,0.002,1.0
2.9,128.181882,37.931601,6996.342928800001,0.079,-0.026,0.002,1.0
2.9166,128.181882,37.931648,6996.3118392,0.08,-0.027,0.002,1.0
2.9333,128.181882,37.931694,6996.2807496000005,0.081,-0.027,0.002,1.0
2.95,128.181882,37.931741,6996.24966,0.082,-0.027,0.002,1.0
2.9666,128.181882,37.931788,6996.218570400001,0.083,-0.028,0.002,1.0
2.9833,128.181882,37.931834,6996.1877856,0.084,-0.028,0.002,1.0
3.0,128.181882,37.931881,6996.156696000001,0.085,-0.028,0.002,1.0
3.0166,128.181882,37.931927,6996.125606400001,0.086,-0.029,0.002,1.0
3.0333,128.181882,37.931974,6996.0948216,0.087,-0.029,0.002,1.0
3.05,128.181882,37.932021,6996.0640368,0.088,-0.029,0.002,1.0
3.0666,128.181882,37.932067,6996.032947200001,0.089,-0.03,0.002,1.0
3.0833,128.181882,37.932114,6996.0021624,0.09,-0.03,0.002,1.0
3.1,128.181882,37.932161,6995.971377600001,0.091,-0.03,0.002,1.0
3.1166,128.181882,37.932207,6995.940592800001,0.092,-0.031,0.002,1.0
3.1333,128.181882,37.932254,6995.909808,0.093,-0.031,0.003,1.0
3.15,128.181882,37.932301,6995.8790232,0.095,-0.032,0.003,1.0
3.1666,128.181882,37.932347,6995.848238400001,0.096,-0.032,0.003,1.0
3.1833,128.181882,37.932394,6995.8174536,0.097,-0.032,0.003,1.0
3.2,128.181882,37.932441,6995.7866688,0.098,-0.033,0.003,1.0
3.2166,128.181882,37.932488,6995.7561888,0.099,-0.034,0.003,1.0
3.2333,128.181882,37.932534,6995.725404,0.1,-0.034,0.003,1.0
3.25,128.181882,37.932581,6995.694924,0.101,-0.035,0.003,1.0
3.2666,128.181882,37.932628,6995.6641392,0.102,-0.035,0.003,1.0
3.2833,128.181882,37.932675,6995.633659200001,0.103,-0.036,0.003,1.0
3.3,128.181882,37.932721,6995.603179200001,0.104,-0.037,0.003,1.0
3.3166,128.181882,37.932768,6995.5726992,0.105,-0.037,0.003,1.0
3.3333,128.181882,37.932815,6995.5422192000005,0.106,-0.038,0.003,1.0
3.35,128.181882,37.932862,6995.5117392,0.107,-0.039,0.003,1.0
3.3666,128.181882,37.932909,6995.481259200001,0.108,-0.039,0.003,1.0
3.3833,128.181883,37.932956,6995.4507792,0.109,-0.04,0.003,1.0
3.4,128.181883,37.933002,6995.4202992,0.11,-0.041,0.003,1.0
3.4166,128.181883,37.933049,6995.389819200001,0.111,-0.041,0.003,1.0
3.4333,128.181883,37.933096,6995.359644,0.112,-0.042,0.003,1.0
3.45,128.181883,37.933143,6995.329164000001,0.113,-0.042,0.003,1.0
3.4666,128.181883,37.93319,6995.2989888,0.114,-0.043,0.003,1.0
3.4833,128.181883,37.933237,6995.2685088,0.115,-0.044,0.003,1.0
3.5,128.181883,37.933284,6995.238333600001,0.116,-0.044,0.003,1.0
3.5166,128.181883,37.933331,6995.2081584,0.117,-0.045,0.003,1.0
3.5333,128.181883,37.933378,6995.177983200001,0.119,-0.046,0.003,1.0
3.55,128.181883,37.933425,6995.1475032,0.12,-0.046,0.003,1.0
3.5666,128.181883,37.933471,6995.117328,0.121,-0.047,0.003,1.0
3.5833,128.181883,37.933518,6995.0871528,0.122,-0.048,0.003,1.0
3.6,128.181883,37.933565,6995.0569776,0.123,-0.049,0.003,1.0
3.6166,128.181883,37.933612,6995.0271072,0.124,-0.05,0.003,1.0
3.6333,128.181883,37.933659,6994.996932,0.125,-0.051,0.003,1.0
3.65,128.181883,37.933706,6994.966756800001,0.126,-0.051,0.003,1.0
3.6666,128.181883,37.933753,6994.9365816,0.128,-0.052,0.003,1.0
3.6833,128.181883,37.9338,6994.906711200001,0.129,-0.053,0.003,1.0
3.7,128.181883,37.933847,6994.876536000001,0.13,-0.054,0.003,1.0
3.7166,128.181883,37.933895,6994.846665600001,0.131,-0.055,0.003,1.0
3.7333,128.181883,37.933942,6994.8164904000005,0.132,-0.057,0.003,1.0
3.75,128.181883,37.933989,6994.786620000001,0.133,-0.058,0.003,1.0
3.7666,128.181883,37.934036,6994.7567496,0.135,-0.059,0.003,1.0
3.7833,128.181883,37.934083,6994.726574400001,0.136,-0.06,0.003,1.0
3.8,128.181883,37.93413,6994.696704,0.137,-0.061,0.003,1.0
3.8166,128.181883,37.934177,6994.666833600001,0.138,-0.062,0.003,1.0
3.8333,128.181883,37.934224,6994.6369632000005,0.14,-0.064,0.003,1.0
3.85,128.181883,37.934271,6994.607092800001,0.141,-0.065,0.003,1.0
3.8666,128.181883,37.934318,6994.5769176,0.142,-0.066,0.003,1.0
3.8833,128.181883,37.934366,6994.547047200001,0.143,-0.068,0.003,1.0
3.9,128.181883,37.934413,6994.5171768,0.145,-0.069,0.003,1.0
3.9166,128.181883,37.93446,6994.487306400001,0.146,-0.07,0.003,1.0
3.9333,128.181883,37.934507,6994.457436000001,0.147,-0.072,0.003,1.0
3.95,128.181883,37.934554,6994.427565600001,0.149,-0.073,0.003,1.0
3.9666,128.181883,37.934602,6994.3976952,0.15,-0.075,0.003,1.0
3.9833,128.181883,37.934649,6994.367824800001,0.151,-0.076,0.003,1.0
4.0,128.181883,37.934696,6994.3379544,0.153,-0.078,0.003,1.0
4.0166,128.181883,37.934743,6994.308084000001,0.154,-0.079,0.004,1.0
4.0333,128.181883,37.934791,6994.2782136000005,0.155,-0.081,0.004,1.0
4.05,128.181883,37.934838,6994.2483432,0.157,-0.083,0.004,1.0
4.0666,128.181883,37.934885,6994.2184728,0.158,-0.084,0.004,1.0
4.0833,128.181883,37.934932,6994.1886024,0.159,-0.086,0.004,1.0
4.1,128.181883,37.93498,6994.158732000001,0.161,-0.088,0.004,1.0
4.1166,128.181883,37.935027,6994.1288616,0.162,-0.09,0.004,1.0
4.1333,128.181883,37.935074,6994.0989912000005,0.163,-0.092,0.004,1.0
4.15,128.181883,37.935122,6994.0691208,0.164,-0.094,0.004,1.0
4.1666,128.181883,37.935169,6994.0389456,0.166,-0.096,0.004,1.0
4.1833,128.181883,37.935216,6994.0090752,0.167,-0.098,0.004,1.0
4.2,128.181884,37.935264,6993.979204800001,0.168,-0.1,0.004,1.0
4.2166,128.181884,37.935311,6993.9493344,0.169,-0.102,0.004,1.0
4.2333,128.181884,37.935358,6993.919159200001,0.171,-0.104,0.004,1.0
4.25,128.181884,37.935406,6993.8892888,0.172,-0.106,0.004,1.0
4.2666,128.181884,37.935453,6993.8591136000005,0.173,-0.108,0.004,1.0
4.2833,128.181884,37.935501,6993.8292432,0.174,-0.11,0.004,1.0
4.3,128.181884,37.935548,6993.799068,0.176,-0.113,0.004,1.0
4.3166,128.181884,37.935595,6993.768892800001,0.177,-0.115,0.004,1.0
4.3333,128.181884,37.935643,6993.7387176,0.178,-0.117,0.004,1.0
4.35,128.181884,37.93569,6993.708542400001,0.179,-0.119,0.004,1.0
4.3666,128.181884,37.935738,6993.6783672,0.181,-0.122,0.004,1.0
4.3833,128.181884,37.935785,6993.648192000001,0.182,-0.124,0.004,1.0
4.4,128.181884,37.935833,6993.617712,0.183,-0.126,0.004,1.0
4.4166,128.181884,37.93588,6993.587536800001,0.185,-0.129,0.004,1.0
4.4333,128.181884,37.935928,6993.557056800001,0.186,-0.131,0.004,1.0
4.45,128.181884,37.935975,6993.526881600001,0.187,-0.133,0.004,1.0
4.4666,128.181884,37.936023,6993.4964016,0.189,-0.136,0.004,1.0
4.4833,128.181884,37.93607,6993.4659216,0.19,-0.138,0.004,1.0
4.5,128.181884,37.936118,6993.435441600001,0.191,-0.141,0.004,1.0
4.5166,128.181884,37.936166,6993.404656800001,0.193,-0.144,0.004,1.0
4.5333,128.181884,37.936213,6993.3741768,0.194,-0.146,0.004,1.0
4.55,128.181884,37.936261,6993.343392000001,0.196,-0.149,0.004,1.0
4.5666,128.181884,37.936308,6993.3126072,0.197,-0.152,0.004,1.0
4.5833,128.181884,37.936356,6993.2818224,0.198,-0.154,0.004,1.0
4.6,128.181884,37.936404,6993.251037600001,0.2,-0.157,0.004,1.0
4.6166,128.181884,37.936451,6993.219948,0.201,-0.16,0.004,1.0
4.6333,128.181884,37.936499,6993.189163200001,0.203,-0.163,0.005,1.0
4.65,128.181884,37.936547,6993.1580736000005,0.204,-0.166,0.005,1.0
4.6666,128.181884,37.936594,6993.126984,0.206,-0.169,0.005,1.0
4.6833,128.181884,37.936642,6993.0958944,0.207,-0.172,0.005,1.0
4.7,128.181884,37.93669,6993.0645,0.208,-0.175,0.005,1.0
4.7166,128.181884,37.936737,6993.0331056,0.21,-0.179,0.005,1.0
4.7333,128.181884,37.936785,6993.0017112000005,0.211,-0.182,0.005,1.0
4.75,128.181884,37.936833,6992.9703168,0.213,-0.186,0.005,1.0
4.7666,128.181884,37.936881,6992.9386176,0.214,-0.189,0.005,1.0
4.7833,128.181884,37.936928,6992.9069184,0.215,-0.193,0.005,1.0
4.8,128.181884,37.936976,6992.8752192,0.216,-0.196,0.005,1.0
4.8166,128.181884,37.937024,6992.84352,0.218,-0.2,0.005,1.0
4.8333,128.181884,37.937072,6992.811516,0.219,-0.203,0.005,1.0
4.85,128.181885,37.937119,6992.7798168,0.217,-0.208,0.004,1.0
4.8666,128.181885,37.937167,6992.7478128,0.211,-0.215,0.003,1.0
4.8833,128.181885,37.937215,6992.7161136,0.202,-0.223,0.0,1.0
4.9,128.181885,37.937263,6992.684109600001,0.19,-0.232,359.998,1.0
4.9166,128.181885,37.937311,6992.652715200001,0.167,-0.241,359.996,1.0
4.9333,128.181885,37.937359,6992.621016,0.137,-0.249,359.993,1.0
4.95,128.181885,37.937406,6992.5893168,0.102,-0.256,359.99,1.0
4.9666,128.181885,37.937454,6992.5576176,0.064,-0.262,359.987,1.0
4.9833,128.181885,37.937502,6992.525613600001,0.026,-0.268,359.986,1.0
5.0,128.181885,37.93755,6992.4933048,-0.009,-0.272,359.984,1.0
5.0166,128.181885,37.937598,6992.460996000001,-0.042,-0.275,359.983,1.0
5.0333,128.181885,37.937646,6992.4283824,-0.072,-0.277,359.983,1.0
5.05,128.181885,37.937694,6992.395464,-0.098,-0.279,359.982,1.0
5.0666,128.181885,37.937742,6992.3622408,-0.12,-0.28,359.982,1.0
5.0833,128.181885,37.93779,6992.3290176,-0.14,-0.281,359.982,1.0
5.1,128.181885,37.937838,6992.2954896,-0.157,-0.282,359.981,1.0
5.1166,128.181885,37.937886,6992.261656800001,-0.171,-0.284,359.981,1.0
5.1333,128.181885,37.937934,6992.2278240000005,-0.184,-0.286,359.98,1.0
5.15,128.181885,37.937982,6992.1936864,-0.195,-0.288,359.979,1.0
5.1666,128.181885,37.93803,6992.1595488,-0.205,-0.291,359.979,1.0
5.1833,128.181885,37.938078,6992.125106400001,-0.214,-0.294,359.978,1.0
5.2,128.181885,37.938126,6992.0903592,-0.222,-0.298,359.978,1.0
5.2166,128.181885,37.938174,6992.055612,-0.229,-0.302,359.977,1.0
5.2333,128.181885,37.938222,6992.020864800001,-0.235,-0.306,359.977,1.0
5.25,128.181885,37.93827,6991.985508,-0.241,-0.311,359.976,1.0
5.2666,128.181885,37.938318,6991.950151200001,-0.245,-0.315,359.976,1.0
5.2833,128.181885,37.938366,6991.9147944,-0.25,-0.32,359.976,1.0
5.3,128.181885,37.938414,6991.879132800001,-0.253,-0.325,359.975,1.0
5.3166,128.181885,37.938462,6991.8431664,-0.256,-0.33,359.975,1.0
5.3333,128.181885,37.938511,6991.8068952,-0.258,-0.334,359.975,1.0
5.35,128.181885,37.938559,6991.7712336,-0.261,-0.324,359.976,1.0
5.3666,128.181885,37.938607,6991.7358768,-0.263,-0.281,359.977,1.0
5.3833,128.181885,37.938655,6991.7017392,-0.265,-0.193,359.978,1.0
5.4,128.181885,37.938703,6991.668516,-0.266,-0.044,359.979,1.0
5.4166,128.181885,37.938751,6991.6377312,-0.267,0.173,359.98,1.0
5.4333,128.181885,37.9388,6991.6096896,-0.267,0.47,359.981,1.0
5.45,128.181886,37.938848,6991.585000800001,-0.266,0.853,359.981,1.0
5.4666,128.181886,37.938896,6991.563969600001,-0.266,1.306,359.981,1.0
5.4833,128.181886,37.938944,6991.547205600001,-0.265,1.814,359.981,1.0
5.5,128.181886,37.938992,6991.5356232,-0.263,2.361,359.981,1.0
5.5166,128.181886,37.939041,6991.5295272,-0.262,2.926,359.98,1.0
5.5333,128.181886,37.939089,6991.529832,-0.261,3.489,359.98,1.0
5.55,128.181886,37.939137,6991.536232800001,-0.259,4.03,359.98,1.0
5.5666,128.181886,37.939185,6991.549644,-0.258,4.528,359.98,1.0
5.5833,128.181886,37.939233,6991.5706752,-0.257,4.976,359.981,1.0
5.6,128.181886,37.939282,6991.5993264,-0.255,5.379,359.981,1.0
5.6166,128.181886,37.93933,6991.636512,-0.254,5.744,359.982,1.0
5.6333,128.181886,37.939378,6991.682536800001,-0.253,6.078,359.983,1.0
5.65,128.181886,37.939426,6991.737400800001,-0.252,6.386,359.985,1.0
5.6666,128.181886,37.939475,6991.801713600001,-0.252,6.672,359.986,1.0
5.6833,128.181886,37.939523,6991.8754751999995,-0.251,6.94,359.988,1.0
5.7,128.181886,37.939571,6991.9586856000005,-0.25,7.191,359.989,1.0
5.7166,128.181886,37.939619,6992.052259200001,-0.249,7.429,359.991,1.0
5.7333,128.181886,37.939668,6992.1555864,-0.249,7.654,359.993,1.0
5.75,128.181886,37.939716,6992.268972,-0.248,7.868,359.994,1.0
5.7666,128.181886,37.939764,6992.3930256,-0.247,8.073,359.996,1.0
5.7833,128.181886,37.939812,6992.527442400001,-0.247,8.269,359.998,1.0
5.8,128.181886,37.939861,6992.6722224000005,-0.246,8.457,359.999,1.0
5.8166,128.181886,37.939909,6992.827670400001,-0.245,8.639,0.001,1.0
5.8333,128.181886,37.939957,6992.9937864,-0.245,8.814,0.002,1.0
5.85,128.181886,37.940005,6993.1708751999995,-0.245,8.984,0.004,1.0
5.8666,128.181886,37.940054,6993.358632,-0.244,9.149,0.006,1.0
5.8833,128.181886,37.940102,6993.557056800001,-0.244,9.309,0.007,1.0
5.9,128.181886,37.94015,6993.766759200001,-0.244,9.465,0.009,1.0
5.9166,128.181886,37.940198,6993.9871296,-0.244,9.617,0.01,1.0
5.9333,128.181886,37.940247,6994.2187776,-0.244,9.765,0.012,1.0
5.95,128.181886,37.940295,6994.4613984,-0.244,9.91,0.013,1.0
5.9666,128.181886,37.940343,6994.714992,-0.245,10.052,0.015,1.0
5.9833,128.181886,37.940391,6994.9798632,-0.245,10.191,0.016,1.0
6.0,128.181886,37.940439,6995.2557072,-0.246,10.328,0.017,1.0
6.0166,128.181886,37.940487,6995.542524,-0.246,10.462,0.019,1.0
6.0333,128.181886,37.940536,6995.8406184000005,-0.247,10.595,0.02,1.0
6.05,128.181886,37.940584,6996.1499904,-0.248,10.727,0.022,1.0
6.0666,128.181886,37.940632,6996.4703352,-0.249,10.856,0.023,1.0
6.0833,128.181886,37.94068,6996.8019576,-0.25,10.985,0.024,1.0
6.1,128.181886,37.940728,6997.1445527999995,-0.251,11.112,0.025,1.0
6.1166,128.181886,37.940776,6997.4984256,-0.252,11.239,0.027,1.0
6.1333,128.181886,37.940824,6997.863576,-0.253,11.365,0.028,1.0
6.15,128.181886,37.940872,6998.2396992,-0.254,11.489,0.029,1.0
6.1666,128.181886,37.94092,6998.627100000001,-0.256,11.614,0.03,1.0
6.1833,128.181886,37.940968,6999.025473600001,-0.258,11.737,0.031,1.0
6.2,128.181886,37.941016,6999.435124800001,-0.259,11.861,0.033,1.0
6.2166,128.181886,37.941065,6999.8560536,-0.261,11.983,0.034,1.0
6.2333,128.181886,37.941113,7000.2879552,-0.263,12.106,0.035,1.0
6.25,128.181886,37.941161,7000.7311344,-0.265,12.228,0.036,1.0
6.2666,128.181886,37.941209,7001.1855912,-0.267,12.35,0.037,1.0
6.2833,128.181886,37.941256,7001.6510208,-0.269,12.471,0.038,1.0
6.3,128.181886,37.941304,7002.1274232000005,-0.271,12.592,0.039,1.0
6.3166,128.181886,37.941352,7002.6151032,-0.274,12.714,0.04,1.0
6.3333,128.181886,37.9414,7003.1140608000005,-0.276,12.834,0.041,1.0
6.35,128.181886,37.941448,7003.6236864,-0.278,12.955,0.042,1.0
6.3666,128.181886,37.941496,7004.1448944,-0.281,13.076,0.043,1.0
6.3833,128.181886,37.941544,7004.6770752,-0.284,13.196,0.044,1.0
6.4,128.181886,37.941592,7005.220228800001,-0.287,13.317,0.045,1.0
6.4166,128.181886,37.94164,7005.7743552,-0.289,13.437,0.046,1.0
6.4333,128.181886,37.941688,7006.3397592,-0.292,13.557,0.047,1.0
6.45,128.181886,37.941735,7006.916136,-0.295,13.677,0.048,1.0
6.4666,128.181886,37.941783,7007.5037904,-0.299,13.797,0.049,1.0
6.4833,128.181886,37.941831,7008.1021128,-0.302,13.917,0.05,1.0
6.5,128.181886,37.941879,7008.7117128,-0.305,14.037,0.051,1.0
6.5166,128.181886,37.941927,7009.3322856,-0.309,14.157,0.052,1.0
6.5333,128.181886,37.941974,7009.9641360000005,-0.312,14.277,0.053,1.0
6.55,128.181886,37.942022,7010.6066544000005,-0.316,14.396,0.054,1.0
6.5666,128.181886,37.94207,7011.2604504,-0.319,14.516,0.054,1.0
6.5833,128.181886,37.942117,7011.9249144000005,-0.323,14.636,0.055,1.0
6.6,128.181886,37.942165,7012.6006560000005,-0.327,14.755,0.056,1.0
6.6166,128.181886,37.942213,7013.287370400001,-0.331,14.875,0.057,1.0
6.6333,128.181886,37.94226,7013.9850576,-0.335,14.994,0.058,1.0
6.65,128.181886,37.942308,7014.6934128,-0.339,15.114,0.059,1.0
6.6666,128.181886,37.942355,7015.4130456,-0.343,15.233,0.06,1.0
6.6833,128.181886,37.942403,7016.143651200001,-0.348,15.352,0.061,1.0
6.7,128.181886,37.942451,7016.884924800001,-0.352,15.472,0.062,1.0
6.7166,128.181886,37.942498,7017.6371712,-0.356,15.591,0.063,1.0
6.7333,128.181886,37.942546,7018.4003904,-0.361,15.71,0.063,1.0
6.75,128.181886,37.942593,7019.174582400001,-0.366,15.83,0.064,1.0
6.7666,128.181886,37.942641,7019.9597472000005,-0.37,15.949,0.065,1.0
6.7833,128.181886,37.942688,7020.75558,-0.375,16.068,0.066,1.0
6.8,128.181886,37.942735,7021.5623856,-0.38,16.187,0.067,1.0
6.8166,128.181886,37.942783,7022.3798592,-0.385,16.306,0.068,1.0
6.8333,128.181886,37.94283,7023.208305600001,-0.39,16.425,0.069,1.0
6.85,128.181886,37.942878,7024.047724800001,-0.395,16.544,0.07,1.0
6.8666,128.181886,37.942925,7024.897812,-0.401,16.663,0.071,1.0
6.8833,128.181886,37.942972,7025.758872,-0.406,16.782,0.072,1.0
6.9,128.181886,37.943019,7026.6306,-0.411,16.901,0.073,1.0
6.9166,128.181886,37.943067,7027.5133008,-0.417,17.02,0.074,1.0
6.9333,128.181886,37.943114,7028.406669600001,-0.423,17.139,0.074,1.0
6.95,128.181886,37.943161,7029.3107064000005,-0.428,17.257,0.075,1.0
6.9666,128.181886,37.943208,7030.225716,-0.434,17.376,0.076,1.0
6.9833,128.181886,37.943256,7031.1513936,-0.44,17.495,0.077,1.0
7.0,128.181886,37.943303,7032.0877392,-0.446,17.614,0.078,1.0
7.0166,128.181886,37.94335,7033.0347528,-0.452,17.732,0.079,1.0
7.0333,128.181886,37.943397,7033.9927392,-0.459,17.851,0.08,1.0
7.05,128.181886,37.943444,7034.9610888,-0.465,17.969,0.081,1.0
7.0666,128.181886,37.943491,7035.940411200001,-0.471,18.088,0.082,1.0
7.0833,128.181886,37.943538,7036.930401600001,-0.478,18.206,0.083,1.0
7.1,128.181886,37.943585,7037.931060000001,-0.484,18.325,0.084,1.0
7.1166,128.181885,37.943632,7038.9420816,-0.491,18.443,0.085,1.0
7.1333,128.181885,37.943679,7039.964076,-0.498,18.562,0.087,1.0
7.15,128.181885,37.943726,7040.996738400001,-0.505,18.68,0.088,1.0
7.1666,128.181885,37.943773,7042.039764,-0.512,18.798,0.089,1.0
7.1833,128.181885,37.94382,7043.0934576,-0.519,18.917,0.09,1.0
7.2,128.181885,37.943866,7044.157819200001,-0.526,19.035,0.091,1.0
7.2166,128.181885,37.943913,7045.2328488,-0.534,19.153,0.092,1.0
7.2333,128.181885,37.94396,7046.318241600001,-0.541,19.271,0.093,1.0
7.25,128.181885,37.944007,7047.4143023999995,-0.549,19.389,0.094,1.0
7.2666,128.181885,37.944054,7048.5210312,-0.557,19.507,0.095,1.0
7.2833,128.181885,37.9441,7049.6381232,-0.564,19.625,0.097,1.0
7.3,128.181885,37.944147,7050.765883200001,-0.572,19.743,0.098,1.0
7.3166,128.181885,37.944194,7051.904006400001,-0.58,19.861,0.099,1.0
7.3333,128.181885,37.94424,7053.0524928,-0.589,19.979,0.1,1.0
7.35,128.181885,37.944287,7054.211647200001,-0.597,20.097,0.101,1.0
7.3666,128.181885,37.944333,7055.381164800001,-0.605,20.215,0.103,1.0
7.3833,128.181885,37.94438,7056.5613504,-0.614,20.333,0.104,1.0
7.4,128.181885,37.944426,7057.7518992000005,-0.623,20.45,0.105,1.0
7.4166,128.181885,37.944473,7058.952811200001,-0.631,20.568,0.106,1.0
7.4333,128.181885,37.944519,7060.1640864,-0.64,20.686,0.108,1.0
7.45,128.181885,37.944566,7061.385724800001,-0.649,20.803,0.109,1.0
7.4666,128.181885,37.944612,7062.6177264,-0.658,20.921,0.11,1.0
7.4833,128.181885,37.944658,7063.860396,-0.668,21.039,0.112,1.0
7.5,128.181885,37.944705,7065.113124,-0.677,21.156,0.113,1.0
7.5166,128.181885,37.944751,7066.376215200001,-0.687,21.273,0.114,1.0
7.5333,128.181885,37.944797,7067.649974400001,-0.696,21.391,0.116,1.0
7.55,128.181884,37.944843,7068.933792000001,-0.706,21.508,0.117,1.0
7.5666,128.181884,37.944889,7070.227668,-0.716,21.626,0.119,1.0
7.5833,128.181884,37.944936,7071.532212,-0.726,21.743,0.12,1.0
7.6,128.181884,37.944982,7072.846814400001,-0.736,21.86,0.122,1.0
7.6166,128.181884,37.945028,7074.17178,-0.747,21.977,0.123,1.0
7.6333,128.181884,37.945074,7075.506804000001,-0.757,22.094,0.125,1.0
7.65,128.181884,37.94512,7076.852191200001,-0.768,22.212,0.126,1.0
7.6666,128.181884,37.945166,7078.207941600001,-0.779,22.329,0.128,1.0
7.6833,128.181884,37.945212,7079.573750400001,-0.79,22.446,0.129,1.0
7.7,128.181884,37.945258,7080.9496176,-0.801,22.563,0.131,1.0
7.7166,128.181884,37.945304,7082.335848,-0.812,22.68,0.133,1.0
7.7333,128.181884,37.945349,7083.7321368,-0.823,22.796,0.134,1.0
7.75,128.181884,37.945395,7085.138484000001,-0.835,22.913,0.136,1.0
7.7666,128.181884,37.945441,7086.5551944,-0.847,23.03,0.138,1.0
7.7833,128.181884,37.945487,7087.9816584,-0.858,23.147,0.139,1.0
7.8,128.181884,37.945533,7089.4184856,-0.87,23.263,0.141,1.0
7.8166,128.181883,37.945578,7090.8653712,-0.883,23.38,0.143,1.0
7.8333,128.181883,37.945624,7092.322010400001,-0.895,23.497,0.145,1.0
7.85,128.181883,37.945669,7093.7890128,-0.907,23.613,0.146,1.0
7.8666,128.181883,37.945715,7095.266073600001,-0.92,23.73,0.148,1.0
7.8833,128.181883,37.945761,7096.752888000001,-0.932,23.846,0.15,1.0
7.9,128.181883,37.945806,7098.250065600001,-0.945,23.963,0.151,1.0
7.9166,128.181883,37.945852,7099.756996800001,-0.958,24.079,0.152,1.0
7.9333,128.181883,37.945897,7101.273681600001,-0.971,24.195,0.154,1.0
7.95,128.181883,37.945942,7102.8007296,-0.984,24.312,0.155,1.0
7.9666,128.181883,37.945988,7104.3375312,-0.997,24.428,0.156,1.0
7.9833,128.181883,37.946033,7105.8840864,-1.01,24.544,0.157,1.0
8.0,128.181883,37.946078,7107.4407,-1.024,24.66,0.158,1.0
8.0166,128.181883,37.946124,7109.0070672,-1.037,24.776,0.159,1.0
8.0333,128.181882,37.946169,7110.5834928,-1.051,24.892,0.16,1.0
8.05,128.181882,37.946214,7112.169672,-1.065,25.008,0.16,1.0
8.0666,128.181882,37.946259,7113.765909600001,-1.079,25.124,0.161,1.0
8.0833,128.181882,37.946304,7115.371596000001,-1.093,25.24,0.162,1.0
8.1,128.181882,37.946349,7116.9873408,-1.108,25.356,0.162,1.0
8.1166,128.181882,37.946394,7118.6128392,-1.123,25.472,0.162,1.0
8.1333,128.181882,37.946439,7120.2480912,-1.138,25.587,0.163,1.0
8.15,128.181882,37.946484,7121.8930968,-1.153,25.703,0.163,1.0
8.1666,128.181882,37.946529,7123.5475512,-1.168,25.819,0.163,1.0
8.1833,128.181882,37.946574,7125.212064,-1.183,25.934,0.163,1.0
8.2,128.181881,37.946619,7126.8863304,-1.199,26.05,0.163,1.0
8.2166,128.181881,37.946663,7128.5700456,-1.214,26.165,0.163,1.0
8.2333,128.181881,37.946708,7130.2635144000005,-1.23,26.28,0.162,1.0
8.25,128.181881,37.946753,7131.9667368,-1.246,26.396,0.162,1.0
8.2666,128.181881,37.946798,7133.679408,-1.263,26.511,0.162,1.0
8.2833,128.181881,37.946842,7135.4018328,-1.279,26.626,0.161,1.0
8.3,128.181881,37.946887,7137.133706400001,-1.295,26.742,0.161,1.0
8.3166,128.181881,37.946931,7138.875333600001,-1.312,26.857,0.16,1.0
8.3333,128.18188,37.946976,7140.6264096,-1.329,26.972,0.159,1.0
8.35,128.18188,37.94702,7142.3872392,-1.346,27.087,0.158,1.0
8.3666,128.18188,37.947065,7144.157517600001,-1.363,27.202,0.158,1.0
8.3833,128.18188,37.947109,7145.9372448,-1.38,27.317,0.157,1.0
8.4,128.18188,37.947153,7147.7264208,-1.398,27.432,0.156,1.0
8.4166,128.18188,37.947198,7149.5250456,-1.415,27.546,0.154,1.0
8.4333,128.18188,37.947242,7151.3331192000005,-1.433,27.661,0.153,1.0
8.45,128.18188,37.947286,7153.1506416,-1.451,27.776,0.152,1.0
8.4666,128.181879,37.94733,7154.9776128,-1.469,27.891,0.151,1.0
8.4833,128.181879,37.947374,7156.814032800001,-1.487,28.005,0.149,1.0
8.5,128.181879,37.947418,7158.659901600001,-1.505,28.12,0.148,1.0
8.5166,128.181879,37.947462,7160.514914400001,-1.523,28.234,0.146,1.0
8.5333,128.181879,37.947506,7162.3796808,-1.542,28.349,0.144,1.0
8.55,128.181879,37.94755,7164.2532864,-1.56,28.463,0.142,1.0
8.5666,128.181879,37.947594,7166.1366456000005,-1.579,28.577,0.141,1.0
8.5833,128.181878,37.947638,7168.0291488,-1.597,28.691,0.139,1.0
8.6,128.181878,37.947682,7169.930796000001,-1.616,28.806,0.137,1.0
8.6166,128.181878,37.947726,7171.841892,-1.635,28.92,0.134,1.0
8.6333,128.181878,37.947769,7173.762132000001,-1.654,29.034,0.132,1.0
8.65,128.181878,37.947813,7175.691516,-1.673,29.148,0.13,1.0
8.6666,128.181877,37.947857,7177.630044,-1.692,29.262,0.128,1.0
8.6833,128.181877,37.9479,7179.5780208,-1.712,29.376,0.125,1.0
8.7,128.181877,37.947944,7181.5348368,-1.731,29.49,0.123,1.0
8.7166,128.181877,37.947987,7183.501101600001,-1.75,29.603,0.12,1.0
8.7333,128.181877,37.948031,7185.476510400001,-1.77,29.717,0.117,1.0
8.75,128.181877,37.948074,7187.4607584000005,-1.789,29.831,0.115,1.0
8.7666,128.181876,37.948118,7189.454150400001,-1.809,29.944,0.112,1.0
8.7833,128.181876,37.948161,7191.456991200001,-1.829,30.058,0.109,1.0
8.8,128.181876,37.948204,7193.4683664,-1.848,30.171,0.106,1.0
8.8166,128.181876,37.948247,7195.489190400001,-1.868,30.285,0.103,1.0
8.8333,128.181876,37.948291,7197.5188536000005,-1.888,30.398,0.1,1.0
8.85,128.181875,37.948334,7199.557356000001,-1.908,30.512,0.097,1.0
8.8666,128.181875,37.948377,7201.6050024,-1.928,30.625,0.093,1.0
8.8833,128.181875,37.94842,7203.6617928000005,-1.948,30.738,0.09,1.0
8.9,128.181875,37.948463,7205.7274224,-1.968,30.851,0.086,1.0
8.9166,128.181875,37.948506,7207.801891200001,-1.988,30.964,0.083,1.0
8.9333,128.181874,37.948549,7209.8851992,-2.008,31.077,0.079,1.0
8.95,128.181874,37.948591,7211.977346400001,-2.028,31.19,0.076,1.0
8.9666,128.181874,37.948634,7214.078637600001,-2.048,31.303,0.072,1.0
8.9833,128.181874,37.948677,7216.1884632,-2.068,31.416,0.068,1.0
9.0,128.181873,37.94872,7218.307128,-2.088,31.529,0.064,1.0
9.0166,128.181873,37.948762,7220.4349368,-2.109,31.641,0.06,1.0
9.0333,128.181873,37.948805,7222.57128,-2.129,31.754,0.056,1.0
9.05,128.181873,37.948848,7224.7164624,-2.149,31.867,0.052,1.0
9.0666,128.181872,37.94889,7226.870179200001,-2.169,31.979,0.048,1.0
9.0833,128.181872,37.948933,7229.03304,-2.189,32.092,0.044,1.0
9.1,128.181872,37.948975,7231.2044352,-2.21,32.204,0.039,1.0
9.1166,128.181872,37.949017,7233.384364800001,-2.23,32.316,0.035,1.0
9.1333,128.181871,37.94906,7235.573133600001,-2.25,32.428,0.03,1.0
9.15,128.181871,37.949102,7237.7704368,-2.27,32.541,0.026,1.0
9.1666,128.181871,37.949144,7239.976274400001,-2.291,32.653,0.021,1.0
9.1833,128.18187,37.949186,7242.190951200001,-2.311,32.766,0.016,1.0
9.2,128.18187,37.949228,7244.4141624,-2.331,32.879,0.011,1.0
9.2166,128.18187,37.949271,7246.645908,-2.351,32.992,0.007,1.0
9.2333,128.18187,37.949313,7248.886188,-2.371,33.106,0.002,1.0
9.25,128.181869,37.949355,7251.135002399999,-2.391,33.22,359.996,1.0
9.2666,128.181869,37.949396,7253.392351200001,-2.411,33.334,359.991,1.0
9.2833,128.181869,37.949438,7255.6582344,-2.431,33.449,359.986,1.0
9.3,128.181868,37.94948,7257.932652,-2.451,33.564,359.981,1.0
9.3166,128.181868,37.949522,7260.215604,-2.471,33.679,359.975,1.0
9.3333,128.181868,37.949564,7262.5067856000005,-2.491,33.795,359.97,1.0
9.35,128.181867,37.949605,7264.806806400001,-2.511,33.911,359.964,1.0
9.3666,128.181867,37.949647,7267.114752,-2.53,34.028,359.958,1.0
9.3833,128.181867,37.949688,7269.431536800001,-2.55,34.145,359.952,1.0
9.4,128.181866,37.94973,7271.756551200001,-2.57,34.261,359.946,1.0
9.4166,128.181866,37.949771,7274.0897952000005,-2.589,34.379,359.941,1.0
9.4333,128.181866,37.949813,7276.431573600001,-2.609,34.496,359.934,1.0
9.45,128.181865,37.949854,7278.7818864,-2.628,34.613,359.928,1.0
9.4666,128.181865,37.949896,7281.1401240000005,-2.647,34.731,359.922,1.0
9.4833,128.181865,37.949937,7283.506896000001,-2.666,34.849,359.916,1.0
9.5,128.181864,37.949978,7285.8822024,-2.685,34.967,359.909,1.0
9.5166,128.181864,37.950019,7288.2654336000005,-2.704,35.085,359.903,1.0
9.5333,128.181864,37.95006,7290.6571992,-2.723,35.203,359.896,1.0
9.55,128.181863,37.950101,7293.0571944,-2.742,35.322,359.89,1.0
9.5666,128.181863,37.950142,7295.465419200001,-2.76,35.44,359.883,1.0
9.5833,128.181862,37.950183,7297.8818736,-2.779,35.559,359.876,1.0
9.6,128.181862,37.950224,7300.3065576,-2.797,35.677,359.869,1.0
9.6166,128.181862,37.950265,7302.7394712,-2.816,35.796,359.862,1.0
9.6333,128.181861,37.950306,7305.1803096,-2.834,35.915,359.855,1.0
9.65,128.181861,37.950346,7307.6296824,-2.852,36.034,359.848,1.0
9.6666,128.18186,37.950387,7310.0872848,-2.87,36.152,359.841,1.0
9.6833,128.18186,37.950428,7312.552812,-2.887,36.271,359.834,1.0
9.7,128.18186,37.950468,7315.026568800001,-2.905,36.39,359.827,1.0
9.7166,128.181859,37.950509,7317.5082504,-2.922,36.51,359.819,1.0
9.7333,128.181859,37.950549,7319.9984664,-2.94,36.629,359.812,1.0
9.75,128.181858,37.95059,7322.4963024,-2.957,36.748,359.805,1.0
9.7666,128.181858,37.95063,7325.0026728,-2.974,36.867,359.797,1.0
9.7833,128.181857,37.95067,7327.5166632,-2.991,36.986,359.789,1.0
9.8,128.181857,37.95071,7330.039188000001,-3.008,37.106,359.782,1.0
9.8166,128.181856,37.950751,7332.569332800001,-3.024,37.225,359.774,1.0
9.8333,128.181856,37.950791,7335.1077072,-3.041,37.345,359.766,1.0
9.85,128.181856,37.950831,7337.654311200001,-3.057,37.464,359.758,1.0
9.8666,128.181855,37.950871,7340.2085352,-3.073,37.584,359.75,1.0
9.8833,128.181855,37.950911,7342.7709888,-3.089,37.703,359.742,1.0
9.9,128.181854,37.950951,7345.3410624,-3.105,37.823,359.734,1.0
9.9166,128.181854,37.95099,7347.919365600001,-3.121,37.943,359.726,1.0
9.9333,128.181853,37.95103,7350.5055936,-3.137,38.063,359.718,1.0
9.95,128.181853,37.95107,7353.0997464,-3.152,38.182,359.709,1.0
9.9666,128.181852,37.95111,7355.701824000001,-3.167,38.302,359.701,1.0
9.9833,128.181852,37.951149,7358.3118264,-3.183,38.422,359.693,1.0
10.0,128.181851,37.951189,7360.9297536,-3.197,38.542,359.684,1.0
10.0166,128.181851,37.951228,7363.555300800001,-3.212,38.662,359.676,1.0
10.0333,128.18185,37.951268,7366.1887728,-3.227,38.782,359.667,1.0
10.05,128.18185,37.951307,7368.830169600001,-3.241,38.902,359.658,1.0
10.0666,128.181849,37.951346,7371.479491200001,-3.256,39.023,359.65,1.0
10.0833,128.181848,37.951386,7374.136432800001,-3.27,39.143,359.641,1.0
10.1,128.181848,37.951425,7376.8012992,-3.284,39.263,359.632,1.0
10.1166,128.181847,37.951464,7379.4737856,-3.298,39.384,359.623,1.0
10.1333,128.181847,37.951503,7382.154196800001,-3.312,39.504,359.614,1.0
10.15,128.181846,37.951542,7384.842228,-3.325,39.624,359.605,1.0
10.1666,128.181846,37.951581,7387.537879200001,-3.339,39.745,359.596,1.0
10.1833,128.181845,37.95162,7390.241455200001,-3.352,39.865,359.587,1.0
10.2,128.181844,37.951659,7392.9526512,-3.365,39.986,359.578,1.0
10.2166,128.181844,37.951698,7395.671772000001,-3.378,40.107,359.569,1.0
10.2333,128.181843,37.951736,7398.3982080000005,-3.391,40.228,359.559,1.0
10.25,128.181843,37.951775,7401.132568800001,-3.403,40.348,359.55,1.0
10.2666,128.181842,37.951814,7403.8742448,-3.416,40.469,359.54,1.0
10.2833,128.181841,37.951852,7406.6238456,-3.428,40.59,359.531,1.0
10.3,128.181841,37.951891,7409.3810664,-3.44,40.711,359.521,1.0
10.3166,128.18184,37.951929,7412.1456024,-3.452,40.832,359.512,1.0
10.3333,128.18184,37.951968,7414.9177584,-3.464,40.953,359.502,1.0
10.35,128.181839,37.952006,7417.6978392,-3.475,41.074,359.493,1.0
10.3666,128.181838,37.952044,7420.4852352,-3.487,41.196,359.483,1.0
10.3833,128.181838,37.952082,7423.279946400001,-3.498,41.317,359.473,1.0
10.4,128.181837,37.95212,7426.0825824,-3.509,41.438,359.463,1.0
10.4166,128.181836,37.952158,7428.892533600001,-3.52,41.56,359.453,1.0
10.4333,128.181836,37.952196,7431.7098000000005,-3.531,41.681,359.443,1.0
10.45,128.181835,37.952234,7434.5346864,-3.542,41.802,359.433,1.0
10.4666,128.181834,37.952272,7437.367192800001,-3.552,41.924,359.423,1.0
10.4833,128.181834,37.95231,7440.2067096,-3.563,42.046,359.413,1.0
10.5,128.181833,37.952348,7443.054151200001,-3.573,42.167,359.403,1.0
10.5166,128.181832,37.952386,7445.9086032000005,-3.583,42.289,359.393,1.0
10.5333,128.181832,37.952423,7448.7706751999995,-3.593,42.411,359.383,1.0
10.55,128.181831,37.952461,7451.6400624,-3.603,42.533,359.372,1.0
10.5666,128.18183,37.952498,7454.516764800001,-3.613,42.655,359.362,1.0
10.5833,128.181829,37.952536,7457.400782400001,-3.622,42.777,359.351,1.0
10.6,128.181829,37.952573,7460.292115200001,-3.631,42.899,359.341,1.0
10.6166,128.181828,37.95261,7463.191068,-3.641,43.021,359.331,1.0
10.6333,128.181827,37.952648,7466.0970312,-3.65,43.143,359.32,1.0
10.65,128.181826,37.952685,7469.0103096,-3.659,43.265,359.309,1.0
10.6666,128.181826,37.952722,7471.9309032,-3.667,43.388,359.299,1.0
10.6833,128.181825,37.952759,7474.8585072,-3.676,43.51,359.288,1.0
10.7,128.181824,37.952796,7477.7937312,-3.685,43.633,359.277,1.0
10.7166,128.181823,37.952833,7480.735965600001,-3.693,43.755,359.267,1.0
10.7333,128.181823,37.95287,7483.685515200001,-3.701,43.878,359.256,1.0
10.75,128.181822,37.952907,7486.642075199999,-3.709,44.0,359.245,1.0
10.7666,128.181821,37.952943,7489.6059504,-3.717,44.123,359.234,1.0
10.7833,128.18182,37.95298,7492.576836,-3.725,44.246,359.223,1.0
10.8,128.181819,37.953017,7495.5547320000005,-3.733,44.369,359.212,1.0
10.8166,128.181819,37.953053,7498.5399431999995,-3.74,44.492,359.201,1.0
10.8333,128.181818,37.95309,7501.532469600001,-3.747,44.615,359.19,1.0
10.85,128.181817,37.953126,7504.531701600001,-3.755,44.738,359.179,1.0
10.8666,128.181816,37.953162,7507.5382488000005,-3.762,44.861,359.168,1.0
10.8833,128.181815,37.953199,7510.551806400001,-3.769,44.984,359.156,1.0
10.9,128.181815,37.953235,7513.572374400001,-3.776,45.108,359.145,1.0
10.9166,128.181814,37.953271,7516.5999528,-3.783,45.231,359.134,1.0
10.9333,128.181813,37.953307,7519.6345416,-3.789,45.354,359.122,1.0
10.95,128.181812,37.953343,7522.6761408,-3.796,45.478,359.111,1.0
10.9666,128.181811,37.953379,7525.724445600001,-3.802,45.601,359.1,1.0
10.9833,128.18181,37.953415,7528.780065600001,-3.808,45.725,359.088,1.0
11.0,128.181809,37.953451,7531.842391200001,-3.814,45.849,359.077,1.0
11.0166,128.181809,37.953486,7534.9117272,-3.82,45.973,359.065,1.0
11.0333,128.181808,37.953522,7537.9880736000005,-3.826,46.097,359.053,1.0
11.05,128.181807,37.953558,7541.0711256,-3.832,46.221,359.042,1.0
11.0666,128.181806,37.953593,7544.161188000001,-3.838,46.345,359.03,1.0
11.0833,128.181805,37.953629,7547.258260800001,-3.843,46.469,359.018,1.0
11.1,128.181804,37.953664,7550.3617343999995,-3.849,46.593,359.007,1.0
11.1166,128.181803,37.953699,7553.4722184,-3.854,46.717,358.995,1.0
11.1333,128.181802,37.953735,7556.589712800001,-3.859,46.841,358.983,1.0
11.15,128.181801,37.95377,7559.7139128,-3.864,46.966,358.971,1.0
11.1666,128.1818,37.953805,7562.844818400001,-3.869,47.09,358.959,1.0
11.1833,128.181799,37.95384,7565.9824296,-3.874,47.215,358.947,1.0
11.2,128.181798,37.953875,7569.1267464,-3.879,47.34,358.935,1.0
11.2166,128.181798,37.95391,7572.277768800001,-3.884,47.464,358.923,1.0
11.2333,128.181797,37.953945,7575.435496800001,-3.888,47.589,358.911,1.0
11.25,128.181796,37.95398,7578.6002352000005,-3.893,47.714,358.899,1.0
11.2666,128.181795,37.954014,7581.771374400001,-3.897,47.839,358.887,1.0
11.2833,128.181794,37.954049,7584.949219200001,-3.902,47.964,358.875,1.0
11.3,128.181793,37.954084,7588.133464800001,-3.906,48.089,358.862,1.0
11.3166,128.181792,37.954118,7591.3247208,-3.91,48.214,358.85,1.0
11.3333,128.181791,37.954153,7594.5223776,-3.914,48.34,358.838,1.0
11.35,128.18179,37.954187,7597.7264352,-3.918,48.465,358.825,1.0
11.3666,128.181789,37.954221,7600.9371984,-3.922,48.591,358.813,1.0
11.3833,128.181788,37.954255,7604.1546672,-3.925,48.716,358.801,1.0
11.4,128.181787,37.95429,7607.378536800001,-3.929,48.842,358.788,1.0
11.4166,128.181786,37.954324,7610.609112,-3.933,48.968,358.776,1.0
11.4333,128.181785,37.954358,7613.8457832,-3.936,49.093,358.763,1.0
11.45,128.181784,37.954392,7617.08916,-3.94,49.219,358.751,1.0
11.4666,128.181783,37.954426,7620.3389376000005,-3.943,49.345,358.738,1.0
11.4833,128.181782,37.954459,7623.5954208,-3.946,49.471,358.725,1.0
11.5,128.181781,37.954493,7626.858,-3.949,49.597,358.713,1.0
11.5166,128.181779,37.954527,7630.1272848,-3.952,49.724,358.7,1.0
11.5333,128.181778,37.95456,7633.402665600001,-3.955,49.85,358.687,1.0
11.55,128.181777,37.954594,7636.684447200001,-3.958,49.976,358.674,1.0
11.5666,128.181776,37.954627,7639.9729344,-3.961,50.103,358.662,1.0
11.5833,128.181775,37.954661,7643.2675176,-3.964,50.229,358.649,1.0
11.6,128.181774,37.954694,7646.568196800001,-3.967,50.356,358.636,1.0
11.6166,128.181773,37.954727,7649.8755816,-3.969,50.483,358.623,1.0
11.6333,128.181772,37.95476,7653.1890624,-3.972,50.61,358.61,1.0
11.65,128.181771,37.954793,7656.5086392,-3.974,50.737,358.597,1.0
11.6666,128.18177,37.954826,7659.8349216,-3.977,50.864,358.584,1.0
11.6833,128.181769,37.954859,7663.1669952,-3.979,50.991,358.571,1.0
11.7,128.181768,37.954892,7666.505469600001,-3.981,51.118,358.557,1.0
11.7166,128.181766,37.954925,7669.85004,-3.984,51.245,358.544,1.0
11.7333,128.181765,37.954958,7673.201011200001,-3.986,51.373,358.531,1.0
11.75,128.181764,37.95499,7676.5580784,-3.988,51.5,358.518,1.0
11.7666,128.181763,37.955023,7679.921241600001,-3.99,51.628,358.504,1.0
11.7833,128.181762,37.955055,7683.290500800001,-3.992,51.756,358.491,1.0
11.8,128.181761,37.955088,7686.6658560000005,-3.994,51.883,358.478,1.0
11.8166,128.18176,37.95512,7690.0473071999995,-3.996,52.011,358.464,1.0
11.8333,128.181758,37.955153,7693.4348544,-3.997,52.139,358.451,1.0
11.85,128.181757,37.955185,7696.828192800001,-3.999,52.267,358.437,1.0
11.8666,128.181756,37.955217,7700.227932000001,-4.001,52.396,358.424,1.0
11.8833,128.181755,37.955249,7703.6334624,-4.002,52.524,358.41,1.0
11.9,128.181754,37.955281,7707.0450888,-4.004,52.652,358.397,1.0
11.9166,128.181753,37.955313,7710.462811200001,-4.005,52.781,358.383,1.0
11.9333,128.181751,37.955345,7713.886324800001,-4.007,52.909,358.369,1.0
11.95,128.18175,37.955376,7717.3159344,-4.008,53.038,358.356,1.0
11.9666,128.181749,37.955408,7720.7513352000005,-4.01,53.166,358.342,1.0
11.9833,128.181748,37.95544,7724.192832000001,-4.011,53.295,358.328,1.0
12.0,128.181747,37.955471,7727.639815200001,-4.012,53.424,358.314,1.0
12.0166,128.181745,37.955503,7731.0928944,-4.014,53.553,358.3,1.0
12.0333,128.181744,37.955534,7734.5520696,-4.015,53.682,358.287,1.0
12.05,128.181743,37.955565,7738.0167312,-4.016,53.811,358.273,1.0
12.0666,128.181742,37.955596,7741.4871840000005,-4.017,53.94,358.259,1.0
12.0833,128.18174,37.955628,7744.963732800001,-4.018,54.069,358.245,1.0
12.1,128.181739,37.955659,7748.4457680000005,-4.019,54.198,358.231,1.0
12.1166,128.181738,37.95569,7751.9335944,-4.02,54.327,358.217,1.0
12.1333,128.181737,37.955721,7755.427212,-4.021,54.456,358.202,1.0
12.15,128.181735,37.955751,7758.9266208,-4.022,54.586,358.188,1.0
12.1666,128.181734,37.955782,7762.431516,-4.023,54.715,358.174,1.0
12.1833,128.181733,37.955813,7765.9422024,-4.023,54.845,358.16,1.0
12.2,128.181732,37.955843,7769.45868,-4.024,54.974,358.146,1.0
12.2166,128.18173,37.955874,7772.980644,-4.025,55.104,358.131,1.0
12.2333,128.181729,37.955904,7776.5080944,-4.025,55.234,358.117,1.0
12.25,128.181728,37.955935,7780.041336,-4.026,55.364,358.103,1.0
12.2666,128.181727,37.955965,7783.580064000001,-4.027,55.494,358.088,1.0
12.2833,128.181725,37.955995,7787.124278400001,-4.027,55.624,358.074,1.0
12.3,128.181724,37.956025,7790.674284000001,-4.028,55.754,358.059,1.0
12.3166,128.181723,37.956056,7794.2294712,-4.028,55.884,358.045,1.0
12.3333,128.181721,37.956086,7797.7904496,-4.029,56.014,358.03,1.0
12.35,128.18172,37.956115,7801.3566096,-4.029,56.145,358.015,1.0
12.3666,128.181719,37.956145,7804.928256000001,-4.03,56.275,358.001,1.0
12.3833,128.181717,37.956175,7808.5056936,-4.03,56.406,357.986,1.0
12.4,128.181716,37.956205,7812.0883128000005,-4.031,56.537,357.971,1.0
12.4166,128.181715,37.956234,7815.6761136000005,-4.031,56.667,357.956,1.0
12.4333,128.181713,37.956264,7819.269705600001,-4.031,56.798,357.942,1.0
12.45,128.181712,37.956293,7822.8681744000005,-4.032,56.929,357.927,1.0
12.4666,128.181711,37.956323,7826.4724344,-4.032,57.06,357.912,1.0
12.4833,128.181709,37.956352,7830.0815712,-4.032,57.192,357.897,1.0
12.5,128.181708,37.956381,7833.6964992,-4.033,57.323,357.882,1.0
12.5166,128.181707,37.95641,7837.316304,-4.033,57.454,357.867,1.0
12.5333,128.181705,37.956439,7840.9415952,-4.033,57.586,357.852,1.0
12.55,128.181704,37.956468,7844.5717632000005,-4.033,57.718,357.836,1.0
12.5666,128.181703,37.956497,7848.207417600001,-4.034,57.849,357.821,1.0
12.5833,128.181701,37.956526,7851.8482536,-4.034,57.981,357.806,1.0
12.6,128.1817,37.956554,7855.4942712,-4.034,58.113,357.791,1.0
12.6166,128.181698,37.956583,7859.145470400001,-4.034,58.245,357.775,1.0
12.6333,128.181697,37.956612,7862.801851200001,-4.034,58.377,357.76,1.0
12.65,128.181696,37.95664,7866.463108800001,-4.034,58.51,357.744,1.0
12.6666,128.181694,37.956669,7870.129548,-4.035,58.642,357.729,1.0
12.6833,128.181693,37.956697,7873.801168800001,-4.035,58.775,357.713,1.0
12.7,128.181691,37.956725,7877.4776664,-4.035,58.907,357.698,1.0
12.7166,128.18169,37.956753,7881.1593456,-4.035,59.04,357.682,1.0
12.7333,128.181689,37.956781,7884.845901600001,-4.035,59.173,357.666,1.0
12.75,128.181687,37.956809,7888.5373344,-4.035,59.306,357.65,1.0
12.7666,128.181686,37.956837,7892.2339488,-4.035,59.439,357.634,1.0
12.7833,128.181684,37.956865,7895.93544,-4.035,59.572,357.619,1.0
12.8,128.181683,37.956893,7899.641808,-4.035,59.706,357.603,1.0
12.8166,128.181682,37.95692,7903.3533576,-4.035,59.839,357.587,1.0
12.8333,128.18168,37.956948,7907.069479200001,-4.035,59.973,357.571,1.0
12.85,128.181679,37.956975,7910.7904776000005,-4.035,60.107,357.554,1.0
12.8666,128.181677,37.957003,7914.5163528,-4.036,60.24,357.538,1.0
12.8833,128.181676,37.95703,7918.247104800001,-4.036,60.374,357.522,1.0
12.9,128.181674,37.957057,7921.982733600001,-4.036,60.508,357.506,1.0
12.9166,128.181673,37.957085,7925.7229344,-4.036,60.643,357.489,1.0
12.9333,128.181671,37.957112,7929.468012,-4.036,60.777,357.473,1.0
12.95,128.18167,37.957139,7933.2176616,-4.036,60.911,357.456,1.0
12.9666,128.181669,37.957166,7936.972188000001,-4.036,61.046,357.44,1.0
12.9833,128.181667,37.957192,7940.7312864000005,-4.036,61.181,357.423,1.0
13.0,128.181666,37.957219,7944.4952616,-4.036,61.316,357.407,1.0
13.0166,128.181664,37.957246,7948.2638088,-4.036,61.451,357.39,1.0
13.0333,128.181663,37.957272,7952.036928,-4.036,61.586,357.373,1.0
13.0499,128.181661,37.957299,7955.8146192,-4.036,61.721,357.356,1.0
13.0666,128.18166,37.957325,7959.5968824,-4.036,61.856,357.339,1.0
13.0833,128.181658,37.957352,7963.383717600001,-4.036,61.992,357.322,1.0
13.1,128.181657,37.957378,7967.175124800001,-4.036,62.127,357.305,1.0
13.1166,128.181655,37.957404,7970.971104,-4.037,62.263,357.288,1.0
13.1333,128.181654,37.95743,7974.7716552,-4.037,62.399,357.271,1.0
13.15,128.181652,37.957456,7978.576473600001,-4.037,62.535,357.253,1.0
13.1666,128.181651,37.957482,7982.385864000001,-4.037,62.671,357.236,1.0
13.1833,128.181649,37.957508,7986.1998264,-4.037,62.808,357.219,1.0
13.2,128.181648,37.957533,7990.018056000001,-4.037,62.944,357.201,1.0
13.2166,128.181646,37.957559,7993.8405528,-4.037,63.081,357.184,1.0
13.2333,128.181645,37.957585,7997.6676216000005,-4.038,63.217,357.166,1.0
13.25,128.181643,37.95761,8001.4989576,-4.038,63.354,357.148,1.0
13.2666,128.181642,37.957636,8005.334560800001,-4.038,63.491,357.13,1.0
13.2833,128.18164,37.957661,8009.174736,-4.038,63.628,357.113,1.0
13.3,128.181639,37.957686,8013.018873600001,-4.038,63.766,357.095,1.0
13.3166,128.181637,37.957711,8016.867583200001,-4.039,63.903,357.077,1.0
13.3333,128.181636,37.957736,8020.720255200001,-4.039,64.041,357.058,1.0
13.35,128.181634,37.957761,8024.5771944,-4.039,64.178,357.04,1.0
13.3666,128.181633,37.957786,8028.438400800001,-4.039,64.316,357.022,1.0
13.3833,128.181631,37.957811,8032.3038744000005,-4.04,64.454,357.004,1.0
13.4,128.18163,37.957836,8036.1733104,-4.04,64.592,356.985,1.0
13.4166,128.181628,37.95786,8040.0470136,-4.04,64.731,356.967,1.0
13.4333,128.181626,37.957885,8043.924679200001,-4.041,64.869,356.948,1.0
13.45,128.181625,37.957909,8047.806612,-4.041,65.008,356.929,1.0
13.4666,128.181623,37.957934,8051.6925072,-4.042,65.146,356.91,1.0
13.4833,128.181622,37.957958,8055.5823648000005,-4.042,65.285,356.891,1.0
13.5,128.18162,37.957982,8059.4764896,-4.042,65.425,356.872,1.0
13.5166,128.181619,37.958006,8063.3745768,-4.043,65.564,356.853,1.0
13.5333,128.181617,37.95803,8067.2763216,-4.043,65.704,356.834,1.0
13.55,128.181616,37.958054,8071.182333600001,-4.044,65.844,356.815,1.0
13.5666,128.181614,37.958078,8075.092308,-4.044,65.985,356.795,1.0
13.5833,128.181613,37.958102,8079.00594,-4.045,66.125,356.776,1.0
13.6,128.181611,37.958125,8082.9235344,-4.046,66.266,356.756,1.0
13.6166,128.181609,37.958149,8086.845091200001,-4.046,66.408,356.736,1.0
13.6333,128.181608,37.958172,8090.770305600001,-4.047,66.549,356.716,1.0
13.65,128.181606,37.958196,8094.6994824,-4.048,66.691,356.696,1.0
13.6666,128.181605,37.958219,8098.6323168,-4.048,66.834,356.676,1.0
13.6833,128.181603,37.958242,8102.5691136000005,-4.049,66.976,356.655,1.0
13.7,128.181602,37.958265,8106.509568,-4.05,67.119,356.635,1.0
13.7166,128.1816,37.958288,8110.45368,-4.05,67.263,356.614,1.0
13.7333,128.181598,37.958311,8114.401754400001,-4.051,67.406,356.593,1.0
13.75,128.181597,37.958334,8118.3531816,-4.052,67.55,356.572,1.0
13.7666,128.181595,37.958357,8122.3085712,-4.053,67.694,356.551,1.0
13.7833,128.181594,37.95838,8126.2673136,-4.054,67.839,356.53,1.0
13.8,128.181592,37.958402,8130.229713600001,-4.054,67.984,356.509,1.0
13.8166,128.181591,37.958425,8134.1957712,-4.055,68.129,356.487,1.0
13.8333,128.181589,37.958447,8138.1654864,-4.056,68.274,356.465,1.0
13.85,128.181587,37.95847,8142.1385544,-4.057,68.42,356.444,1.0
13.8666,128.181586,37.958492,8146.11528,-4.058,68.566,356.422,1.0
13.8833,128.181584,37.958514,8150.095663200001,-4.059,68.712,356.4,1.0
13.9,128.181583,37.958536,8154.0790944,-4.059,68.859,356.377,1.0
13.9166,128.181581,37.958558,8158.0661832000005,-4.06,69.005,356.355,1.0
13.9333,128.181579,37.95858,8162.056929599999,-4.061,69.152,356.332,1.0
13.95,128.181578,37.958602,8166.050724000001,-4.062,69.3,356.31,1.0
13.9666,128.181576,37.958623,8170.048176,-4.063,69.448,356.287,1.0
13.9833,128.181575,37.958645,8174.0489808,-4.064,69.596,356.264,1.0
14.0,128.181573,37.958667,8178.052833600001,-4.065,69.744,356.24,1.0
14.0166,128.181572,37.958688,8182.060344,-4.066,69.892,356.217,1.0
14.0333,128.18157,37.958709,8186.0709024,-4.067,70.041,356.194,1.0
14.05,128.181568,37.958731,8190.0848136,-4.068,70.19,356.17,1.0
14.0666,128.181567,37.958752,8194.1020776,-4.069,70.34,356.146,1.0
14.0833,128.181565,37.958773,8198.1223896,-4.071,70.49,356.122,1.0
14.1,128.181564,37.958794,8202.1457496,-4.072,70.64,356.098,1.0
14.1166,128.181562,37.958815,8206.1724624,-4.073,70.79,356.073,1.0
14.1333,128.18156,37.958835,8210.202528,-4.074,70.941,356.048,1.0
14.15,128.181559,37.958856,8214.2356416,-4.075,71.091,356.024,1.0
14.1666,128.181557,37.958877,8218.2714984,-4.077,71.243,355.999,1.0
14.1833,128.181556,37.958897,8222.310708,-4.078,71.394,355.973,1.0
14.2,128.181554,37.958918,8226.352965600001,-4.079,71.546,355.948,1.0
14.2166,128.181552,37.958938,8230.3982712,-4.081,71.698,355.922,1.0
14.2333,128.181551,37.958958,8234.4466248,-4.082,71.85,355.897,1.0
14.25,128.181549,37.958978,8238.4977216,-4.083,72.003,355.871,1.0
14.2666,128.181548,37.958998,8242.5521712,-4.085,72.156,355.844,1.0
14.2833,128.181546,37.959018,8246.609364,-4.086,72.309,355.818,1.0
14.3,128.181544,37.959038,8250.6693,-4.088,72.462,355.791,1.0
14.3166,128.181543,37.959058,8254.732284000002,-4.09,72.616,355.764,1.0
14.3333,128.181541,37.959078,8258.7980112,-4.092,72.77,355.737,1.0
14.35,128.18154,37.959097,8262.8667864,-4.093,72.925,355.71,1.0
14.3666,128.181538,37.959117,8266.9383048,-4.101,73.08,355.68,1.0
14.3833,128.181536,37.959136,8271.0125664,-4.113,73.234,355.646,1.0
14.4,128.181535,37.959155,8275.089876,-4.131,73.39,355.611,1.0
14.4166,128.181533,37.959175,8279.1699288,-4.153,73.545,355.573,1.0
14.4333,128.181532,37.959194,8283.25242,-4.18,73.701,355.533,1.0
14.45,128.18153,37.959213,8287.3379592,-4.21,73.857,355.492,1.0
14.4666,128.181528,37.959232,8291.4259368,-4.244,74.013,355.45,1.0
14.4833,128.181527,37.95925,8295.516962400001,-4.282,74.17,355.406,1.0
14.5,128.181525,37.959269,8299.6104264,-4.322,74.326,355.361,1.0
14.5166,128.181524,37.959288,8303.7063288,-4.366,74.483,355.314,1.0
14.5333,128.181522,37.959306,8307.8049744,-4.412,74.639,355.265,1.0
14.55,128.181521,37.959325,8311.9060584,-4.463,74.796,355.214,1.0
14.5666,128.181519,37.959343,8316.0098856,-4.517,74.953,355.158,1.0
14.5833,128.181517,37.959361,8320.1158464,-4.576,75.109,355.099,1.0
14.6,128.181516,37.959379,8324.2245504,-4.638,75.266,355.035,1.0
14.6166,128.181514,37.959397,8328.335692800001,-4.706,75.423,354.966,1.0
14.6333,128.181513,37.959415,8332.449273600001,-4.778,75.579,354.892,1.0
14.65,128.181511,37.959433,8336.565292800002,-4.856,75.736,354.813,1.0
14.6666,128.181509,37.959451,8340.6834456,-4.938,75.892,354.728,1.0
14.6833,128.181508,37.959468,8344.8040368,-5.027,76.049,354.637,1.0
14.7,128.181506,37.959486,8348.9270664,-5.12,76.205,354.54,1.0
14.7166,128.181505,37.959503,8353.0522296,-5.219,76.362,354.439,1.0
14.7333,128.181503,37.959521,8357.179831200001,-5.322,76.518,354.334,1.0
14.75,128.181502,37.959538,8361.3092616,-5.429,76.675,354.225,1.0
14.7666,128.1815,37.959555,8365.4411304,-5.54,76.832,354.113,1.0
14.7833,128.181498,37.959572,8369.5754376,-5.655,76.988,353.997,1.0
14.8,128.181497,37.959589,8373.711573600001,-5.774,77.145,353.879,1.0
14.8166,128.181495,37.959606,8377.8498432,-5.897,77.302,353.758,1.0
14.8333,128.181494,37.959623,8381.9902464,-6.022,77.458,353.634,1.0
14.85,128.181492,37.95964,8386.1324784,-6.152,77.615,353.508,1.0
14.8666,128.181491,37.959656,8390.2771488,-6.285,77.772,353.378,1.0
14.8833,128.181489,37.959673,8394.423648,-6.421,77.929,353.246,1.0
14.9,128.181487,37.959689,8398.571976,-6.56,78.086,353.111,1.0
14.9166,128.181486,37.959705,8402.722437600001,-6.703,78.244,352.973,1.0
14.9333,128.181484,37.959721,8406.8744232,-6.849,78.401,352.832,1.0
14.95,128.181483,37.959737,8411.028847200001,-6.999,78.558,352.688,1.0
14.9666,128.181481,37.959753,8415.1847952,-7.152,78.716,352.541,1.0
14.9833,128.18148,37.959769,8419.342572,-7.309,78.873,352.39,1.0
15.0,128.181478,37.959785,8423.502177600001,-7.47,79.031,352.235,1.0
