Time,Longitude,Latitude,Altitude,Roll (deg),Pitch (deg),Yaw (deg),Health
0.0,128.186502,37.932064,7060.6200672,0.0,-4.003,164.0,1.0
0.0166,128.186518,37.932021,7060.253392800001,0.0,-4.012,164.0,1.0
0.0333,128.186534,37.931978,7059.8867184,-0.085,-4.025,163.988,1.0
0.05,128.186549,37.931935,7059.520044,-0.254,-4.041,163.966,1.0
0.0666,128.186565,37.931892,7059.153979200001,-0.508,-4.059,163.936,1.0
0.0833,128.186581,37.931848,7058.7888288,-0.851,-4.077,163.902,1.0
0.1,128.186596,37.931805,7058.424897600001,-1.283,-4.095,163.868,1.0
0.1166,128.186612,37.931762,7058.062490400001,-1.801,-4.114,163.833,1.0
0.1333,128.186628,37.931719,7057.7016072,-2.403,-4.132,163.798,1.0
0.15,128.186643,37.931676,7057.3431624,-3.087,-4.149,163.765,1.0
0.1666,128.186659,37.931633,7056.987156000001,-3.848,-4.166,163.732,1.0
0.1833,128.186675,37.93159,7056.632978400001,-4.685,-4.182,163.701,1.0
0.2,128.186691,37.931546,7056.2809344,-5.593,-4.197,163.67,1.0
0.2166,128.186706,37.931503,7055.930719200001,-6.571,-4.212,163.641,1.0
0.2333,128.186722,37.93146,7055.5826376,-7.613,-4.226,163.612,1.0
0.25,128.186738,37.931417,7055.2363847999995,-8.719,-4.24,163.585,1.0
0.2666,128.186753,37.931374,7054.891960800001,-9.885,-4.253,163.558,1.0
0.2833,128.186769,37.931331,7054.549060800001,-11.108,-4.266,163.532,1.0
0.3,128.186785,37.931287,7054.2082944,-12.387,-4.278,163.507,1.0
0.3166,128.186801,37.931244,7053.869052000001,-13.718,-4.29,163.483,1.0
0.3333,128.186817,37.931201,7053.531638400001,-15.099,-4.302,163.46,1.0
0.35,128.186832,37.931158,7053.1957488,-16.529,-4.314,163.437,1.0
0.3666,128.186848,37.931115,7052.861383200001,-18.004,-4.326,163.416,1.0
0.3833,128.186864,37.931072,7052.528541600001,-19.523,-4.337,163.395,1.0
0.4,128.18688,37.931028,7052.1972240000005,-21.084,-4.349,163.375,1.0
0.4166,128.186896,37.930985,7051.8674304,-22.685,-4.361,163.356,1.0
0.4333,128.186912,37.930942,7051.538856000001,-24.324,-4.372,163.337,1.0
0.45,128.186928,37.930899,7051.211500800001,-26.0,-4.384,163.32,1.0
0.4666,128.186943,37.930856,7050.8856696,-27.71,-4.396,163.303,1.0
0.4833,128.186959,37.930812,7050.5607528,-29.453,-4.408,163.287,1.0
0.5,128.186975,37.930769,7050.2370552,-31.227,-4.421,163.272,1.0
0.5166,128.186991,37.930726,7049.914272,-33.032,-4.433,163.257,1.0
0.5333,128.187008,37.930683,7049.592708,-34.865,-4.445,163.243,1.0
0.55,128.187024,37.93064,7049.2717536,-36.726,-4.457,163.229,1.0
0.5666,128.18704,37.930597,7048.9517136,-38.612,-4.468,163.216,1.0
0.5833,128.187056,37.930553,7048.6322832000005,-40.523,-4.48,163.203,1.0
0.6,128.187072,37.93051,7048.3137672,-42.458,-4.491,163.191,1.0
0.6166,128.187088,37.930467,7047.995556000001,-44.416,-4.503,163.18,1.0
0.6333,128.187104,37.930424,7047.6779544,-46.394,-4.506,163.16,1.0
0.65,128.187121,37.930381,7047.3609624,-48.391,-4.497,163.128,1.0
0.6666,128.187137,37.930338,7047.043970400001,-50.407,-4.482,163.088,1.0
0.6833,128.187154,37.930295,7046.727588000001,-52.441,-4.462,163.041,1.0
0.7,128.18717,37.930251,7046.4112056,-54.492,-4.44,162.991,1.0
0.7166,128.187186,37.930208,7046.095128000001,-56.559,-4.418,162.938,1.0
0.7333,128.187203,37.930165,7045.7790504,-58.639,-4.389,162.872,1.0
0.75,128.187219,37.930122,7045.463277600001,-60.732,-4.354,162.792,1.0
0.7666,128.187236,37.930079,7045.1468952000005,-62.836,-4.317,162.704,1.0
0.7833,128.187253,37.930036,7044.8305128,-64.952,-4.28,162.61,1.0
0.8,128.187269,37.929993,7044.5138256,-67.079,-4.245,162.512,1.0
0.8166,128.187286,37.92995,7044.196224,-69.214,-4.213,162.412,1.0
0.8333,128.187303,37.929907,7043.8786224000005,-71.358,-4.18,162.299,1.0
0.85,128.18732,37.929864,7043.560106400001,-73.51,-4.145,162.167,1.0
0.8666,128.187337,37.929821,7043.240676,-75.67,-4.111,162.022,1.0
0.8833,128.187354,37.929778,7042.9200264,-77.837,-4.081,161.868,1.0
0.9,128.187371,37.929735,7042.5981576,-80.013,-4.055,161.711,1.0
0.9166,128.187388,37.929692,7042.2750696,-82.198,-4.036,161.553,1.0
0.9333,128.187406,37.929649,7041.949848,-84.385,-4.021,161.381,1.0
0.95,128.187423,37.929606,7041.6231024,-86.574,-4.01,161.19,1.0
0.9666,128.18744,37.929563,7041.293918400001,-88.765,-4.007,160.986,1.0
0.9833,128.187458,37.92952,7040.9626008000005,-90.958,-4.01,160.774,1.0
1.0,128.187476,37.929477,7040.62854,-93.154,-4.022,160.56,1.0
1.0166,128.187493,37.929434,7040.2914312,-95.352,-4.042,160.348,1.0
1.0333,128.187511,37.929391,7039.9509696000005,-97.499,-4.069,160.124,1.0
1.05,128.187529,37.929349,7039.6068504,-99.594,-4.104,159.882,1.0
1.0666,128.187547,37.929306,7039.259378400001,-101.643,-4.149,159.627,1.0
1.0833,128.187565,37.929263,7038.907944,-103.654,-4.205,159.368,1.0
1.1,128.187583,37.92922,7038.552547200001,-105.63,-4.272,159.109,1.0
1.1166,128.187601,37.929177,7038.1925784000005,-107.579,-4.349,158.855,1.0
1.1333,128.187619,37.929135,7037.8277328,-109.44,-4.437,158.592,1.0
1.15,128.187637,37.929092,7037.458010400001,-111.219,-4.537,158.314,1.0
1.1666,128.187656,37.929049,7037.083716,-112.925,-4.652,158.025,1.0
1.1833,128.187674,37.929007,7036.7039352,-114.569,-4.779,157.735,1.0
1.2,128.187693,37.928964,7036.318668,-116.162,-4.917,157.448,1.0
1.2166,128.187711,37.928921,7035.9276096,-117.711,-5.065,157.17,1.0
1.2333,128.18773,37.928879,7035.530455200001,-119.159,-5.224,156.886,1.0
1.25,128.187749,37.928836,7035.1269,-120.514,-5.399,156.59,1.0
1.2666,128.187768,37.928793,7034.7175536,-121.788,-5.588,156.288,1.0
1.2833,128.187786,37.928751,7034.301501600001,-122.992,-5.788,155.988,1.0
1.3,128.187805,37.928708,7033.8784392,-124.137,-5.996,155.694,1.0
1.3166,128.187825,37.928666,7033.4480616,-125.235,-6.211,155.41,1.0
1.3333,128.187844,37.928623,7033.010673600001,-126.243,-6.43,155.132,1.0
1.35,128.187863,37.928581,7032.565970400001,-127.171,-6.653,154.862,1.0
1.3666,128.187882,37.928538,7032.113952000001,-128.03,-6.876,154.602,1.0
1.3833,128.187902,37.928496,7031.653704,-128.831,-7.101,154.355,1.0
1.4,128.187921,37.928453,7031.1852264,-129.582,-7.326,154.119,1.0
1.4166,128.187941,37.928411,7030.7082144000005,-130.292,-7.55,153.897,1.0
1.4333,128.18796,37.928368,7030.222058400001,-130.994,-7.774,153.688,1.0
1.45,128.18798,37.928326,7029.7264536,-131.694,-7.998,153.491,1.0
1.4666,128.188,37.928284,7029.2204856,-132.394,-8.221,153.307,1.0
1.4833,128.18802,37.928242,7028.704764,-133.096,-8.442,153.134,1.0
1.5,128.18804,37.928199,7028.178679200001,-133.802,-8.661,152.97,1.0
1.5166,128.18806,37.928157,7027.641926400001,-134.513,-8.878,152.816,1.0
1.5333,128.18808,37.928115,7027.095420000001,-135.191,-9.092,152.668,1.0
1.55,128.188101,37.928073,7026.5388552,-135.837,-9.302,152.526,1.0
1.5666,128.188121,37.928031,7025.972232,-136.455,-9.51,152.39,1.0
1.5833,128.188141,37.927989,7025.3955504000005,-137.047,-9.716,152.261,1.0
1.6,128.188162,37.927946,7024.8082008,-137.618,-9.921,152.137,1.0
1.6166,128.188183,37.927904,7024.210183200001,-138.17,-10.125,152.02,1.0
1.6333,128.188203,37.927862,7023.602412,-138.685,-10.326,151.907,1.0
1.65,128.188224,37.92782,7022.9842776000005,-139.166,-10.526,151.799,1.0
1.6666,128.188245,37.927779,7022.3554752,-139.616,-10.724,151.695,1.0
1.6833,128.188266,37.927737,7021.715700000001,-140.041,-10.921,151.595,1.0
1.7,128.188287,37.927695,7021.0652568000005,-140.444,-11.117,151.5,1.0
1.7166,128.188308,37.927653,7020.403840800001,-140.827,-11.312,151.409,1.0
1.7333,128.188329,37.927611,7019.731756800001,-141.184,-11.505,151.322,1.0
1.75,128.18835,37.927569,7019.0487,-141.517,-11.697,151.237,1.0
1.7666,128.188371,37.927528,7018.354365600001,-141.829,-11.888,151.156,1.0
1.7833,128.188393,37.927486,7017.6487536,-142.122,-12.078,151.078,1.0
1.8,128.188414,37.927444,7016.931864,-142.401,-12.266,151.002,1.0
1.8166,128.188436,37.927403,7016.203392,-142.666,-12.454,150.929,1.0
1.8333,128.188457,37.927361,7015.463947200001,-142.916,-12.64,150.858,1.0
1.85,128.188479,37.927319,7014.712615200001,-143.151,-12.826,150.789,1.0
1.8666,128.188501,37.927278,7013.949700800001,-143.374,-13.01,150.722,1.0
1.8833,128.188523,37.927236,7013.1748992,-143.587,-13.193,150.657,1.0
1.9,128.188544,37.927195,7012.388820000001,-143.791,-13.376,150.594,1.0
1.9166,128.188566,37.927154,7011.5905488,-143.986,-13.558,150.532,1.0
1.9333,128.188588,37.927112,7010.7803904,-144.173,-13.738,150.471,1.0
1.95,128.18861,37.927071,7009.9586496,-144.353,-13.918,150.411,1.0
1.9666,128.188633,37.92703,7009.1247168,-144.526,-14.098,150.353,1.0
1.9833,128.188655,37.926988,7008.278592000001,-144.693,-14.276,150.295,1.0
2.0,128.188677,37.926947,7007.42058,-144.855,-14.454,150.239,1.0
2.0166,128.188699,37.926906,7006.5506808,-145.013,-14.631,150.183,1.0
2.0333,128.188722,37.926865,7005.6682848,-145.166,-14.808,150.127,1.0
2.05,128.188744,37.926824,7004.774001600001,-145.316,-14.984,150.073,1.0
2.0666,128.188767,37.926783,7003.8672216,-145.461,-15.159,150.019,1.0
2.0833,128.18879,37.926742,7002.9482496,-145.604,-15.334,149.965,1.0
2.1,128.188812,37.926701,7002.0170856,-145.744,-15.508,149.912,1.0
2.1166,128.188835,37.92666,7001.0737296,-145.881,-15.682,149.86,1.0
2.1333,128.188858,37.926619,7000.1178768,-146.014,-15.855,149.807,1.0
2.15,128.188881,37.926578,6999.149832,-146.145,-16.028,149.755,1.0
2.1666,128.188904,37.926537,6998.1692904,-146.272,-16.201,149.703,1.0
2.1833,128.188927,37.926496,6997.176252000001,-146.396,-16.373,149.652,1.0
2.2,128.18895,37.926456,6996.1710216,-146.518,-16.544,149.6,1.0
2.2166,128.188973,37.926415,6995.1532944,-146.638,-16.716,149.549,1.0
2.2333,128.188996,37.926374,6994.123070400001,-146.753,-16.887,149.498,1.0
2.25,128.189019,37.926334,6993.080654400001,-146.864,-17.057,149.447,1.0
2.2666,128.189042,37.926293,6992.0254368000005,-146.971,-17.227,149.396,1.0
2.2833,128.189066,37.926253,6990.9577224,-147.075,-17.397,149.345,1.0
2.3,128.189089,37.926212,6989.877816,-147.175,-17.566,149.294,1.0
2.3166,128.189113,37.926172,6988.785108,-147.272,-17.735,149.244,1.0
2.3333,128.189136,37.926131,6987.680208,-147.364,-17.904,149.193,1.0
2.35,128.18916,37.926091,6986.5625064000005,-147.45,-18.072,149.142,1.0
2.3666,128.189184,37.926051,6985.432308,-147.531,-18.24,149.091,1.0
2.3833,128.189207,37.92601,6984.2896128,-147.608,-18.407,149.04,1.0
2.4,128.189231,37.92597,6983.1344208,-147.68,-18.574,148.989,1.0
2.4166,128.189255,37.92593,6981.9664272,-147.748,-18.741,148.938,1.0
2.4333,128.189279,37.92589,6980.786241600001,-147.809,-18.907,148.887,1.0
2.45,128.189303,37.92585,6979.5935592000005,-147.864,-19.072,148.835,1.0
2.4666,128.189327,37.92581,6978.3880752,-147.912,-19.237,148.782,1.0
2.4833,128.189351,37.92577,6977.1700944,-147.954,-19.401,148.73,1.0
2.5,128.189375,37.92573,6975.9396168,-147.991,-19.565,148.677,1.0
2.5166,128.189399,37.92569,6974.696642400001,-148.022,-19.728,148.624,1.0
2.5333,128.189423,37.92565,6973.4408664,-148.045,-19.891,148.57,1.0
2.55,128.189448,37.92561,6972.1728984,-148.061,-20.052,148.515,1.0
2.5666,128.189472,37.92557,6970.892128800001,-148.069,-20.213,148.46,1.0
2.5833,128.189496,37.925531,6969.5988624,-148.07,-20.373,148.404,1.0
2.6,128.189521,37.925491,6968.2927944,-148.064,-20.533,148.348,1.0
2.6166,128.189545,37.925451,6966.9745344,-148.053,-20.692,148.292,1.0
2.6333,128.18957,37.925412,6965.6434728,-148.035,-20.85,148.234,1.0
2.65,128.189594,37.925372,6964.2999144000005,-148.009,-21.008,148.176,1.0
2.6666,128.189619,37.925333,6962.943859200001,-147.976,-21.165,148.117,1.0
2.6833,128.189644,37.925293,6961.5750024,-147.937,-21.321,148.058,1.0
2.7,128.189668,37.925254,6960.1936488,-147.893,-21.477,147.998,1.0
2.7166,128.189693,37.925215,6958.7994936,-147.843,-21.632,147.938,1.0
2.7333,128.189718,37.925175,6957.393146400001,-147.787,-21.786,147.877,1.0
2.75,128.189743,37.925136,6955.973997600001,-147.725,-21.94,147.814,1.0
2.7666,128.189768,37.925097,6954.542352,-147.659,-22.093,147.752,1.0
2.7833,128.189793,37.925058,6953.097904800001,-147.587,-22.246,147.688,1.0
2.8,128.189818,37.925019,6951.6409608,-147.51,-22.398,147.624,1.0
2.8166,128.189843,37.92498,6950.171520000001,-147.43,-22.549,147.559,1.0
2.8333,128.189868,37.924941,6948.6895824,-147.344,-22.7,147.493,1.0
2.85,128.189893,37.924902,6947.1948432,-147.255,-22.849,147.425,1.0
2.8666,128.189919,37.924863,6945.6876072,-147.162,-22.998,147.356,1.0
2.8833,128.189944,37.924824,6944.167874400001,-147.064,-23.146,147.286,1.0
2.9,128.189969,37.924785,6942.63534,-146.963,-23.293,147.216,1.0
2.9166,128.189995,37.924746,6941.0906136,-146.857,-23.44,147.144,1.0
2.9333,128.19002,37.924708,6939.5327808,-146.753,-23.585,147.069,1.0
2.95,128.190046,37.924669,6937.962756000001,-146.65,-23.727,146.989,1.0
2.9666,128.190071,37.924631,6936.3799296,-146.547,-23.867,146.906,1.0
2.9833,128.190097,37.924592,6934.7846064000005,-146.443,-24.006,146.822,1.0
3.0,128.190122,37.924554,6933.1767864,-146.335,-24.144,146.735,1.0
3.0166,128.190148,37.924515,6931.556469600001,-146.224,-24.281,146.648,1.0
3.0333,128.190174,37.924477,6929.923656000001,-146.113,-24.418,146.56,1.0
3.05,128.1902,37.924439,6928.2780408,-146.001,-24.554,146.471,1.0
3.0666,128.190225,37.9244,6926.620233600001,-145.889,-24.691,146.381,1.0
3.0833,128.190251,37.924362,6924.949929599999,-145.776,-24.826,146.291,1.0
3.1,128.190277,37.924324,6923.266824,-145.663,-24.962,146.2,1.0
3.1166,128.190303,37.924286,6921.5715264,-145.548,-25.097,146.109,1.0
3.1333,128.190329,37.924248,6919.8634272,-145.437,-25.232,146.017,1.0
3.15,128.190355,37.92421,6918.143136000001,-145.327,-25.367,145.924,1.0
3.1666,128.190382,37.924172,6916.410347999999,-145.22,-25.502,145.832,1.0
3.1833,128.190408,37.924134,6914.6647584,-145.115,-25.636,145.738,1.0
3.2,128.190434,37.924097,6912.9069768,-145.011,-25.771,145.644,1.0
3.2166,128.19046,37.924059,6911.1370032,-144.909,-25.905,145.549,1.0
3.2333,128.190487,37.924021,6909.3539232,-144.81,-26.039,145.454,1.0
3.25,128.190513,37.923984,6907.558956000001,-144.716,-26.173,145.359,1.0
3.2666,128.190539,37.923946,6905.751492,-144.625,-26.306,145.263,1.0
3.2833,128.190566,37.923909,6903.9315312,-144.537,-26.44,145.166,1.0
3.3,128.190593,37.923871,6902.0990736,-144.451,-26.573,145.069,1.0
3.3166,128.190619,37.923834,6900.254424000001,-144.367,-26.707,144.972,1.0
3.3333,128.190646,37.923797,6898.3972776,-144.288,-26.84,144.874,1.0
3.35,128.190672,37.923759,6896.5279392,-144.213,-26.973,144.776,1.0
3.3666,128.190699,37.923722,6894.646104,-144.142,-27.107,144.677,1.0
3.3833,128.190726,37.923685,6892.7520768,-144.074,-27.24,144.578,1.0
3.4,128.190753,37.923648,6890.8458576,-144.009,-27.373,144.479,1.0
3.4166,128.19078,37.923611,6888.9271416,-143.946,-27.506,144.379,1.0
3.4333,128.190807,37.923574,6886.996233600001,-143.888,-27.639,144.279,1.0
3.45,128.190834,37.923537,6885.0531336,-143.833,-27.772,144.179,1.0
3.4666,128.190861,37.923501,6883.097536800001,-143.782,-27.905,144.079,1.0
3.4833,128.190888,37.923464,6881.129748,-143.733,-28.038,143.978,1.0
3.5,128.190915,37.923427,6879.150072,-143.688,-28.171,143.877,1.0
3.5166,128.190942,37.923391,6877.1578992,-143.644,-28.304,143.775,1.0
3.5333,128.190969,37.923354,6875.153534399999,-143.604,-28.437,143.674,1.0
3.55,128.190997,37.923318,6873.1369776,-143.567,-28.57,143.572,1.0
3.5666,128.191024,37.923281,6871.108533600001,-143.533,-28.704,143.471,1.0
3.5833,128.191051,37.923245,6869.067592800001,-143.501,-28.837,143.369,1.0
3.6,128.191079,37.923209,6867.0147648,-143.472,-28.97,143.266,1.0
3.6166,128.191106,37.923172,6864.9497448,-143.445,-29.103,143.164,1.0
3.6333,128.191134,37.923136,6862.872532800001,-143.42,-29.236,143.062,1.0
3.65,128.191161,37.9231,6860.783128800001,-143.398,-29.369,142.959,1.0
3.6666,128.191189,37.923064,6858.681837600001,-143.378,-29.503,142.857,1.0
3.6833,128.191217,37.923028,6856.5683544,-143.36,-29.636,142.754,1.0
3.7,128.191244,37.922993,6854.4426792,-143.344,-29.769,142.651,1.0
3.7166,128.191272,37.922957,6852.3051168,-143.329,-29.903,142.548,1.0
3.7333,128.1913,37.922921,6850.1553624,-143.317,-30.036,142.446,1.0
3.75,128.191328,37.922885,6847.9937208,-143.306,-30.17,142.343,1.0
3.7666,128.191356,37.92285,6845.820192000001,-143.297,-30.303,142.24,1.0
3.7833,128.191383,37.922814,6843.6344712,-143.29,-30.437,142.137,1.0
3.8,128.191411,37.922779,6841.4365584,-143.285,-30.57,142.034,1.0
3.8166,128.191439,37.922743,6839.2267584,-143.28,-30.704,141.931,1.0
3.8333,128.191468,37.922708,6837.0050712,-143.277,-30.838,141.828,1.0
3.85,128.191496,37.922673,6834.771496800001,-143.276,-30.972,141.725,1.0
3.8666,128.191524,37.922638,6832.5257304,-143.276,-31.106,141.622,1.0
3.8833,128.191552,37.922603,6830.2683816,-143.277,-31.24,141.519,1.0
3.9,128.19158,37.922568,6827.9988408,-143.279,-31.374,141.416,1.0
3.9166,128.191608,37.922533,6825.717108,-143.283,-31.508,141.314,1.0
3.9333,128.191637,37.922498,6823.423792800001,-143.287,-31.642,141.211,1.0
3.95,128.191665,37.922463,6821.1185904,-143.293,-31.777,141.108,1.0
3.9666,128.191694,37.922428,6818.801196,-143.3,-31.911,141.005,1.0
3.9833,128.191722,37.922394,6816.472219200001,-143.307,-32.046,140.903,1.0
4.0,128.19175,37.922359,6814.1310504,-143.316,-32.18,140.8,1.0
4.0166,128.191779,37.922324,6811.7782992,-143.325,-32.315,140.697,1.0
4.0333,128.191808,37.92229,6809.413356000001,-143.336,-32.449,140.595,1.0
4.05,128.191836,37.922256,6807.0368304,-143.347,-32.584,140.492,1.0
4.0666,128.191865,37.922221,6804.6484176,-143.359,-32.719,140.39,1.0
4.0833,128.191893,37.922187,6802.2481176,-143.372,-32.854,140.287,1.0
4.1,128.191922,37.922153,6799.8359304,-143.385,-32.989,140.185,1.0
4.1166,128.191951,37.922119,6797.411856000001,-143.399,-33.124,140.083,1.0
4.1333,128.19198,37.922085,6794.9761992,-143.414,-33.259,139.981,1.0
4.15,128.192009,37.922051,6792.528655200001,-143.429,-33.395,139.878,1.0
4.1666,128.192037,37.922017,6790.069224000001,-143.444,-33.53,139.776,1.0
4.1833,128.192066,37.921983,6787.597905600001,-143.461,-33.665,139.674,1.0
4.2,128.192095,37.921949,6785.1150048,-143.477,-33.801,139.572,1.0
4.2166,128.192124,37.921916,6782.6202168,-143.495,-33.936,139.47,1.0
4.2333,128.192153,37.921882,6780.1138464000005,-143.512,-34.072,139.369,1.0
4.25,128.192182,37.921849,6777.595284000001,-143.53,-34.208,139.267,1.0
4.2666,128.192211,37.921815,6775.065444,-143.549,-34.343,139.165,1.0
4.2833,128.192241,37.921782,6772.5237168,-143.567,-34.479,139.063,1.0
4.3,128.19227,37.921749,6769.9701024,-143.587,-34.615,138.962,1.0
4.3166,128.192299,37.921715,6767.4049056,-143.606,-34.751,138.86,1.0
4.3333,128.192328,37.921682,6764.8278216,-143.626,-34.887,138.759,1.0
4.35,128.192357,37.921649,6762.239155200001,-143.646,-35.023,138.657,1.0
4.3666,128.192387,37.921616,6759.6389064,-143.666,-35.16,138.556,1.0
4.3833,128.192416,37.921583,6757.026770400001,-143.687,-35.296,138.454,1.0
4.4,128.192445,37.921551,6754.403052000001,-143.708,-35.432,138.353,1.0
4.4166,128.192475,37.921518,6751.767751200001,-143.73,-35.569,138.252,1.0
4.4333,128.192504,37.921485,6749.1205632,-143.751,-35.705,138.151,1.0
4.45,128.192534,37.921453,6746.461792800001,-143.774,-35.842,138.05,1.0
4.4666,128.192563,37.92142,6743.79144,-143.796,-35.978,137.948,1.0
4.4833,128.192593,37.921388,6741.109200000001,-143.818,-36.115,137.847,1.0
4.5,128.192622,37.921355,6738.4156824,-143.841,-36.252,137.746,1.0
4.5166,128.192652,37.921323,6735.7102776,-143.865,-36.388,137.645,1.0
4.5333,128.192681,37.921291,6732.993290400001,-143.888,-36.525,137.544,1.0
4.55,128.192711,37.921259,6730.2647208,-143.912,-36.662,137.444,1.0
4.5666,128.192741,37.921227,6727.524264000001,-143.936,-36.799,137.343,1.0
4.5833,128.19277,37.921195,6724.7725296,-143.96,-36.936,137.242,1.0
4.6,128.1928,37.921163,6722.009212800001,-143.984,-37.073,137.141,1.0
4.6166,128.19283,37.921131,6719.2343136,-144.009,-37.211,137.04,1.0
4.6333,128.19286,37.921099,6716.4475272,-144.034,-37.348,136.94,1.0
4.65,128.192889,37.921068,6713.6494632,-144.059,-37.485,136.839,1.0
4.6666,128.192919,37.921036,6710.8398168,-144.084,-37.622,136.738,1.0
4.6833,128.192949,37.921005,6708.018588000001,-144.11,-37.76,136.638,1.0
4.7,128.192979,37.920973,6705.1857768,-144.135,-37.897,136.537,1.0
4.7166,128.193009,37.920942,6702.341383200001,-144.161,-38.035,136.436,1.0
4.7333,128.193039,37.920911,6699.4854072,-144.187,-38.172,136.336,1.0
4.75,128.193069,37.920879,6696.6181536,-144.213,-38.31,136.235,1.0
4.7666,128.193099,37.920848,6693.7393176000005,-144.24,-38.448,136.135,1.0
4.7833,128.193129,37.920817,6690.8488992,-144.266,-38.585,136.034,1.0
4.8,128.193159,37.920786,6687.9468984,-144.293,-38.723,135.934,1.0
4.8166,128.193189,37.920756,6685.0333152,-144.319,-38.861,135.833,1.0
4.8333,128.193219,37.920725,6682.1084544000005,-144.345,-38.999,135.733,1.0
4.85,128.193249,37.920694,6679.172316,-144.371,-39.137,135.633,1.0
4.8666,128.193279,37.920663,6676.2242904,-144.397,-39.276,135.534,1.0
4.8833,128.193309,37.920633,6673.2649872,-144.423,-39.415,135.435,1.0
4.9,128.19334,37.920603,6670.294406400001,-144.449,-39.554,135.336,1.0
4.9166,128.19337,37.920572,6667.3122432,-144.476,-39.692,135.237,1.0
4.9333,128.1934,37.920542,6664.318497600001,-144.502,-39.832,135.138,1.0
4.95,128.19343,37.920512,6661.313474400001,-144.528,-39.971,135.04,1.0
4.9666,128.19346,37.920482,6658.297173600001,-144.553,-40.111,134.942,1.0
4.9833,128.193491,37.920452,6655.2692904000005,-144.579,-40.251,134.845,1.0
5.0,128.193521,37.920422,6652.2301296,-144.605,-40.391,134.747,1.0
5.0166,128.193551,37.920392,6649.1793864,-144.632,-40.53,134.649,1.0
5.0333,128.193582,37.920362,6646.117365600001,-144.658,-40.671,134.552,1.0
5.05,128.193612,37.920332,6643.0440672,-144.683,-40.811,134.455,1.0
5.0666,128.193642,37.920303,6639.9594912,-144.709,-40.953,134.357,1.0
5.0833,128.193673,37.920273,6636.8633328000005,-144.734,-41.094,134.259,1.0
5.1,128.193703,37.920244,6633.7558968,-144.759,-41.236,134.161,1.0
5.1166,128.193734,37.920214,6630.6371832,-144.783,-41.378,134.063,1.0
5.1333,128.193764,37.920185,6627.5068872,-144.807,-41.521,133.964,1.0
5.15,128.193794,37.920156,6624.3656184,-144.83,-41.665,133.865,1.0
5.1666,128.193825,37.920127,6621.2127672,-144.853,-41.809,133.765,1.0
5.1833,128.193855,37.920098,6618.0486384000005,-144.876,-41.953,133.666,1.0
5.2,128.193886,37.920069,6614.873232000001,-144.897,-42.098,133.565,1.0
5.2166,128.193916,37.92004,6611.686548,-144.919,-42.243,133.465,1.0
5.2333,128.193947,37.920011,6608.488586400001,-144.94,-42.388,133.364,1.0
5.25,128.193977,37.919983,6605.279347200001,-144.96,-42.533,133.262,1.0
5.2666,128.194008,37.919954,6602.0588304,-144.979,-42.679,133.16,1.0
5.2833,128.194038,37.919925,6598.827036000001,-144.998,-42.825,133.058,1.0
5.3,128.194069,37.919897,6595.583964,-145.016,-42.972,132.956,1.0
5.3166,128.1941,37.919869,6592.3296144000005,-145.034,-43.118,132.853,1.0
5.3333,128.19413,37.91984,6589.0639872,-145.051,-43.265,132.75,1.0
5.35,128.194161,37.919812,6585.7870824,-145.067,-43.411,132.646,1.0
5.3666,128.194191,37.919784,6582.4989000000005,-145.083,-43.558,132.542,1.0
5.3833,128.194222,37.919756,6579.19944,-145.097,-43.705,132.438,1.0
5.4,128.194253,37.919728,6575.8890071999995,-145.112,-43.853,132.333,1.0
5.4166,128.194283,37.919701,6572.566992000001,-145.125,-44.0,132.228,1.0
5.4333,128.194314,37.919673,6569.234004,-145.138,-44.147,132.123,1.0
5.45,128.194345,37.919645,6565.889738400001,-145.15,-44.294,132.017,1.0
5.4666,128.194375,37.919618,6562.5341952,-145.161,-44.442,131.911,1.0
5.4833,128.194406,37.91959,6559.167374400001,-145.171,-44.589,131.805,1.0
5.5,128.194437,37.919563,6555.7895808,-145.181,-44.737,131.698,1.0
5.5166,128.194467,37.919536,6552.4002048,-145.19,-44.884,131.591,1.0
5.5333,128.194498,37.919508,6549.000160800001,-145.198,-45.032,131.483,1.0
5.55,128.194529,37.919481,6545.5885344,-145.206,-45.179,131.375,1.0
5.5666,128.194559,37.919454,6542.1659352,-145.213,-45.327,131.266,1.0
5.5833,128.19459,37.919427,6538.7320584,-145.218,-45.474,131.157,1.0
5.6,128.194621,37.919401,6535.2869040000005,-145.224,-45.622,131.047,1.0
5.6166,128.194651,37.919374,6531.8307768,-145.228,-45.769,130.937,1.0
5.6333,128.194682,37.919347,6528.363372,-145.231,-45.917,130.827,1.0
5.65,128.194713,37.919321,6524.8849944,-145.234,-46.064,130.716,1.0
5.6666,128.194743,37.919294,6521.3953392,-145.235,-46.212,130.604,1.0
5.6833,128.194774,37.919268,6517.8947112000005,-145.236,-46.359,130.492,1.0
5.7,128.194805,37.919242,6514.3828056,-145.236,-46.507,130.379,1.0
5.7166,128.194836,37.919215,6510.8599272,-145.234,-46.654,130.266,1.0
5.7333,128.194866,37.919189,6507.3257711999995,-145.232,-46.801,130.153,1.0
5.75,128.194897,37.919163,6503.780642400001,-145.229,-46.949,130.038,1.0
5.7666,128.194928,37.919138,6500.2245408,-145.226,-47.096,129.923,1.0
5.7833,128.194958,37.919112,6496.6571616,-145.221,-47.243,129.808,1.0
5.8,128.194989,37.919086,6493.0791144,-145.215,-47.39,129.692,1.0
5.8166,128.19502,37.91906,6489.4894848,-145.208,-47.537,129.576,1.0
5.8333,128.19505,37.919035,6485.8891872,-145.2,-47.684,129.458,1.0
5.85,128.195081,37.919009,6482.277612,-145.191,-47.831,129.34,1.0
5.8666,128.195112,37.918984,6478.6553688,-145.182,-47.978,129.222,1.0
5.8833,128.195143,37.918959,6475.021847999999,-145.171,-48.124,129.103,1.0
5.9,128.195173,37.918934,6471.3773544000005,-145.159,-48.271,128.983,1.0
5.9166,128.195204,37.918909,6467.721888000001,-145.146,-48.418,128.862,1.0
5.9333,128.195235,37.918884,6464.0554488,-145.132,-48.564,128.741,1.0
5.95,128.195265,37.918859,6460.378036800001,-145.117,-48.71,128.619,1.0
5.9666,128.195296,37.918834,6456.689652000001,-145.101,-48.857,128.496,1.0
5.9833,128.195327,37.918809,6452.9902944000005,-145.084,-49.003,128.372,1.0
6.0,128.195357,37.918785,6449.279964,-145.065,-49.149,128.248,1.0
6.0166,128.195388,37.91876,6445.558965600001,-145.046,-49.295,128.123,1.0
6.0333,128.195418,37.918736,6441.8266896,-145.025,-49.441,127.998,1.0
6.05,128.195449,37.918712,6438.0837456,-145.003,-49.586,127.871,1.0
6.0666,128.19548,37.918688,6434.3301336,-144.98,-49.732,127.744,1.0
6.0833,128.19551,37.918663,6430.565244,-144.956,-49.877,127.615,1.0
6.1,128.195541,37.918639,6426.7896864,-144.931,-50.023,127.487,1.0
6.1166,128.195571,37.918616,6423.003156000001,-144.904,-50.168,127.357,1.0
6.1333,128.195602,37.918592,6419.2059576,-144.877,-50.314,127.227,1.0
6.15,128.195633,37.918568,6415.397786400001,-144.848,-50.459,127.095,1.0
6.1666,128.195663,37.918545,6411.578947200001,-144.818,-50.603,126.963,1.0
6.1833,128.195694,37.918521,6407.7494400000005,-144.787,-50.748,126.83,1.0
6.2,128.195724,37.918498,6403.908960000001,-144.754,-50.893,126.696,1.0
6.2166,128.195755,37.918474,6400.057812,-144.72,-51.038,126.561,1.0
6.2333,128.195785,37.918451,6396.1956912000005,-144.686,-51.182,126.426,1.0
6.25,128.195816,37.918428,6392.3229024,-144.65,-51.326,126.289,1.0
6.2666,128.195846,37.918405,6388.4394456,-144.612,-51.471,126.151,1.0
6.2833,128.195877,37.918382,6384.5453208,-144.574,-51.615,126.013,1.0
6.3,128.195907,37.918359,6380.640528000001,-144.534,-51.759,125.874,1.0
6.3166,128.195938,37.918337,6376.7250672,-144.493,-51.903,125.734,1.0
6.3333,128.195968,37.918314,6372.798938400001,-144.45,-52.046,125.593,1.0
6.35,128.195998,37.918292,6368.8621416000005,-144.407,-52.19,125.451,1.0
6.3666,128.196029,37.918269,6364.9146768,-144.362,-52.334,125.308,1.0
6.3833,128.196059,37.918247,6360.9568488,-144.316,-52.477,125.165,1.0
6.4,128.19609,37.918225,6356.988048,-144.268,-52.621,125.021,1.0
6.4166,128.19612,37.918203,6353.008884000001,-144.22,-52.764,124.876,1.0
6.4333,128.19615,37.918181,6349.019052000001,-144.17,-52.908,124.73,1.0
6.45,128.19618,37.918159,6345.018856800001,-144.118,-53.051,124.583,1.0
6.4666,128.196211,37.918137,6341.0079936,-144.066,-53.194,124.436,1.0
6.4833,128.196241,37.918115,6336.9867672,-144.012,-53.338,124.288,1.0
6.5,128.196271,37.918094,6332.9548728,-143.957,-53.481,124.139,1.0
6.5166,128.196301,37.918072,6328.912310400001,-143.901,-53.624,123.989,1.0
6.5333,128.196332,37.918051,6324.8596896,-143.843,-53.767,123.839,1.0
6.55,128.196362,37.91803,6320.796400800001,-143.785,-53.91,123.687,1.0
6.5666,128.196392,37.918009,6316.7227488,-143.725,-54.053,123.535,1.0
6.5833,128.196422,37.917988,6312.638733600001,-143.664,-54.196,123.382,1.0
6.6,128.196452,37.917967,6308.544355200001,-143.601,-54.339,123.228,1.0
6.6166,128.196482,37.917946,6304.439308800001,-143.538,-54.482,123.073,1.0
6.6333,128.196512,37.917925,6300.3242040000005,-143.473,-54.625,122.917,1.0
6.65,128.196542,37.917904,6296.198736,-143.407,-54.768,122.76,1.0
6.6666,128.196572,37.917884,6292.0629048,-143.34,-54.91,122.602,1.0
6.6833,128.196602,37.917864,6287.916710400001,-143.271,-55.053,122.444,1.0
6.7,128.196632,37.917843,6283.7601528,-143.201,-55.195,122.284,1.0
6.7166,128.196662,37.917823,6279.5935368,-143.13,-55.338,122.123,1.0
6.7333,128.196692,37.917803,6275.4165576,-143.058,-55.48,121.962,1.0
6.75,128.196722,37.917783,6271.229520000001,-142.984,-55.622,121.799,1.0
6.7666,128.196752,37.917763,6267.0321192,-142.909,-55.764,121.636,1.0
6.7833,128.196782,37.917743,6262.82466,-142.832,-55.907,121.471,1.0
6.8,128.196812,37.917724,6258.6068376,-142.754,-56.048,121.305,1.0
6.8166,128.196841,37.917704,6254.378956800001,-142.675,-56.19,121.138,1.0
6.8333,128.196871,37.917685,6250.1410176,-142.594,-56.332,120.97,1.0
6.85,128.196901,37.917665,6245.89302,-142.512,-56.474,120.801,1.0
6.8666,128.196931,37.917646,6241.634964000001,-142.428,-56.615,120.631,1.0
6.8833,128.19696,37.917627,6237.3668496,-142.343,-56.757,120.46,1.0
6.9,128.19699,37.917608,6233.0886768,-142.256,-56.898,120.287,1.0
6.9166,128.19702,37.917589,6228.800445600001,-142.168,-57.039,120.114,1.0
6.9333,128.197049,37.91757,6224.5021560000005,-142.078,-57.18,119.939,1.0
6.95,128.197079,37.917552,6220.193808,-141.987,-57.321,119.763,1.0
6.9666,128.197108,37.917533,6215.875706400001,-141.894,-57.462,119.586,1.0
6.9833,128.197138,37.917515,6211.5475464,-141.8,-57.603,119.407,1.0
7.0,128.197167,37.917496,6207.209632800001,-141.704,-57.744,119.228,1.0
7.0166,128.197197,37.917478,6202.861660800001,-141.606,-57.884,119.047,1.0
7.0333,128.197226,37.91746,6198.5039352,-141.507,-58.024,118.865,1.0
7.05,128.197255,37.917442,6194.1361512,-141.407,-58.164,118.681,1.0
7.0666,128.197285,37.917424,6189.758918400001,-141.304,-58.304,118.496,1.0
7.0833,128.197314,37.917406,6185.3716272,-141.2,-58.444,118.31,1.0
7.1,128.197343,37.917388,6180.9745824,-141.095,-58.584,118.123,1.0
7.1166,128.197372,37.917371,6176.567784000001,-140.987,-58.724,117.934,1.0
7.1333,128.197401,37.917353,6172.1515368,-140.878,-58.863,117.743,1.0
7.15,128.197431,37.917336,6167.7252312,-140.768,-59.002,117.552,1.0
7.1666,128.19746,37.917319,6163.289476800001,-140.655,-59.141,117.358,1.0
7.1833,128.197489,37.917302,6158.843968800001,-140.54,-59.28,117.164,1.0
7.2,128.197518,37.917285,6154.3887072,-140.424,-59.419,116.968,1.0
7.2166,128.197547,37.917268,6149.923996800001,-140.306,-59.557,116.77,1.0
7.2333,128.197576,37.917251,6145.4495328,-140.186,-59.696,116.571,1.0
7.25,128.197605,37.917234,6140.965620000001,-140.064,-59.834,116.37,1.0
7.2666,128.197634,37.917218,6136.4722584,-139.941,-59.972,116.168,1.0
7.2833,128.197662,37.917201,6131.969448,-139.815,-60.11,115.964,1.0
7.3,128.197691,37.917185,6127.456884000001,-139.688,-60.247,115.759,1.0
7.3166,128.19772,37.917169,6122.935176,-139.559,-60.385,115.552,1.0
7.3333,128.197749,37.917153,6118.4037144,-139.428,-60.522,115.343,1.0
7.35,128.197777,37.917137,6113.8631088,-139.295,-60.659,115.133,1.0
7.3666,128.197806,37.917121,6109.3130544000005,-139.16,-60.796,114.921,1.0
7.3833,128.197834,37.917105,6104.7535512,-139.023,-60.932,114.707,1.0
7.4,128.197863,37.917089,6100.1845992,-138.884,-61.068,114.492,1.0
7.4166,128.197891,37.917074,6095.6065032,-138.743,-61.205,114.274,1.0
7.4333,128.19792,37.917058,6091.0192632,-138.599,-61.34,114.055,1.0
7.45,128.197948,37.917043,6086.4225744000005,-138.454,-61.476,113.835,1.0
7.4666,128.197977,37.917028,6081.816741600001,-138.307,-61.611,113.612,1.0
7.4833,128.198005,37.917013,6077.201764800001,-138.157,-61.746,113.387,1.0
7.5,128.198033,37.916998,6072.5773392,-138.006,-61.881,113.161,1.0
7.5166,128.198061,37.916983,6067.9440744,-137.852,-62.016,112.932,1.0
7.5333,128.19809,37.916968,6063.301665600001,-137.696,-62.15,112.702,1.0
7.55,128.198118,37.916954,6058.6501128,-137.537,-62.284,112.47,1.0
7.5666,128.198146,37.916939,6053.989415999999,-137.377,-62.418,112.236,1.0
7.5833,128.198174,37.916925,6049.31988,-137.214,-62.551,111.999,1.0
7.6,128.198202,37.916911,6044.6412,-137.049,-62.685,111.761,1.0
7.6166,128.19823,37.916897,6039.953376,-136.881,-62.818,111.521,1.0
7.6333,128.198258,37.916883,6035.2570176,-136.711,-62.95,111.278,1.0
7.65,128.198286,37.916869,6030.551515200001,-136.539,-63.083,111.034,1.0
7.6666,128.198313,37.916855,6025.8368688,-136.365,-63.215,110.787,1.0
7.6833,128.198341,37.916842,6021.113688,-136.188,-63.346,110.538,1.0
7.7,128.198369,37.916828,6016.381668,-136.009,-63.478,110.287,1.0
7.7166,128.198396,37.916815,6011.6408088,-135.827,-63.609,110.033,1.0
7.7333,128.198424,37.916801,6006.891110400001,-135.643,-63.739,109.778,1.0
7.75,128.198451,37.916788,6002.1328776,-135.456,-63.87,109.52,1.0
7.7666,128.198479,37.916775,5997.3658056,-135.267,-64.0,109.259,1.0
7.7833,128.198506,37.916762,5992.5898944,-135.075,-64.129,108.996,1.0
7.8,128.198534,37.916749,5987.8054488,-134.88,-64.259,108.731,1.0
7.8166,128.198561,37.916737,5983.0124688000005,-134.683,-64.387,108.464,1.0
7.8333,128.198588,37.916724,5978.2109544,-134.483,-64.516,108.194,1.0
7.85,128.198616,37.916712,5973.400600800001,-134.28,-64.644,107.921,1.0
7.8666,128.198643,37.916699,5968.5820176,-134.075,-64.772,107.646,1.0
7.8833,128.19867,37.916687,5963.7545952,-133.867,-64.899,107.369,1.0
7.9,128.198697,37.916675,5958.918943199999,-133.656,-65.026,107.088,1.0
7.9166,128.198724,37.916663,5954.0750616,-133.442,-65.153,106.806,1.0
7.9333,128.198751,37.916651,5949.2223408,-133.226,-65.279,106.52,1.0
7.95,128.198778,37.91664,5944.3613904,-133.007,-65.405,106.232,1.0
7.9666,128.198804,37.916628,5939.492210400001,-132.785,-65.53,105.941,1.0
7.9833,128.198831,37.916617,5934.614800800001,-132.56,-65.655,105.648,1.0
8.0,128.198858,37.916605,5929.7291616,-132.332,-65.779,105.351,1.0
8.0166,128.198884,37.916594,5924.8349880000005,-132.1,-65.903,105.052,1.0
8.0333,128.198911,37.916583,5919.9328896,-131.866,-66.026,104.75,1.0
8.05,128.198938,37.916572,5915.022256800001,-131.629,-66.149,104.445,1.0
8.0666,128.198964,37.916561,5910.1036992,-131.389,-66.272,104.137,1.0
8.0833,128.19899,37.916551,5905.1772168,-131.146,-66.394,103.826,1.0
8.1,128.199017,37.91654,5900.2425048000005,-130.9,-66.515,103.512,1.0
8.1166,128.199043,37.91653,5895.2995632,-130.65,-66.636,103.195,1.0
8.1333,128.199069,37.916519,5890.3490016000005,-130.398,-66.756,102.875,1.0
8.15,128.199095,37.916509,5885.390210400001,-130.142,-66.876,102.552,1.0
8.1666,128.199121,37.916499,5880.4234944,-129.882,-66.995,102.226,1.0
8.1833,128.199147,37.916489,5875.4488536,-129.62,-67.114,101.896,1.0
8.2,128.199173,37.916479,5870.4665928,-129.353,-67.232,101.564,1.0
8.2166,128.199199,37.916469,5865.4764072,-129.084,-67.35,101.228,1.0
8.2333,128.199225,37.91646,5860.478296800001,-128.811,-67.467,100.888,1.0
8.25,128.199251,37.91645,5855.4725664,-128.534,-67.583,100.546,1.0
8.2666,128.199277,37.916441,5850.458911200001,-128.254,-67.699,100.2,1.0
8.2833,128.199302,37.916432,5845.437636000001,-127.971,-67.814,99.85,1.0
8.3,128.199328,37.916423,5840.4087408000005,-127.684,-67.929,99.498,1.0
8.3166,128.199353,37.916414,5835.3722256,-127.393,-68.043,99.141,1.0
8.3333,128.199379,37.916405,5830.3280904,-127.099,-68.156,98.781,1.0
8.35,128.199404,37.916396,5825.27664,-126.801,-68.268,98.418,1.0
8.3666,128.199429,37.916388,5820.2175696,-126.499,-68.38,98.051,1.0
8.3833,128.199455,37.916379,5815.1508792,-126.193,-68.491,97.681,1.0
8.4,128.19948,37.916371,5810.076873600001,-125.884,-68.602,97.306,1.0
8.4166,128.199505,37.916363,5804.9955528,-125.571,-68.712,96.928,1.0
8.4333,128.19953,37.916355,5799.906612,-125.254,-68.821,96.547,1.0
8.45,128.199555,37.916347,5794.810660800001,-124.933,-68.929,96.161,1.0
8.4666,128.19958,37.916339,5789.7070896,-124.608,-69.036,95.772,1.0
8.4833,128.199604,37.916331,5784.596508,-124.28,-69.143,95.379,1.0
8.5,128.199629,37.916324,5779.478916,-123.947,-69.249,94.982,1.0
8.5166,128.199654,37.916317,5774.353704,-123.61,-69.354,94.581,1.0
8.5333,128.199678,37.916309,5769.2217864,-123.269,-69.458,94.176,1.0
8.55,128.199703,37.916302,5764.0825536,-122.924,-69.562,93.768,1.0
8.5666,128.199727,37.916295,5758.9363104,-122.575,-69.664,93.355,1.0
8.5833,128.199752,37.916288,5753.783056800001,-122.222,-69.766,92.938,1.0
8.6,128.199776,37.916281,5748.622792800001,-121.865,-69.867,92.518,1.0
8.6166,128.1998,37.916275,5743.4555184,-121.504,-69.967,92.093,1.0
8.6333,128.199824,37.916268,5738.2815384000005,-121.138,-70.066,91.664,1.0
8.65,128.199848,37.916262,5733.100547999999,-120.769,-70.164,91.231,1.0
8.6666,128.199872,37.916256,5727.912852,-120.395,-70.261,90.793,1.0
8.6833,128.199896,37.91625,5722.718145600001,-120.017,-70.358,90.352,1.0
8.7,128.19992,37.916244,5717.517038400001,-119.634,-70.453,89.906,1.0
8.7166,128.199944,37.916238,5712.3092256,-119.247,-70.547,89.456,1.0
8.7333,128.199968,37.916232,5707.0944024,-118.856,-70.641,89.002,1.0
8.75,128.199991,37.916226,5701.8731784,-118.461,-70.733,88.544,1.0
8.7666,128.200015,37.916221,5696.6455536,-118.061,-70.824,88.081,1.0
8.7833,128.200038,37.916216,5691.411223200001,-117.657,-70.914,87.614,1.0
8.8,128.200061,37.916211,5686.170492,-117.248,-71.003,87.143,1.0
8.8166,128.200085,37.916205,5680.923360000001,-116.835,-71.091,86.667,1.0
8.8333,128.200108,37.916201,5675.6695224000005,-116.418,-71.178,86.187,1.0
8.85,128.200131,37.916196,5670.4095888,-115.996,-71.264,85.703,1.0
8.8666,128.200154,37.916191,5665.1432544,-115.57,-71.349,85.214,1.0
8.8833,128.200177,37.916187,5659.8708240000005,-115.14,-71.432,84.721,1.0
8.9,128.2002,37.916182,5654.5919928,-114.705,-71.515,84.224,1.0
8.9166,128.200223,37.916178,5649.307065600001,-114.266,-71.596,83.722,1.0
8.9333,128.200245,37.916174,5644.015737600001,-113.822,-71.676,83.216,1.0
8.95,128.200268,37.91617,5638.7186184,-113.374,-71.754,82.706,1.0
8.9666,128.200291,37.916166,5633.4154032,-112.922,-71.832,82.191,1.0
8.9833,128.200313,37.916162,5628.106092000001,-112.465,-71.908,81.672,1.0
9.0,128.200335,37.916159,5622.7906848,-112.004,-71.983,81.149,1.0
9.0166,128.200358,37.916155,5617.4694864,-111.538,-72.057,80.621,1.0
9.0333,128.20038,37.916152,5612.142496800001,-111.068,-72.129,80.089,1.0
9.05,128.200402,37.916149,5606.809411200001,-110.594,-72.2,79.553,1.0
9.0666,128.200424,37.916146,5601.4708392,-110.115,-72.269,79.012,1.0
9.0833,128.200446,37.916143,5596.1261712,-109.633,-72.338,78.468,1.0
9.1,128.200468,37.91614,5590.7760167999995,-109.146,-72.404,77.919,1.0
9.1166,128.20049,37.916137,5585.4200712,-108.655,-72.47,77.366,1.0
9.1333,128.200511,37.916135,5580.0586392,-108.16,-72.534,76.808,1.0
9.15,128.200533,37.916132,5574.6917207999995,-107.66,-72.596,76.247,1.0
9.1666,128.200554,37.91613,5569.319011200001,-107.157,-72.657,75.682,1.0
9.1833,128.200576,37.916128,5563.94112,-106.649,-72.717,75.113,1.0
9.2,128.200597,37.916126,5558.5577424,-106.138,-72.775,74.54,1.0
9.2166,128.200618,37.916124,5553.168878400001,-105.622,-72.832,73.963,1.0
9.2333,128.200639,37.916122,5547.774528000001,-105.103,-72.887,73.382,1.0
9.25,128.20066,37.916121,5542.3749960000005,-104.58,-72.94,72.797,1.0
9.2666,128.200681,37.916119,5536.9702824000005,-104.053,-72.992,72.209,1.0
9.2833,128.200702,37.916118,5531.5603872,-103.523,-73.042,71.617,1.0
9.3,128.200723,37.916117,5526.1453104,-102.989,-73.091,71.022,1.0
9.3166,128.200744,37.916116,5520.725052000001,-102.451,-73.138,70.423,1.0
9.3333,128.200764,37.916115,5515.2999168,-101.91,-73.184,69.82,1.0
9.35,128.200785,37.916114,5509.8696,-101.366,-73.227,69.215,1.0
9.3666,128.200805,37.916114,5504.434406400001,-100.818,-73.269,68.606,1.0
9.3833,128.200825,37.916113,5498.994336,-100.268,-73.31,67.994,1.0
9.4,128.200846,37.916113,5493.5493888,-99.714,-73.349,67.379,1.0
9.4166,128.200866,37.916113,5488.099564800001,-99.157,-73.386,66.761,1.0
9.4333,128.200886,37.916113,5482.644864000001,-98.597,-73.421,66.14,1.0
9.45,128.200906,37.916113,5477.1855912,-98.035,-73.454,65.517,1.0
9.4666,128.200925,37.916113,5471.7217464000005,-97.47,-73.486,64.891,1.0
9.4833,128.200945,37.916113,5466.253024800001,-96.903,-73.516,64.262,1.0
9.5,128.200965,37.916114,5460.780036,-96.333,-73.544,63.631,1.0
9.5166,128.200984,37.916114,5455.3024752,-95.761,-73.571,62.998,1.0
9.5333,128.201004,37.916115,5449.8203424,-95.187,-73.596,62.363,1.0
9.55,128.201023,37.916116,5444.333637600001,-94.611,-73.618,61.726,1.0
9.5666,128.201042,37.916117,5438.842665600001,-94.033,-73.639,61.087,1.0
9.5833,128.201061,37.916118,5433.3474264,-93.453,-73.659,60.446,1.0
9.6,128.20108,37.91612,5427.847920000001,-92.872,-73.676,59.804,1.0
9.6166,128.201099,37.916121,5422.344146400001,-92.289,-73.691,59.16,1.0
9.6333,128.201118,37.916123,5416.8364104,-91.705,-73.705,58.515,1.0
9.65,128.201137,37.916124,5411.3244072,-91.119,-73.717,57.868,1.0
9.6666,128.201155,37.916126,5405.8084416,-90.533,-73.727,57.221,1.0
9.6833,128.201174,37.916128,5400.288208800001,-89.946,-73.735,56.572,1.0
9.7,128.201192,37.91613,5394.764318400001,-89.357,-73.741,55.923,1.0
9.7166,128.201211,37.916133,5389.236160800001,-88.769,-73.745,55.273,1.0
9.7333,128.201229,37.916135,5383.7043456,-88.179,-73.748,54.623,1.0
9.75,128.201247,37.916138,5378.1688728,-87.59,-73.748,53.972,1.0
9.7666,128.201265,37.91614,5372.6294376000005,-87.0,-73.747,53.321,1.0
9.7833,128.201283,37.916143,5367.0863448,-86.41,-73.744,52.67,1.0
9.8,128.201301,37.916146,5361.5395944,-85.82,-73.739,52.019,1.0
9.8166,128.201318,37.916149,5355.9894912,-85.23,-73.732,51.368,1.0
9.8333,128.201336,37.916152,5350.4357304,-84.641,-73.723,50.718,1.0
9.85,128.201353,37.916156,5344.878312,-84.052,-73.712,50.067,1.0
9.8666,128.201371,37.916159,5339.317540800001,-83.463,-73.699,49.418,1.0
9.8833,128.201388,37.916163,5333.7534168,-82.876,-73.685,48.769,1.0
9.9,128.201405,37.916167,5328.18594,-82.289,-73.668,48.122,1.0
9.9166,128.201422,37.916171,5322.615110400001,-81.704,-73.65,47.475,1.0
9.9333,128.201439,37.916175,5317.0412328,-81.119,-73.629,46.829,1.0
9.95,128.201456,37.916179,5311.4643072,-80.536,-73.607,46.185,1.0
9.9666,128.201472,37.916183,5305.884028800001,-79.954,-73.583,45.542,1.0
9.9833,128.201489,37.916188,5300.3007024,-79.374,-73.557,44.901,1.0
10.0,128.201506,37.916193,5294.714328,-78.796,-73.53,44.261,1.0
10.0166,128.201522,37.916197,5289.1252104000005,-78.219,-73.5,43.623,1.0
10.0333,128.201538,37.916202,5283.5330448,-77.645,-73.469,42.988,1.0
10.05,128.201554,37.916207,5277.938136,-77.073,-73.436,42.354,1.0
10.0666,128.20157,37.916212,5272.340484000001,-76.502,-73.4,41.722,1.0
10.0833,128.201586,37.916218,5266.7400888,-75.934,-73.364,41.093,1.0
10.1,128.201602,37.916223,5261.1369504,-75.369,-73.325,40.466,1.0
10.1166,128.201618,37.916229,5255.531373600001,-74.806,-73.284,39.842,1.0
10.1333,128.201633,37.916235,5249.9230536000005,-74.246,-73.242,39.221,1.0
10.15,128.201649,37.916241,5244.3122952,-73.689,-73.198,38.602,1.0
10.1666,128.201664,37.916247,5238.6990983999995,-73.134,-73.152,37.986,1.0
10.1833,128.201679,37.916253,5233.083463200001,-72.583,-73.105,37.373,1.0
10.2,128.201694,37.916259,5227.4656944,-72.035,-73.056,36.763,1.0
10.2166,128.201709,37.916266,5221.8454872,-71.489,-73.004,36.156,1.0
10.2333,128.201724,37.916272,5216.223146400001,-70.948,-72.952,35.552,1.0
10.25,128.201739,37.916279,5210.598672,-70.409,-72.897,34.952,1.0
10.2666,128.201754,37.916286,5204.9720640000005,-69.874,-72.841,34.355,1.0
10.2833,128.201768,37.916293,5199.3433224,-69.342,-72.783,33.761,1.0
10.3,128.201783,37.9163,5193.7124472000005,-68.814,-72.724,33.172,1.0
10.3166,128.201797,37.916307,5188.080048,-68.289,-72.663,32.585,1.0
10.3333,128.201811,37.916315,5182.445515200001,-67.768,-72.6,32.003,1.0
10.35,128.201825,37.916322,5176.8091536,-67.251,-72.536,31.424,1.0
10.3666,128.201839,37.91633,5171.171268,-66.738,-72.47,30.849,1.0
10.3833,128.201853,37.916338,5165.5315536,-66.228,-72.403,30.277,1.0
10.4,128.201867,37.916346,5159.8903152,-65.723,-72.334,29.71,1.0
10.4166,128.20188,37.916354,5154.247248,-65.222,-72.263,29.147,1.0
10.4333,128.201894,37.916362,5148.6029616,-64.724,-72.191,28.587,1.0
10.45,128.201907,37.916371,5142.9568464,-64.231,-72.117,28.032,1.0
10.4666,128.20192,37.916379,5137.309512,-63.742,-72.042,27.48,1.0
10.4833,128.201933,37.916388,5131.6609584,-63.257,-71.966,26.933,1.0
10.5,128.201946,37.916397,5126.0111856,-62.776,-71.888,26.39,1.0
10.5166,128.201959,37.916406,5120.3598888,-62.3,-71.808,25.851,1.0
10.5333,128.201972,37.916415,5114.7076776,-61.827,-71.727,25.316,1.0
10.55,128.201985,37.916424,5109.054247200001,-61.359,-71.645,24.786,1.0
10.5666,128.201997,37.916434,5103.3999023999995,-60.895,-71.561,24.26,1.0
10.5833,128.202009,37.916443,5097.744338400001,-60.436,-71.476,23.738,1.0
10.6,128.202022,37.916453,5092.0881648,-59.98,-71.389,23.22,1.0
10.6166,128.202034,37.916463,5086.430772,-59.529,-71.301,22.707,1.0
10.6333,128.202046,37.916473,5080.7727696,-59.083,-71.212,22.197,1.0
10.65,128.202058,37.916483,5075.1141576,-58.64,-71.122,21.693,1.0
10.6666,128.202069,37.916493,5069.4546312,-58.202,-71.03,21.192,1.0
10.6833,128.202081,37.916503,5063.794800000001,-57.769,-70.937,20.696,1.0
10.7,128.202092,37.916514,5058.1340544,-57.339,-70.843,20.204,1.0
10.7166,128.202104,37.916525,5052.473004,-56.914,-70.747,19.716,1.0
10.7333,128.202115,37.916535,5046.8116488,-56.493,-70.65,19.233,1.0
10.75,128.202126,37.916546,5041.149684000001,-56.077,-70.552,18.754,1.0
10.7666,128.202137,37.916557,5035.4874144000005,-55.665,-70.453,18.279,1.0
10.7833,128.202148,37.916569,5029.8251448,-55.258,-70.353,17.808,1.0
10.8,128.202158,37.91658,5024.162265600001,-54.854,-70.251,17.342,1.0
10.8166,128.202169,37.916591,5018.499691200001,-54.456,-70.149,16.881,1.0
10.8333,128.202179,37.916603,5012.836812,-54.061,-70.045,16.423,1.0
10.85,128.20219,37.916615,5007.1739328,-53.671,-69.94,15.97,1.0
10.8666,128.2022,37.916627,5001.5113584,-53.285,-69.834,15.521,1.0
10.8833,128.20221,37.916639,4995.848479200001,-52.904,-69.728,15.076,1.0
10.9,128.20222,37.916651,4990.1862096,-52.526,-69.62,14.636,1.0
10.9166,128.20223,37.916663,4984.52394,-52.153,-69.51,14.199,1.0
10.9333,128.202239,37.916676,4978.8619752,-51.784,-69.4,13.767,1.0
10.95,128.202249,37.916688,4973.2003152,-51.419,-69.289,13.339,1.0
10.9666,128.202258,37.916701,4967.5392648,-51.058,-69.177,12.915,1.0
10.9833,128.202267,37.916714,4961.8785192000005,-50.702,-69.064,12.494,1.0
11.0,128.202276,37.916727,4956.218688,-50.349,-68.95,12.078,1.0
11.0166,128.202285,37.91674,4950.5591616,-50.0,-68.835,11.666,1.0
11.0333,128.202294,37.916754,4944.9002448,-49.656,-68.719,11.258,1.0
11.05,128.202303,37.916767,4939.2422424,-49.315,-68.603,10.854,1.0
11.0666,128.202312,37.916781,4933.585154400001,-48.978,-68.485,10.453,1.0
11.0833,128.20232,37.916794,4927.928676,-48.645,-68.366,10.057,1.0
11.1,128.202328,37.916808,4922.273416800001,-48.316,-68.247,9.664,1.0
11.1166,128.202336,37.916822,4916.6187672,-47.99,-68.126,9.275,1.0
11.1333,128.202345,37.916836,4910.965641600001,-47.669,-68.005,8.889,1.0
11.15,128.202352,37.916851,4905.3134304000005,-47.351,-67.883,8.508,1.0
11.1666,128.20236,37.916865,4899.6621336,-47.037,-67.76,8.13,1.0
11.1833,128.202368,37.91688,4894.0123608,-46.726,-67.636,7.756,1.0
11.2,128.202375,37.916894,4888.3638072,-46.419,-67.512,7.385,1.0
11.2166,128.202383,37.916909,4882.716777600001,-46.116,-67.386,7.018,1.0
11.2333,128.20239,37.916924,4877.0709672,-45.816,-67.26,6.655,1.0
11.25,128.202397,37.916939,4871.4269856,-45.519,-67.133,6.295,1.0
11.2666,128.202404,37.916954,4865.7842232,-45.226,-67.005,5.939,1.0
11.2833,128.202411,37.91697,4860.143289600001,-44.936,-66.876,5.586,1.0
11.3,128.202417,37.916985,4854.50388,-44.648,-66.747,5.237,1.0
11.3166,128.202424,37.917001,4848.866604,-44.364,-66.617,4.891,1.0
11.3333,128.20243,37.917017,4843.230852000001,-44.083,-66.486,4.549,1.0
11.35,128.202436,37.917033,4837.5969288,-43.804,-66.354,4.211,1.0
11.3666,128.202442,37.917049,4831.964834400001,-43.527,-66.221,3.877,1.0
11.3833,128.202448,37.917065,4826.334873600001,-43.252,-66.087,3.545,1.0
11.4,128.202454,37.917081,4820.707046400001,-42.979,-65.953,3.217,1.0
11.4166,128.20246,37.917098,4815.081352800001,-42.708,-65.818,2.892,1.0
11.4333,128.202465,37.917114,4809.4577928,-42.436,-65.683,2.572,1.0
11.45,128.202471,37.917131,4803.836366400001,-42.164,-65.545,2.256,1.0
11.4666,128.202476,37.917148,4798.217073600001,-41.891,-65.408,1.944,1.0
11.4833,128.202481,37.917165,4792.6002192000005,-41.616,-65.269,1.635,1.0
11.5,128.202486,37.917182,4786.986108,-41.341,-65.13,1.329,1.0
11.5166,128.202491,37.917199,4781.3741304000005,-41.065,-64.991,1.026,1.0
11.5333,128.202495,37.917217,4775.7642864,-40.779,-64.85,0.729,1.0
11.55,128.2025,37.917234,4770.1571856,-40.484,-64.707,0.439,1.0
11.5666,128.202504,37.917252,4764.5525232,-40.18,-64.563,0.155,1.0
11.5833,128.202508,37.91727,4758.950604,-39.865,-64.419,359.872,1.0
11.6,128.202513,37.917287,4753.351428000001,-39.543,-64.275,359.592,1.0
11.6166,128.202517,37.917305,4747.7553,-39.216,-64.131,359.314,1.0
11.6333,128.20252,37.917324,4742.161305600001,-38.86,-63.984,359.046,1.0
11.65,128.202524,37.917342,4736.5694448,-38.479,-63.834,358.79,1.0
11.6666,128.202528,37.91736,4730.980936800001,-38.073,-63.683,358.539,1.0
11.6833,128.202531,37.917379,4725.3951720000005,-37.644,-63.533,358.291,1.0
11.7,128.202534,37.917398,4719.812760000001,-37.194,-63.382,358.045,1.0
11.7166,128.202537,37.917417,4714.2333960000005,-36.731,-63.232,357.8,1.0
11.7333,128.20254,37.917436,4708.6564704,-36.213,-63.078,357.571,1.0
11.75,128.202543,37.917455,4703.0822880000005,-35.646,-62.921,357.357,1.0
11.7666,128.202546,37.917474,4697.510544000001,-35.034,-62.762,357.154,1.0
11.7833,128.202549,37.917493,4691.9424576,-34.377,-62.603,356.953,1.0
11.8,128.202551,37.917513,4686.377724,-33.685,-62.445,356.753,1.0
11.8166,128.202554,37.917532,4680.816648,-32.967,-62.288,356.554,1.0
11.8333,128.202556,37.917552,4675.2598392,-32.286,-62.133,356.352,1.0
11.85,128.202558,37.917572,4669.707907200001,-31.65,-61.981,356.146,1.0
11.8666,128.20256,37.917592,4664.1605472,-31.062,-61.828,355.945,1.0
11.8833,128.202562,37.917612,4658.6177592,-30.52,-61.672,355.753,1.0
11.9,128.202563,37.917632,4653.079848,-30.018,-61.514,355.573,1.0
11.9166,128.202565,37.917653,4647.5465088,-29.544,-61.353,355.401,1.0
11.9333,128.202566,37.917674,4642.017741600001,-29.084,-61.19,355.237,1.0
11.95,128.202568,37.917694,4636.4938512,-28.63,-61.025,355.077,1.0
11.9666,128.202569,37.917715,4630.974532800001,-28.177,-60.858,354.921,1.0
11.9833,128.20257,37.917736,4625.460396,-27.724,-60.69,354.768,1.0
12.0,128.202571,37.917757,4619.951136000001,-27.272,-60.521,354.617,1.0
12.0166,128.202572,37.917779,4614.4473624,-26.821,-60.352,354.47,1.0
12.0333,128.202572,37.9178,4608.9484656,-26.374,-60.182,354.327,1.0
12.05,128.202573,37.917822,4603.4550552,-25.931,-60.011,354.187,1.0
12.0666,128.202573,37.917844,4597.9671312,-25.492,-59.839,354.051,1.0
12.0833,128.202574,37.917865,4592.4843888000005,-25.057,-59.666,353.918,1.0
12.1,128.202574,37.917887,4587.0077424,-24.625,-59.493,353.79,1.0
12.1166,128.202574,37.91791,4581.5362776,-24.197,-59.318,353.665,1.0
12.1333,128.202574,37.917932,4576.0699944,-23.675,-59.139,353.562,1.0
12.15,128.202574,37.917954,4570.6082832,-23.063,-58.956,353.48,1.0
12.1666,128.202574,37.917977,4565.1514488,-22.362,-58.771,353.407,1.0
12.1833,128.202573,37.918,4559.6994912,-21.579,-58.587,353.332,1.0
12.2,128.202573,37.918023,4554.2527152,-20.728,-58.406,353.252,1.0
12.2166,128.202572,37.918046,4548.811425600001,-19.832,-58.225,353.17,1.0
12.2333,128.202572,37.918069,4543.3768416,-18.951,-58.047,353.083,1.0
12.25,128.202571,37.918092,4537.9483536,-18.1,-57.87,352.995,1.0
12.2666,128.20257,37.918116,4532.5271808,-17.286,-57.693,352.913,1.0
12.2833,128.202569,37.918139,4527.1130184,-16.512,-57.515,352.842,1.0
12.3,128.202568,37.918163,4521.7052568,-15.769,-57.334,352.783,1.0
12.3166,128.202567,37.918187,4516.3045056,-15.05,-57.152,352.734,1.0
12.3333,128.202566,37.918211,4510.9116792,-14.399,-56.97,352.682,1.0
12.35,128.202564,37.918235,4505.527387200001,-13.807,-56.787,352.624,1.0
12.3666,128.202563,37.91826,4500.1513248,-13.272,-56.604,352.568,1.0
12.3833,128.202562,37.918284,4494.7825776,-12.788,-56.418,352.519,1.0
12.4,128.20256,37.918309,4489.4217552,-12.348,-56.23,352.481,1.0
12.4166,128.202558,37.918334,4484.0685528,-11.939,-56.041,352.451,1.0
12.4333,128.202557,37.918359,4478.7247992,-11.577,-55.851,352.42,1.0
12.45,128.202555,37.918384,4473.3892752,-11.25,-55.66,352.386,1.0
12.4666,128.202553,37.918409,4468.0619808,-10.954,-55.468,352.352,1.0
12.4833,128.202551,37.918435,4462.7432208,-10.687,-55.276,352.321,1.0
12.5,128.202549,37.91846,4457.4323856,-10.445,-55.082,352.296,1.0
12.5166,128.202547,37.918486,4452.1300848,-10.22,-54.888,352.275,1.0
12.5333,128.202544,37.918512,4446.8372328000005,-10.019,-54.693,352.253,1.0
12.55,128.202542,37.918538,4441.5529152,-9.836,-54.498,352.23,1.0
12.5666,128.20254,37.918565,4436.277132,-9.669,-54.302,352.207,1.0
12.5833,128.202537,37.918591,4431.010188,-9.517,-54.106,352.185,1.0
12.6,128.202535,37.918618,4425.7517784,-9.377,-53.91,352.166,1.0
12.6166,128.202532,37.918645,4420.5025128,-9.245,-53.714,352.149,1.0
12.6333,128.20253,37.918672,4415.2623912,-9.125,-53.518,352.132,1.0
12.65,128.202527,37.918699,4410.0311088,-9.012,-53.321,352.115,1.0
12.6666,128.202524,37.918726,4404.8092752,-8.906,-53.125,352.097,1.0
12.6833,128.202521,37.918753,4399.5962808,-8.807,-52.928,352.08,1.0
12.7,128.202518,37.918781,4394.3927352,-8.712,-52.731,352.064,1.0
12.7166,128.202515,37.918809,4389.1983336,-8.622,-52.535,352.049,1.0
12.7333,128.202512,37.918837,4384.0136856,-8.537,-52.338,352.034,1.0
12.75,128.202509,37.918865,4378.8381816,-8.456,-52.142,352.018,1.0
12.7666,128.202506,37.918893,4373.6724312,-8.379,-51.945,352.002,1.0
12.7833,128.202503,37.918921,4368.5164344,-8.305,-51.749,351.986,1.0
12.8,128.202499,37.91895,4363.3698864,-8.235,-51.552,351.971,1.0
12.8166,128.202496,37.918978,4358.233092,-8.167,-51.356,351.957,1.0
12.8333,128.202492,37.919007,4353.106356,-8.103,-51.159,351.942,1.0
12.85,128.202489,37.919036,4347.9896784,-8.043,-50.963,351.926,1.0
12.8666,128.202485,37.919065,4342.8830592,-7.986,-50.767,351.91,1.0
12.8833,128.202482,37.919095,4337.7861936,-7.932,-50.57,351.895,1.0
12.9,128.202478,37.919124,4332.6996912,-7.881,-50.374,351.879,1.0
12.9166,128.202474,37.919154,4327.623552,-7.832,-50.178,351.865,1.0
12.9333,128.20247,37.919183,4322.557776000001,-7.786,-49.982,351.849,1.0
12.95,128.202466,37.919213,4317.5020584,-7.743,-49.785,351.833,1.0
12.9666,128.202462,37.919243,4312.4573136,-7.703,-49.589,351.816,1.0
12.9833,128.202458,37.919274,4307.4226272000005,-7.666,-49.393,351.8,1.0
13.0,128.202454,37.919304,4302.3989136,-7.631,-49.197,351.784,1.0
13.0166,128.20245,37.919334,4297.385868,-7.598,-49.001,351.768,1.0
13.0333,128.202446,37.919365,4292.3834904000005,-7.567,-48.805,351.751,1.0
13.0499,128.202441,37.919396,4287.3917808,-7.538,-48.609,351.734,1.0
13.0666,128.202437,37.919427,4282.4113488,-7.51,-48.413,351.716,1.0
13.0833,128.202432,37.919458,4277.441584800001,-7.484,-48.217,351.698,1.0
13.1,128.202428,37.919489,4272.4830984,-7.461,-48.021,351.68,1.0
13.1166,128.202423,37.919521,4267.535584800001,-7.439,-47.825,351.662,1.0
13.1333,128.202419,37.919552,4262.5993488,-7.419,-47.629,351.644,1.0
13.15,128.202414,37.919584,4257.6743904,-7.399,-47.433,351.624,1.0
13.1666,128.202409,37.919616,4252.7610144,-7.381,-47.237,351.604,1.0
13.1833,128.202404,37.919648,4247.8586112,-7.364,-47.041,351.584,1.0
13.2,128.2024,37.91968,4242.9680952,-7.35,-46.845,351.564,1.0
13.2166,128.202395,37.919713,4238.0888568,-7.337,-46.649,351.544,1.0
13.2333,128.20239,37.919745,4233.2221152,-7.335,-46.453,351.521,1.0
13.25,128.202385,37.919778,4228.3672608,-7.343,-46.258,351.495,1.0
13.2666,128.202379,37.91981,4223.5242936,-7.361,-46.062,351.468,1.0
13.2833,128.202374,37.919843,4218.6932136000005,-7.391,-45.867,351.441,1.0
13.3,128.202369,37.919876,4213.874325600001,-7.43,-45.671,351.416,1.0
13.3166,128.202364,37.91991,4209.0673248,-7.476,-45.474,351.391,1.0
13.3333,128.202358,37.919943,4204.272516,-7.525,-45.278,351.367,1.0
13.35,128.202353,37.919977,4199.4898992,-7.575,-45.081,351.342,1.0
13.3666,128.202347,37.92001,4194.7191696,-7.624,-44.885,351.316,1.0
13.3833,128.202342,37.920044,4189.9609368,-7.674,-44.688,351.29,1.0
13.4,128.202336,37.920078,4185.2152008,-7.723,-44.492,351.263,1.0
13.4166,128.202331,37.920112,4180.481656800001,-7.772,-44.296,351.235,1.0
13.4333,128.202325,37.920146,4175.7621336,-7.839,-44.101,351.189,1.0
13.45,128.202319,37.920181,4171.0563264,-7.922,-43.908,351.125,1.0
13.4666,128.202313,37.920215,4166.363930400001,-8.034,-43.715,351.053,1.0
13.4833,128.202307,37.92025,4161.6849456,-8.188,-43.522,350.984,1.0
13.5,128.202301,37.920285,4157.0190672,-8.38,-43.327,350.922,1.0
13.5166,128.202295,37.92032,4152.3662952,-8.6,-43.132,350.865,1.0
13.5333,128.202289,37.920355,4147.7284584,-8.861,-42.937,350.805,1.0
13.55,128.202283,37.92039,4143.1043376,-9.151,-42.741,350.738,1.0
13.5666,128.202276,37.920426,4138.493628,-9.466,-42.546,350.668,1.0
13.5833,128.20227,37.920461,4133.8966344,-9.802,-42.35,350.596,1.0
13.6,128.202264,37.920497,4129.313052,-10.158,-42.155,350.526,1.0
13.6166,128.202257,37.920533,4124.7431856,-10.526,-41.958,350.455,1.0
13.6333,128.20225,37.920569,4120.1870352000005,-10.903,-41.762,350.384,1.0
13.65,128.202244,37.920605,4115.644296,-11.283,-41.566,350.31,1.0
13.6666,128.202237,37.920641,4111.114968,-11.664,-41.37,350.233,1.0
13.6833,128.20223,37.920678,4106.5996608000005,-12.046,-41.175,350.154,1.0
13.7,128.202223,37.920714,4102.0977648,-12.43,-40.98,350.072,1.0
13.7166,128.202216,37.920751,4097.6095848,-12.814,-40.785,349.989,1.0
13.7333,128.202209,37.920788,4093.1335968,-13.178,-40.59,349.907,1.0
13.75,128.202202,37.920825,4088.67102,-13.521,-40.396,349.826,1.0
13.7666,128.202195,37.920862,4084.2218544,-13.844,-40.202,349.744,1.0
13.7833,128.202187,37.920899,4079.7864048,-14.149,-40.008,349.659,1.0
13.8,128.20218,37.920936,4075.3643664,-14.44,-39.815,349.57,1.0
13.8166,128.202172,37.920974,4070.9563488000003,-14.723,-39.624,349.478,1.0
13.8333,128.202165,37.921011,4066.5602184000004,-14.961,-39.432,349.39,1.0
13.85,128.202157,37.921049,4062.17628,-15.16,-39.239,349.308,1.0
13.8666,128.202149,37.921087,4057.8060576000003,-15.323,-39.047,349.226,1.0
13.8833,128.202141,37.921125,4053.4492464000004,-15.452,-38.856,349.141,1.0
13.9,128.202133,37.921163,4049.1061512,-15.555,-38.666,349.052,1.0
13.9166,128.202125,37.921201,4044.7764672,-15.64,-38.477,348.959,1.0
13.9333,128.202117,37.921239,4040.4586704000003,-15.711,-38.287,348.876,1.0
13.95,128.202109,37.921278,4036.1548944,-15.771,-38.096,348.803,1.0
13.9666,128.202101,37.921316,4031.8645296000004,-15.817,-37.904,348.735,1.0
13.9833,128.202092,37.921355,4027.5878807999998,-15.84,-37.712,348.666,1.0
14.0,128.202084,37.921394,4023.3249480000004,-15.84,-37.522,348.593,1.0
14.0166,128.202075,37.921433,4019.076036,-15.825,-37.333,348.516,1.0
14.0333,128.202066,37.921472,4014.839316,-15.775,-37.142,348.449,1.0
14.05,128.202057,37.921511,4010.6153976,-15.697,-36.95,348.392,1.0
14.0666,128.202048,37.92155,4006.4055000000003,-15.589,-36.757,348.34,1.0
14.0833,128.202039,37.921589,4002.2090136,-15.45,-36.565,348.286,1.0
14.1,128.20203,37.921629,3998.0268528,-15.281,-36.374,348.229,1.0
14.1166,128.202021,37.921668,3993.8587128,-15.093,-36.184,348.169,1.0
14.1333,128.202012,37.921708,3989.7027648,-14.764,-35.991,348.127,1.0
14.15,128.202002,37.921748,3985.5596184,-14.304,-35.795,348.106,1.0
14.1666,128.201993,37.921788,3981.4286640000005,-13.726,-35.599,348.092,1.0
14.1833,128.201983,37.921828,3977.3095968,-13.04,-35.404,348.073,1.0
14.2,128.201974,37.921868,3973.2039408,-12.271,-35.213,348.044,1.0
14.2166,128.201964,37.921908,3969.1123056000006,-11.448,-35.024,348.011,1.0
14.2333,128.201954,37.921948,3965.0349960000003,-10.672,-34.838,347.97,1.0
14.25,128.201944,37.921989,3960.9729264,-9.961,-34.653,347.926,1.0
14.2666,128.201934,37.922029,3956.9264016,-9.315,-34.47,347.888,1.0
14.2833,128.201924,37.92207,3952.8966408,-8.729,-34.285,347.86,1.0
