Time,Longitude,Latitude,Altitude,Roll (deg),Pitch (deg),Yaw (deg),Health
0.0,128.186502,37.932064,7060.6200672,0.0,-4.003,164.0,1.0
0.0166,128.186518,37.932021,7060.253392800001,0.0,-4.012,164.0,1.0
0.0333,128.186534,37.931978,7059.8867184,-0.085,-4.025,163.988,1.0
0.05,128.186549,37.931935,7059.520044,-0.254,-4.041,163.966,1.0
0.0666,128.186565,37.931892,7059.153979200001,-0.508,-4.059,163.936,1.0
0.0833,128.186581,37.931848,7058.7888288,-0.851,-4.077,163.902,1.0
0.1,128.186596,37.931805,7058.424897600001,-1.283,-4.095,163.868,1.0
0.1166,128.186612,37.931762,7058.062490400001,-1.801,-4.114,163.833,1.0
0.1333,128.186628,37.931719,7057.7016072,-2.403,-4.132,163.798,1.0
0.15,128.186643,37.931676,7057.3431624,-3.087,-4.149,163.765,1.0
0.1666,128.186659,37.931633,7056.987156000001,-3.848,-4.166,163.732,1.0
0.1833,128.186675,37.93159,7056.632978400001,-4.685,-4.182,163.701,1.0
0.2,128.186691,37.931546,7056.2809344,-5.593,-4.197,163.67,1.0
0.2166,128.186706,37.931503,7055.930719200001,-6.571,-4.212,163.641,1.0
0.2333,128.186722,37.93146,7055.5826376,-7.613,-4.226,163.612,1.0
0.25,128.186738,37.931417,7055.2363847999995,-8.719,-4.24,163.585,1.0
0.2666,128.186753,37.931374,7054.891960800001,-9.885,-4.253,163.558,1.0
0.2833,128.186769,37.931331,7054.549060800001,-11.108,-4.266,163.532,1.0
0.3,128.186785,37.931287,7054.2082944,-12.387,-4.278,163.507,1.0
0.3166,128.186801,37.931244,7053.869052000001,-13.718,-4.29,163.483,1.0
0.3333,128.186817,37.931201,7053.531638400001,-15.099,-4.302,163.46,1.0
0.35,128.186832,37.931158,7053.1957488,-16.529,-4.314,163.437,1.0
0.3666,128.186848,37.931115,7052.861383200001,-18.004,-4.326,163.416,1.0
0.3833,128.186864,37.931072,7052.528541600001,-19.523,-4.337,163.395,1.0
0.4,128.18688,37.931028,7052.1972240000005,-21.084,-4.349,163.375,1.0
0.4166,128.186896,37.930985,7051.8674304,-22.685,-4.361,163.356,1.0
0.4333,128.186912,37.930942,7051.538856000001,-24.324,-4.372,163.337,1.0
0.45,128.186928,37.930899,7051.211500800001,-26.0,-4.384,163.32,1.0
0.4666,128.186943,37.930856,7050.8856696,-27.71,-4.396,163.303,1.0
0.4833,128.186959,37.930812,7050.5607528,-29.453,-4.408,163.287,1.0
0.5,128.186975,37.930769,7050.2370552,-31.227,-4.421,163.272,1.0
0.5166,128.186991,37.930726,7049.914272,-33.032,-4.433,163.257,1.0
0.5333,128.187008,37.930683,7049.592708,-34.865,-4.446,163.243,1.0
0.55,128.187024,37.93064,7049.2717536,-36.726,-4.457,163.229,1.0
0.5666,128.18704,37.930597,7048.9520184,-38.612,-4.464,163.212,1.0
0.5833,128.187056,37.930553,7048.632892800001,-40.523,-4.465,163.192,1.0
0.6,128.187072,37.93051,7048.3143768,-42.456,-4.461,163.166,1.0
0.6166,128.187088,37.930467,7047.9967752,-44.412,-4.449,163.134,1.0
0.6333,128.187105,37.930424,7047.679783200001,-46.388,-4.432,163.095,1.0
0.65,128.187121,37.930381,7047.363400800001,-48.384,-4.408,163.048,1.0
0.6666,128.187137,37.930338,7047.047628,-50.398,-4.378,162.994,1.0
0.6833,128.187154,37.930295,7046.7321600000005,-52.428,-4.343,162.931,1.0
0.7,128.18717,37.930251,7046.4173016,-54.474,-4.304,162.86,1.0
0.7166,128.187186,37.930208,7046.102748,-56.534,-4.262,162.78,1.0
0.7333,128.187203,37.930165,7045.7884992,-58.607,-4.217,162.691,1.0
0.75,128.18722,37.930122,7045.4742504000005,-60.693,-4.169,162.593,1.0
0.7666,128.187236,37.930079,7045.160306400001,-62.789,-4.119,162.485,1.0
0.7833,128.187253,37.930036,7044.8463624,-64.896,-4.069,162.365,1.0
0.8,128.18727,37.929993,7044.5324184,-67.012,-4.017,162.234,1.0
0.8166,128.187287,37.92995,7044.218169600001,-69.138,-3.966,162.091,1.0
0.8333,128.187303,37.929907,7043.903616,-71.273,-3.916,161.936,1.0
0.85,128.18732,37.929864,7043.5884528,-73.416,-3.868,161.768,1.0
0.8666,128.187337,37.929821,7043.27268,-75.569,-3.823,161.588,1.0
0.8833,128.187355,37.929778,7042.956297600001,-77.73,-3.782,161.396,1.0
0.9,128.187372,37.929735,7042.6383912,-79.896,-3.746,161.19,1.0
0.9166,128.187389,37.929692,7042.319265600001,-82.055,-3.714,160.972,1.0
0.9333,128.187406,37.929649,7041.998311200001,-84.197,-3.688,160.742,1.0
0.95,128.187424,37.929606,7041.675528000001,-86.312,-3.668,160.5,1.0
0.9666,128.187441,37.929563,7041.3506112000005,-88.39,-3.654,160.245,1.0
0.9833,128.187459,37.92952,7041.023256,-90.421,-3.647,159.978,1.0
1.0,128.187476,37.929477,7040.6931576,-92.398,-3.649,159.7,1.0
1.0166,128.187494,37.929434,7040.3606208,-94.314,-3.66,159.411,1.0
1.0333,128.187512,37.929392,7040.025036,-96.162,-3.681,159.112,1.0
1.05,128.18753,37.929349,7039.6860983999995,-97.938,-3.713,158.803,1.0
1.0666,128.187548,37.929306,7039.3441128,-99.638,-3.756,158.486,1.0
1.0833,128.187566,37.929263,7038.998469600001,-101.26,-3.811,158.161,1.0
1.1,128.187584,37.92922,7038.649168800001,-102.801,-3.877,157.83,1.0
1.1166,128.187602,37.929177,7038.296210400001,-104.262,-3.955,157.495,1.0
1.1333,128.18762,37.929135,7037.9389848,-105.643,-4.044,157.155,1.0
1.15,128.187638,37.929092,7037.5771872000005,-106.945,-4.145,156.813,1.0
1.1666,128.187657,37.929049,7037.2111224,-108.169,-4.257,156.47,1.0
1.1833,128.187675,37.929006,7036.8401808,-109.318,-4.38,156.126,1.0
1.2,128.187694,37.928964,7036.4643624,-110.395,-4.512,155.787,1.0
1.2166,128.187712,37.928921,7036.0830576,-111.403,-4.65,155.455,1.0
1.2333,128.187731,37.928878,7035.6965712,-112.346,-4.794,155.134,1.0
1.25,128.18775,37.928836,7035.303988799999,-113.228,-4.943,154.825,1.0
1.2666,128.187769,37.928793,7034.905920000001,-114.054,-5.094,154.53,1.0
1.2833,128.187788,37.92875,7034.501755200001,-114.826,-5.247,154.248,1.0
1.3,128.187807,37.928708,7034.0908848,-115.55,-5.402,153.979,1.0
1.3166,128.187826,37.928665,7033.673918400001,-116.229,-5.558,153.723,1.0
1.3333,128.187846,37.928623,7033.249941600001,-116.866,-5.714,153.48,1.0
1.35,128.187865,37.92858,7032.8192592000005,-117.466,-5.871,153.248,1.0
1.3666,128.187885,37.928538,7032.3815664,-118.031,-6.028,153.028,1.0
1.3833,128.187904,37.928495,7031.9365584,-118.63,-6.188,152.819,1.0
1.4,128.187924,37.928453,7031.4836256,-119.259,-6.351,152.622,1.0
1.4166,128.187944,37.928411,7031.0224632,-119.912,-6.516,152.434,1.0
1.4333,128.187964,37.928368,7030.5527664,-120.583,-6.682,152.254,1.0
1.45,128.187984,37.928326,7030.0745352,-121.263,-6.847,152.082,1.0
1.4666,128.188004,37.928284,7029.588074400001,-121.948,-7.012,151.915,1.0
1.4833,128.188024,37.928242,7029.093079200001,-122.629,-7.176,151.753,1.0
1.5,128.188045,37.928199,7028.5898544,-123.303,-7.339,151.597,1.0
1.5166,128.188065,37.928157,7028.077790400001,-123.965,-7.503,151.446,1.0
1.5333,128.188086,37.928115,7027.5568872,-124.611,-7.667,151.298,1.0
1.55,128.188107,37.928073,7027.0277544,-125.239,-7.831,151.155,1.0
1.5666,128.188127,37.928031,7026.4894776,-125.846,-7.995,151.016,1.0
1.5833,128.188148,37.927989,7025.9426664,-126.432,-8.16,150.88,1.0
1.6,128.188169,37.927947,7025.386711200001,-126.996,-8.325,150.748,1.0
1.6166,128.18819,37.927905,7024.821612,-127.537,-8.491,150.62,1.0
1.6333,128.188212,37.927864,7024.247673600001,-128.056,-8.657,150.495,1.0
1.65,128.188233,37.927822,7023.6645912,-128.552,-8.824,150.373,1.0
1.6666,128.188254,37.92778,7023.07206,-129.026,-8.991,150.254,1.0
1.6833,128.188276,37.927738,7022.47008,-129.479,-9.159,150.139,1.0
1.7,128.188297,37.927696,7021.858651200001,-129.913,-9.327,150.026,1.0
1.7166,128.188319,37.927655,7021.237773600001,-130.327,-9.495,149.916,1.0
1.7333,128.188341,37.927613,7020.607142400001,-130.723,-9.664,149.809,1.0
1.75,128.188363,37.927572,7019.9667576,-131.102,-9.833,149.704,1.0
1.7666,128.188385,37.92753,7019.316619200001,-131.465,-10.002,149.601,1.0
1.7833,128.188407,37.927488,7018.6567272,-131.814,-10.171,149.5,1.0
1.8,128.188429,37.927447,7017.9867768,-132.15,-10.34,149.401,1.0
1.8166,128.188451,37.927406,7017.306768,-132.473,-10.509,149.304,1.0
1.8333,128.188473,37.927364,7016.616396,-132.784,-10.678,149.209,1.0
1.85,128.188496,37.927323,7015.916270400001,-133.084,-10.846,149.115,1.0
1.8666,128.188518,37.927281,7015.2054768,-133.374,-11.014,149.023,1.0
1.8833,128.188541,37.92724,7014.484624800001,-133.655,-11.182,148.932,1.0
1.9,128.188564,37.927199,7013.7531048,-133.927,-11.35,148.842,1.0
1.9166,128.188586,37.927158,7013.011526400001,-134.191,-11.518,148.754,1.0
1.9333,128.188609,37.927117,7012.25928,-134.447,-11.685,148.666,1.0
1.95,128.188632,37.927075,7011.496365600001,-134.695,-11.852,148.58,1.0
1.9666,128.188655,37.927034,7010.723088000001,-134.937,-12.019,148.495,1.0
1.9833,128.188678,37.926993,7009.9391424000005,-135.173,-12.185,148.41,1.0
2.0,128.188701,37.926952,7009.144224000001,-135.402,-12.351,148.326,1.0
2.0166,128.188725,37.926911,7008.338942400001,-135.625,-12.517,148.244,1.0
2.0333,128.188748,37.92687,7007.522383200001,-135.843,-12.683,148.162,1.0
2.05,128.188771,37.92683,7006.695460800001,-136.056,-12.848,148.08,1.0
2.0666,128.188795,37.926789,7005.857565600001,-136.264,-13.014,148.0,1.0
2.0833,128.188818,37.926748,7005.0083928,-136.467,-13.179,147.92,1.0
2.1,128.188842,37.926707,7004.148552000001,-136.665,-13.343,147.84,1.0
2.1166,128.188866,37.926667,7003.277738400001,-136.859,-13.508,147.761,1.0
2.1333,128.18889,37.926626,7002.395952000001,-137.049,-13.672,147.683,1.0
2.15,128.188914,37.926585,7001.503192800001,-137.235,-13.836,147.605,1.0
2.1666,128.188938,37.926545,7000.5988512,-137.418,-14.0,147.528,1.0
2.1833,128.188962,37.926504,6999.683841600001,-137.596,-14.163,147.451,1.0
2.2,128.188986,37.926464,6998.7575544,-137.771,-14.327,147.374,1.0
2.2166,128.18901,37.926423,6997.8199896,-137.943,-14.49,147.298,1.0
2.2333,128.189034,37.926383,6996.8711472,-138.111,-14.653,147.222,1.0
2.25,128.189059,37.926343,6995.911027200001,-138.276,-14.815,147.147,1.0
2.2666,128.189083,37.926302,6994.9396295999995,-138.438,-14.978,147.071,1.0
2.2833,128.189108,37.926262,6993.9569544000005,-138.597,-15.14,146.997,1.0
2.3,128.189132,37.926222,6992.963001600001,-138.753,-15.302,146.922,1.0
2.3166,128.189157,37.926182,6991.9574664,-138.906,-15.464,146.848,1.0
2.3333,128.189182,37.926142,6990.9406536,-139.057,-15.625,146.773,1.0
2.35,128.189207,37.926102,6989.912258400001,-139.205,-15.787,146.7,1.0
2.3666,128.189232,37.926062,6988.8725856,-139.351,-15.948,146.626,1.0
2.3833,128.189257,37.926022,6987.8213304,-139.495,-16.109,146.552,1.0
2.4,128.189282,37.925982,6986.758492800001,-139.636,-16.27,146.479,1.0
2.4166,128.189307,37.925942,6985.6843776000005,-139.775,-16.43,146.406,1.0
2.4333,128.189332,37.925902,6984.5983752,-139.912,-16.591,146.333,1.0
2.45,128.189357,37.925862,6983.5007904,-140.046,-16.751,146.26,1.0
2.4666,128.189383,37.925823,6982.391928000001,-140.179,-16.911,146.188,1.0
2.4833,128.189408,37.925783,6981.2711784,-140.31,-17.071,146.115,1.0
2.5,128.189434,37.925744,6980.1388464,-140.439,-17.231,146.043,1.0
2.5166,128.189459,37.925704,6978.994627200001,-140.566,-17.391,145.97,1.0
2.5333,128.189485,37.925664,6977.8388256,-140.692,-17.55,145.898,1.0
2.55,128.18951,37.925625,6976.6714416,-140.816,-17.709,145.826,1.0
2.5666,128.189536,37.925586,6975.492170400001,-140.938,-17.868,145.754,1.0
2.5833,128.189562,37.925546,6974.301012,-141.059,-18.027,145.683,1.0
2.6,128.189588,37.925507,6973.0982711999995,-141.178,-18.186,145.611,1.0
2.6166,128.189614,37.925468,6971.8836432,-141.296,-18.345,145.539,1.0
2.6333,128.18964,37.925428,6970.657128000001,-141.413,-18.503,145.467,1.0
2.65,128.189666,37.925389,6969.4187256,-141.529,-18.66,145.395,1.0
2.6666,128.189692,37.92535,6968.168740800001,-141.645,-18.818,145.323,1.0
2.6833,128.189718,37.925311,6966.906564000001,-141.759,-18.974,145.25,1.0
2.7,128.189745,37.925272,6965.6328048000005,-141.873,-19.131,145.176,1.0
2.7166,128.189771,37.925233,6964.3468536,-141.986,-19.287,145.102,1.0
2.7333,128.189797,37.925194,6963.049015200001,-142.099,-19.442,145.028,1.0
2.75,128.189824,37.925155,6961.7392896,-142.21,-19.597,144.953,1.0
2.7666,128.18985,37.925117,6960.417676800001,-142.32,-19.751,144.878,1.0
2.7833,128.189877,37.925078,6959.083872,-142.43,-19.905,144.803,1.0
2.8,128.189904,37.925039,6957.73818,-142.538,-20.059,144.727,1.0
2.8166,128.18993,37.925001,6956.3806008,-142.646,-20.212,144.651,1.0
2.8333,128.189957,37.924962,6955.0111344,-142.752,-20.365,144.574,1.0
2.85,128.189984,37.924923,6953.629476,-142.858,-20.517,144.497,1.0
2.8666,128.190011,37.924885,6952.2356256,-142.963,-20.669,144.42,1.0
2.8833,128.190038,37.924847,6950.829888000001,-143.066,-20.821,144.342,1.0
2.9,128.190065,37.924808,6949.4122632,-143.169,-20.972,144.264,1.0
2.9166,128.190092,37.92477,6947.9824464,-143.271,-21.123,144.185,1.0
2.9333,128.190119,37.924732,6946.540437600001,-143.372,-21.273,144.106,1.0
2.95,128.190146,37.924693,6945.086541600001,-143.473,-21.423,144.026,1.0
2.9666,128.190174,37.924655,6943.6204536000005,-143.572,-21.573,143.946,1.0
2.9833,128.190201,37.924617,6942.1421736,-143.67,-21.722,143.865,1.0
3.0,128.190228,37.924579,6940.652006400001,-143.768,-21.871,143.784,1.0
3.0166,128.190256,37.924541,6939.149647200001,-143.864,-22.019,143.703,1.0
3.0333,128.190283,37.924503,6937.635096000001,-143.958,-22.168,143.622,1.0
3.05,128.190311,37.924465,6936.1083528,-144.051,-22.316,143.541,1.0
3.0666,128.190338,37.924428,6934.5697224000005,-144.142,-22.465,143.459,1.0
3.0833,128.190366,37.92439,6933.0189,-144.232,-22.613,143.378,1.0
3.1,128.190394,37.924352,6931.4558856,-144.32,-22.762,143.297,1.0
3.1166,128.190422,37.924315,6929.880984000001,-144.407,-22.91,143.216,1.0
3.1333,128.190449,37.924277,6928.2935856,-144.492,-23.059,143.136,1.0
3.15,128.190477,37.924239,6926.6943,-144.576,-23.207,143.055,1.0
3.1666,128.190505,37.924202,6925.0825176,-144.658,-23.355,142.974,1.0
3.1833,128.190533,37.924165,6923.458848,-144.738,-23.504,142.894,1.0
3.2,128.190561,37.924127,6921.8229864,-144.817,-23.652,142.813,1.0
3.2166,128.190589,37.92409,6920.1749328000005,-144.895,-23.801,142.733,1.0
3.2333,128.190617,37.924053,6918.5146872000005,-144.97,-23.949,142.653,1.0
3.25,128.190645,37.924015,6916.8425544,-145.044,-24.098,142.572,1.0
3.2666,128.190674,37.923978,6915.157924800001,-145.117,-24.246,142.492,1.0
3.2833,128.190702,37.923941,6913.4611032,-145.187,-24.394,142.412,1.0
3.3,128.19073,37.923904,6911.7523944,-145.255,-24.542,142.332,1.0
3.3166,128.190759,37.923867,6910.0311888,-145.321,-24.69,142.251,1.0
3.3333,128.190787,37.92383,6908.298096,-145.385,-24.838,142.171,1.0
3.35,128.190816,37.923794,6906.552811200001,-145.447,-24.986,142.091,1.0
3.3666,128.190844,37.923757,6904.7953344,-145.506,-25.134,142.011,1.0
3.3833,128.190873,37.92372,6903.025665600001,-145.562,-25.282,141.93,1.0
3.4,128.190901,37.923683,6901.2438048,-145.616,-25.429,141.85,1.0
3.4166,128.19093,37.923647,6899.449752,-145.667,-25.576,141.77,1.0
3.4333,128.190959,37.92361,6897.6435071999995,-145.715,-25.724,141.689,1.0
3.45,128.190987,37.923574,6895.825070400001,-145.761,-25.871,141.609,1.0
3.4666,128.191016,37.923537,6893.994746400001,-145.802,-26.018,141.528,1.0
3.4833,128.191045,37.923501,6892.1522304,-145.841,-26.164,141.448,1.0
3.5,128.191074,37.923465,6890.2972176,-145.876,-26.311,141.367,1.0
3.5166,128.191103,37.923429,6888.4303176,-145.908,-26.457,141.286,1.0
3.5333,128.191132,37.923392,6886.5515304,-145.936,-26.603,141.205,1.0
3.55,128.191161,37.923356,6884.660246400001,-145.96,-26.749,141.124,1.0
3.5666,128.19119,37.92332,6882.7570752,-145.98,-26.894,141.043,1.0
3.5833,128.191219,37.923284,6880.841712,-145.997,-27.04,140.962,1.0
3.6,128.191248,37.923248,6878.9141568000005,-146.009,-27.185,140.881,1.0
3.6166,128.191277,37.923213,6876.9744096,-146.017,-27.33,140.799,1.0
3.6333,128.191306,37.923177,6875.0227752,-146.021,-27.474,140.717,1.0
3.65,128.191336,37.923141,6873.0589488000005,-146.021,-27.618,140.635,1.0
3.6666,128.191365,37.923105,6871.0832352,-146.017,-27.762,140.553,1.0
3.6833,128.191394,37.92307,6869.0953296,-146.009,-27.906,140.471,1.0
3.7,128.191424,37.923034,6867.095232000001,-145.996,-28.049,140.388,1.0
3.7166,128.191453,37.922999,6865.0829424,-145.979,-28.192,140.305,1.0
3.7333,128.191482,37.922963,6863.058765600001,-145.958,-28.335,140.222,1.0
3.75,128.191512,37.922928,6861.022701600001,-145.932,-28.477,140.139,1.0
3.7666,128.191542,37.922893,6858.974445600001,-145.902,-28.619,140.055,1.0
3.7833,128.191571,37.922857,6856.913997600001,-145.868,-28.761,139.971,1.0
3.8,128.191601,37.922822,6854.8416624,-145.83,-28.902,139.887,1.0
3.8166,128.19163,37.922787,6852.75744,-145.788,-29.043,139.803,1.0
3.8333,128.19166,37.922752,6850.6610256,-145.741,-29.183,139.718,1.0
3.85,128.19169,37.922717,6848.552724000001,-145.691,-29.324,139.633,1.0
3.8666,128.19172,37.922682,6846.4322304,-145.636,-29.463,139.548,1.0
3.8833,128.191749,37.922647,6844.2998496,-145.578,-29.603,139.462,1.0
3.9,128.191779,37.922613,6842.1555816,-145.516,-29.742,139.376,1.0
3.9166,128.191809,37.922578,6839.9991216,-145.45,-29.88,139.289,1.0
3.9333,128.191839,37.922543,6837.831079200001,-145.38,-30.019,139.202,1.0
3.95,128.191869,37.922509,6835.6508448,-145.306,-30.157,139.115,1.0
3.9666,128.191899,37.922474,6833.4587232,-145.229,-30.294,139.027,1.0
3.9833,128.191929,37.92244,6831.2544096,-145.149,-30.431,138.939,1.0
4.0,128.191959,37.922405,6829.0385136,-145.066,-30.568,138.85,1.0
4.0166,128.191989,37.922371,6826.8107304,-144.979,-30.704,138.761,1.0
4.0333,128.192019,37.922337,6824.5707552,-144.89,-30.84,138.672,1.0
4.05,128.19205,37.922303,6822.319197600001,-144.797,-30.976,138.582,1.0
4.0666,128.19208,37.922269,6820.055448,-144.702,-31.111,138.492,1.0
4.0833,128.19211,37.922235,6817.780116,-144.605,-31.246,138.401,1.0
4.1,128.19214,37.922201,6815.4928968,-144.505,-31.38,138.309,1.0
4.1166,128.192171,37.922167,6813.193790400001,-144.403,-31.515,138.218,1.0
4.1333,128.192201,37.922133,6810.8827968000005,-144.299,-31.648,138.125,1.0
4.15,128.192231,37.922099,6808.559916,-144.192,-31.782,138.032,1.0
4.1666,128.192262,37.922066,6806.2254528,-144.084,-31.915,137.939,1.0
4.1833,128.192292,37.922032,6803.8791024,-143.974,-32.047,137.845,1.0
4.2,128.192323,37.921998,6801.520864800001,-143.862,-32.18,137.751,1.0
4.2166,128.192353,37.921965,6799.1510448,-143.749,-32.311,137.656,1.0
4.2333,128.192384,37.921932,6796.769337600001,-143.635,-32.443,137.56,1.0
4.25,128.192415,37.921898,6794.376048,-143.519,-32.574,137.464,1.0
4.2666,128.192445,37.921865,6791.971176,-143.402,-32.705,137.368,1.0
4.2833,128.192476,37.921832,6789.5544168,-143.284,-32.836,137.271,1.0
4.3,128.192507,37.921799,6787.1260752,-143.165,-32.966,137.173,1.0
4.3166,128.192537,37.921766,6784.685846400001,-143.046,-33.096,137.075,1.0
4.3333,128.192568,37.921733,6782.2340352,-142.925,-33.226,136.976,1.0
4.35,128.192599,37.9217,6779.7706416,-142.804,-33.355,136.877,1.0
4.3666,128.19263,37.921667,6777.295665600001,-142.683,-33.484,136.777,1.0
4.3833,128.192661,37.921634,6774.8091072,-142.561,-33.612,136.676,1.0
4.4,128.192692,37.921602,6772.3109664,-142.438,-33.741,136.575,1.0
4.4166,128.192723,37.921569,6769.8012432,-142.315,-33.869,136.473,1.0
4.4333,128.192754,37.921537,6767.2799376,-142.192,-33.997,136.371,1.0
4.45,128.192785,37.921504,6764.7473544,-142.068,-34.124,136.268,1.0
4.4666,128.192816,37.921472,6762.202884000001,-141.944,-34.251,136.165,1.0
4.4833,128.192847,37.92144,6759.6474408,-141.819,-34.378,136.061,1.0
4.5,128.192878,37.921407,6757.080110400001,-141.693,-34.504,135.956,1.0
4.5166,128.192909,37.921375,6754.5015023999995,-141.566,-34.631,135.851,1.0
4.5333,128.19294,37.921343,6751.911312,-141.437,-34.756,135.745,1.0
4.55,128.192971,37.921311,6749.3101488,-141.307,-34.882,135.638,1.0
4.5666,128.193003,37.921279,6746.6974032,-141.175,-35.007,135.531,1.0
4.5833,128.193034,37.921248,6744.0730752,-141.042,-35.131,135.423,1.0
4.6,128.193065,37.921216,6741.4377744,-140.907,-35.256,135.315,1.0
4.6166,128.193097,37.921184,6738.791196,-140.77,-35.38,135.206,1.0
4.6333,128.193128,37.921153,6736.1330352,-140.633,-35.503,135.096,1.0
4.65,128.19316,37.921121,6733.463901600001,-140.493,-35.627,134.986,1.0
4.6666,128.193191,37.92109,6730.7831856,-140.353,-35.75,134.875,1.0
4.6833,128.193222,37.921058,6728.091496800001,-140.212,-35.872,134.764,1.0
4.7,128.193254,37.921027,6725.3885304,-140.07,-35.994,134.652,1.0
4.7166,128.193286,37.920996,6722.674591200001,-139.927,-36.116,134.539,1.0
4.7333,128.193317,37.920965,6719.9490696,-139.784,-36.238,134.426,1.0
4.75,128.193349,37.920934,6717.2125752,-139.64,-36.359,134.313,1.0
4.7666,128.19338,37.920903,6714.465108,-139.497,-36.48,134.198,1.0
4.7833,128.193412,37.920872,6711.7063632,-139.353,-36.601,134.084,1.0
4.8,128.193444,37.920841,6708.936645600001,-139.21,-36.721,133.968,1.0
4.8166,128.193476,37.920811,6706.1556504,-139.068,-36.841,133.852,1.0
4.8333,128.193507,37.92078,6703.3636824000005,-138.926,-36.961,133.736,1.0
4.85,128.193539,37.920749,6700.5607416,-138.785,-37.08,133.619,1.0
4.8666,128.193571,37.920719,6697.746828,-138.645,-37.2,133.501,1.0
4.8833,128.193603,37.920689,6694.9219416000005,-138.506,-37.318,133.383,1.0
4.9,128.193635,37.920658,6692.0857776,-138.368,-37.437,133.264,1.0
4.9166,128.193667,37.920628,6689.2389456,-138.232,-37.556,133.145,1.0
4.9333,128.193699,37.920598,6686.3811408,-138.097,-37.674,133.025,1.0
4.95,128.193731,37.920568,6683.5123632,-137.964,-37.792,132.904,1.0
4.9666,128.193763,37.920538,6680.6326128,-137.832,-37.909,132.783,1.0
4.9833,128.193795,37.920508,6677.7421944,-137.702,-38.027,132.662,1.0
5.0,128.193827,37.920478,6674.8408032,-137.573,-38.144,132.54,1.0
5.0166,128.193859,37.920449,6671.928744,-137.445,-38.261,132.417,1.0
5.0333,128.193891,37.920419,6669.005712,-137.32,-38.378,132.294,1.0
5.05,128.193923,37.92039,6666.072012,-137.196,-38.495,132.17,1.0
5.0666,128.193956,37.92036,6663.1273392,-137.073,-38.611,132.046,1.0
5.0833,128.193988,37.920331,6660.1719984,-136.952,-38.728,131.921,1.0
5.1,128.19402,37.920302,6657.2059896,-136.833,-38.844,131.796,1.0
5.1166,128.194053,37.920272,6654.2293128,-136.715,-38.96,131.67,1.0
5.1333,128.194085,37.920243,6651.241968,-136.598,-39.076,131.543,1.0
5.15,128.194117,37.920214,6648.2439552000005,-136.482,-39.193,131.415,1.0
5.1666,128.19415,37.920185,6645.235579200001,-136.367,-39.309,131.286,1.0
5.1833,128.194182,37.920157,6642.2162304,-136.254,-39.426,131.156,1.0
5.2,128.194215,37.920128,6639.186518400001,-136.141,-39.543,131.025,1.0
5.2166,128.194247,37.920099,6636.1461384,-136.03,-39.66,130.894,1.0
5.2333,128.19428,37.920071,6633.0950904,-135.919,-39.777,130.761,1.0
5.25,128.194312,37.920042,6630.033679200001,-135.81,-39.895,130.628,1.0
5.2666,128.194345,37.920014,6626.9616000000005,-135.701,-40.012,130.494,1.0
5.2833,128.194377,37.919986,6623.8791576,-135.593,-40.13,130.359,1.0
5.3,128.19441,37.919957,6620.786352000001,-135.485,-40.247,130.223,1.0
5.3166,128.194443,37.919929,6617.682878400001,-135.379,-40.365,130.086,1.0
5.3333,128.194475,37.919901,6614.569041600001,-135.273,-40.483,129.948,1.0
5.35,128.194508,37.919873,6611.4448416000005,-135.167,-40.601,129.81,1.0
5.3666,128.194541,37.919845,6608.3102784,-135.063,-40.719,129.671,1.0
5.3833,128.194574,37.919818,6605.165047200001,-134.959,-40.836,129.531,1.0
5.4,128.194606,37.91979,6602.0097576,-134.855,-40.954,129.391,1.0
5.4166,128.194639,37.919763,6598.843800000001,-134.752,-41.072,129.25,1.0
5.4333,128.194672,37.919735,6595.667784000001,-134.649,-41.19,129.108,1.0
5.45,128.194705,37.919708,6592.481404800001,-134.546,-41.308,128.965,1.0
5.4666,128.194738,37.91968,6589.2843576,-134.444,-41.425,128.822,1.0
5.4833,128.194771,37.919653,6586.077556800001,-134.342,-41.543,128.678,1.0
5.5,128.194804,37.919626,6582.860088,-134.24,-41.66,128.534,1.0
5.5166,128.194837,37.919599,6579.632560800001,-134.139,-41.778,128.389,1.0
5.5333,128.19487,37.919572,6576.394670400001,-134.038,-41.895,128.243,1.0
5.55,128.194903,37.919545,6573.1467216,-133.936,-42.013,128.097,1.0
5.5666,128.194936,37.919519,6569.8884096,-133.835,-42.13,127.95,1.0
5.5833,128.194969,37.919492,6566.6200392,-133.734,-42.247,127.803,1.0
5.6,128.195002,37.919466,6563.341305600001,-133.633,-42.364,127.655,1.0
5.6166,128.195035,37.919439,6560.052513600001,-133.532,-42.481,127.506,1.0
5.6333,128.195069,37.919413,6556.7536632,-133.43,-42.597,127.356,1.0
5.65,128.195102,37.919386,6553.4447544,-133.329,-42.714,127.207,1.0
5.6666,128.195135,37.91936,6550.125482400001,-133.227,-42.83,127.056,1.0
5.6833,128.195168,37.919334,6546.796152000001,-133.125,-42.947,126.905,1.0
5.7,128.195202,37.919308,6543.457068000001,-133.023,-43.063,126.753,1.0
5.7166,128.195235,37.919282,6540.1076207999995,-132.92,-43.179,126.601,1.0
5.7333,128.195268,37.919257,6536.748115200001,-132.817,-43.295,126.448,1.0
5.75,128.195302,37.919231,6533.378856,-132.714,-43.411,126.294,1.0
5.7666,128.195335,37.919205,6529.9992336000005,-132.61,-43.527,126.14,1.0
5.7833,128.195368,37.91918,6526.6098576,-132.506,-43.642,125.985,1.0
5.8,128.195402,37.919155,6523.2104232,-132.401,-43.758,125.829,1.0
5.8166,128.195435,37.919129,6519.8012352,-132.296,-43.873,125.673,1.0
5.8333,128.195469,37.919104,6516.3819888,-132.19,-43.988,125.516,1.0
5.85,128.195502,37.919079,6512.952684000001,-132.084,-44.103,125.359,1.0
5.8666,128.195536,37.919054,6509.5136256,-131.977,-44.218,125.201,1.0
5.8833,128.195569,37.919029,6506.0648136,-131.869,-44.332,125.042,1.0
5.9,128.195603,37.919004,6502.6059432,-131.761,-44.447,124.883,1.0
5.9166,128.195636,37.91898,6499.1370144,-131.653,-44.561,124.723,1.0
5.9333,128.19567,37.918955,6495.658636800001,-131.543,-44.675,124.562,1.0
5.95,128.195703,37.918931,6492.1702008,-131.433,-44.789,124.401,1.0
5.9666,128.195737,37.918906,6488.672011200001,-131.322,-44.903,124.239,1.0
5.9833,128.195771,37.918882,6485.164068,-131.211,-45.016,124.076,1.0
6.0,128.195804,37.918858,6481.6463711999995,-131.099,-45.13,123.913,1.0
6.0166,128.195838,37.918834,6478.1189208,-130.986,-45.243,123.749,1.0
6.0333,128.195872,37.91881,6474.5817168,-130.872,-45.356,123.584,1.0
6.05,128.195906,37.918786,6471.035064000001,-130.757,-45.469,123.419,1.0
6.0666,128.195939,37.918762,6467.4783528,-130.642,-45.581,123.253,1.0
6.0833,128.195973,37.918739,6463.9121928,-130.526,-45.694,123.086,1.0
6.1,128.196007,37.918715,6460.336279200001,-130.409,-45.806,122.918,1.0
6.1166,128.196041,37.918691,6456.7509168,-130.291,-45.918,122.75,1.0
6.1333,128.196074,37.918668,6453.1558008,-130.172,-46.03,122.581,1.0
6.15,128.196108,37.918645,6449.5509312,-130.052,-46.141,122.412,1.0
6.1666,128.196142,37.918622,6445.9366128,-129.931,-46.253,122.241,1.0
6.1833,128.196176,37.918599,6442.3128456,-129.809,-46.364,122.07,1.0
6.2,128.19621,37.918576,6438.6796296,-129.687,-46.475,121.898,1.0
6.2166,128.196244,37.918553,6435.036660000001,-129.563,-46.585,121.726,1.0
6.2333,128.196278,37.91853,6431.384241600001,-129.438,-46.696,121.552,1.0
6.25,128.196312,37.918508,6427.722374400001,-129.313,-46.806,121.378,1.0
6.2666,128.196346,37.918485,6424.0510584,-129.186,-46.916,121.203,1.0
6.2833,128.19638,37.918463,6420.3702936,-129.058,-47.026,121.027,1.0
6.3,128.196413,37.91844,6416.68008,-128.93,-47.136,120.851,1.0
6.3166,128.196447,37.918418,6412.9804176,-128.8,-47.245,120.674,1.0
6.3333,128.196481,37.918396,6409.271611200001,-128.669,-47.354,120.496,1.0
6.35,128.196516,37.918374,6405.553356,-128.537,-47.463,120.317,1.0
6.3666,128.19655,37.918352,6401.825652,-128.404,-47.571,120.137,1.0
6.3833,128.196584,37.91833,6398.0884992,-128.27,-47.679,119.957,1.0
6.4,128.196618,37.918309,6394.3425072,-128.135,-47.787,119.775,1.0
6.4166,128.196652,37.918287,6390.5867616,-127.999,-47.895,119.593,1.0
6.4333,128.196686,37.918266,6386.8221768,-127.861,-48.003,119.41,1.0
6.45,128.19672,37.918244,6383.0481432,-127.723,-48.11,119.227,1.0
6.4666,128.196754,37.918223,6379.264965600001,-127.583,-48.217,119.042,1.0
6.4833,128.196788,37.918202,6375.4723392,-127.442,-48.323,118.857,1.0
6.5,128.196822,37.918181,6371.670873600001,-127.3,-48.43,118.67,1.0
6.5166,128.196857,37.91816,6367.860264000001,-127.156,-48.536,118.483,1.0
6.5333,128.196891,37.918139,6364.0402056,-127.012,-48.641,118.295,1.0
6.55,128.196925,37.918119,6360.211308,-126.866,-48.747,118.107,1.0
6.5666,128.196959,37.918098,6356.3735712,-126.719,-48.852,117.917,1.0
6.5833,128.196993,37.918078,6352.5263856,-126.571,-48.957,117.726,1.0
6.6,128.197027,37.918057,6348.670360800001,-126.422,-49.061,117.535,1.0
6.6166,128.197062,37.918037,6344.805192000001,-126.271,-49.166,117.342,1.0
6.6333,128.197096,37.918017,6340.931184000001,-126.119,-49.269,117.149,1.0
6.65,128.19713,37.917997,6337.048032000001,-125.966,-49.373,116.955,1.0
6.6666,128.197164,37.917977,6333.1560408000005,-125.812,-49.476,116.76,1.0
6.6833,128.197199,37.917957,6329.255210400001,-125.657,-49.579,116.564,1.0
6.7,128.197233,37.917938,6325.3455408,-125.5,-49.682,116.367,1.0
6.7166,128.197267,37.917918,6321.426727200001,-125.342,-49.784,116.169,1.0
6.7333,128.197302,37.917899,6317.4993792000005,-125.183,-49.886,115.97,1.0
6.75,128.197336,37.917879,6313.562887200001,-125.022,-49.987,115.771,1.0
6.7666,128.19737,37.91786,6309.617860800001,-124.861,-50.089,115.57,1.0
6.7833,128.197404,37.917841,6305.6639952000005,-124.698,-50.189,115.368,1.0
6.8,128.197439,37.917822,6301.7012904,-124.534,-50.29,115.166,1.0
6.8166,128.197473,37.917803,6297.7300512,-124.368,-50.39,114.962,1.0
6.8333,128.197507,37.917785,6293.7499728,-124.202,-50.49,114.758,1.0
6.85,128.197542,37.917766,6289.761055200001,-124.034,-50.589,114.552,1.0
6.8666,128.197576,37.917747,6285.763908,-123.865,-50.688,114.346,1.0
6.8833,128.19761,37.917729,6281.7579216,-123.694,-50.787,114.139,1.0
6.9,128.197645,37.917711,6277.743400800001,-123.523,-50.885,113.93,1.0
6.9166,128.197679,37.917693,6273.7200408,-123.35,-50.983,113.721,1.0
6.9333,128.197714,37.917674,6269.688451200001,-123.176,-51.081,113.511,1.0
6.95,128.197748,37.917657,6265.6483272000005,-123.0,-51.178,113.299,1.0
6.9666,128.197782,37.917639,6261.599364000001,-122.823,-51.274,113.087,1.0
6.9833,128.197817,37.917621,6257.542476,-122.645,-51.371,112.873,1.0
7.0,128.197851,37.917603,6253.4767488,-122.466,-51.467,112.659,1.0
7.0166,128.197885,37.917586,6249.402792000001,-122.286,-51.562,112.444,1.0
7.0333,128.19792,37.917569,6245.320300800001,-122.104,-51.657,112.227,1.0
7.05,128.197954,37.917551,6241.22958,-121.921,-51.752,112.01,1.0
7.0666,128.197989,37.917534,6237.1303248,-121.737,-51.846,111.791,1.0
7.0833,128.198023,37.917517,6233.0231448,-121.551,-51.94,111.572,1.0
7.1,128.198058,37.9175,6228.9074304,-121.365,-52.033,111.351,1.0
7.1166,128.198092,37.917484,6224.783486400001,-121.177,-52.126,111.129,1.0
7.1333,128.198126,37.917467,6220.6513128,-120.987,-52.218,110.907,1.0
7.15,128.198161,37.917451,6216.510909600001,-120.797,-52.31,110.683,1.0
7.1666,128.198195,37.917434,6212.3625816,-120.605,-52.402,110.458,1.0
7.1833,128.19823,37.917418,6208.2057192,-120.412,-52.493,110.232,1.0
7.2,128.198264,37.917402,6204.040932000001,-120.218,-52.584,110.005,1.0
7.2166,128.198299,37.917386,6199.868220000001,-120.022,-52.674,109.777,1.0
7.2333,128.198333,37.91737,6195.687278400001,-119.825,-52.764,109.548,1.0
7.25,128.198367,37.917354,6191.498412,-119.627,-52.853,109.318,1.0
7.2666,128.198402,37.917338,6187.3016208,-119.427,-52.942,109.087,1.0
7.2833,128.198436,37.917323,6183.096600000001,-119.226,-53.03,108.854,1.0
7.3,128.198471,37.917308,6178.8839592,-119.024,-53.118,108.621,1.0
7.3166,128.198505,37.917292,6174.6630888,-118.821,-53.205,108.387,1.0
7.3333,128.19854,37.917277,6170.4345984,-118.617,-53.292,108.151,1.0
7.35,128.198574,37.917262,6166.198183200001,-118.411,-53.379,107.914,1.0
7.3666,128.198608,37.917247,6161.9538432,-118.204,-53.464,107.676,1.0
7.3833,128.198643,37.917232,6157.7018832,-117.996,-53.55,107.437,1.0
7.4,128.198677,37.917218,6153.4423032,-117.786,-53.634,107.197,1.0
7.4166,128.198712,37.917203,6149.1747984,-117.575,-53.719,106.956,1.0
7.4333,128.198746,37.917189,6144.8993688,-117.363,-53.803,106.714,1.0
7.45,128.198781,37.917174,6140.616624,-117.149,-53.886,106.471,1.0
7.4666,128.198815,37.91716,6136.3262592,-116.935,-53.969,106.226,1.0
7.4833,128.198849,37.917146,6132.027969600001,-116.719,-54.051,105.981,1.0
7.5,128.198884,37.917132,6127.722364800001,-116.502,-54.132,105.734,1.0
7.5166,128.198918,37.917119,6123.40914,-116.283,-54.213,105.486,1.0
7.5333,128.198953,37.917105,6119.0886,-116.064,-54.294,105.237,1.0
7.55,128.198987,37.917091,6114.76044,-115.843,-54.374,104.987,1.0
7.5666,128.199021,37.917078,6110.424660000001,-115.621,-54.454,104.736,1.0
7.5833,128.199056,37.917065,6106.081564800001,-115.398,-54.532,104.484,1.0
7.6,128.19909,37.917052,6101.7311544,-115.173,-54.611,104.23,1.0
7.6166,128.199125,37.917039,6097.3734288000005,-114.948,-54.688,103.976,1.0
7.6333,128.199159,37.917026,6093.008388000001,-114.721,-54.766,103.72,1.0
7.65,128.199193,37.917013,6088.636032,-114.492,-54.842,103.463,1.0
7.6666,128.199228,37.917,6084.256665600001,-114.263,-54.918,103.205,1.0
7.6833,128.199262,37.916988,6079.869679200001,-114.032,-54.994,102.946,1.0
7.7,128.199296,37.916975,6075.475682400001,-113.8,-55.068,102.686,1.0
7.7166,128.199331,37.916963,6071.0746752,-113.567,-55.143,102.425,1.0
7.7333,128.199365,37.916951,6066.6663528,-113.332,-55.216,102.162,1.0
7.75,128.199399,37.916939,6062.251020000001,-113.096,-55.289,101.899,1.0
7.7666,128.199434,37.916927,6057.8286768,-112.859,-55.361,101.634,1.0
7.7833,128.199468,37.916915,6053.3993232,-112.621,-55.433,101.368,1.0
7.8,128.199502,37.916904,6048.9629592,-112.381,-55.504,101.101,1.0
7.8166,128.199537,37.916892,6044.5195848,-112.141,-55.575,100.833,1.0
7.8333,128.199571,37.916881,6040.069504800001,-111.898,-55.645,100.564,1.0
7.85,128.199605,37.91687,6035.6124144000005,-111.655,-55.714,100.294,1.0
7.8666,128.19964,37.916859,6031.148313600001,-111.411,-55.782,100.022,1.0
7.8833,128.199674,37.916848,6026.6775072,-111.165,-55.85,99.75,1.0
7.9,128.199708,37.916837,6022.199995200001,-110.918,-55.917,99.476,1.0
7.9166,128.199742,37.916826,6017.7157776,-110.67,-55.984,99.202,1.0
7.9333,128.199777,37.916816,6013.2248544,-110.421,-56.05,98.926,1.0
7.95,128.199811,37.916805,6008.7272256,-110.17,-56.115,98.649,1.0
7.9666,128.199845,37.916795,6004.223196000001,-109.918,-56.18,98.371,1.0
7.9833,128.199879,37.916785,5999.7124608,-109.665,-56.243,98.092,1.0
8.0,128.199913,37.916775,5995.195020000001,-109.41,-56.307,97.812,1.0
8.0166,128.199948,37.916765,5990.671178400001,-109.155,-56.369,97.53,1.0
8.0333,128.199982,37.916755,5986.1406312,-108.898,-56.431,97.248,1.0
8.05,128.200016,37.916746,5981.603988000001,-108.639,-56.492,96.965,1.0
8.0666,128.20005,37.916736,5977.0606392,-108.38,-56.552,96.68,1.0
8.0833,128.200084,37.916727,5972.5108896,-108.12,-56.612,96.395,1.0
8.1,128.200118,37.916718,5967.955044,-107.858,-56.671,96.108,1.0
8.1166,128.200153,37.916709,5963.3927976,-107.595,-56.729,95.82,1.0
8.1333,128.200187,37.9167,5958.824455200001,-107.331,-56.786,95.532,1.0
8.15,128.200221,37.916691,5954.249712,-107.066,-56.843,95.242,1.0
8.1666,128.200255,37.916682,5949.668568,-106.799,-56.899,94.951,1.0
8.1833,128.200289,37.916674,5945.081632800001,-106.532,-56.954,94.659,1.0
8.2,128.200323,37.916666,5940.488601600001,-106.263,-57.009,94.366,1.0
8.2166,128.200357,37.916657,5935.889169600001,-105.993,-57.063,94.073,1.0
8.2333,128.200391,37.916649,5931.283946400001,-105.722,-57.116,93.778,1.0
8.25,128.200425,37.916641,5926.6726272000005,-105.449,-57.168,93.482,1.0
8.2666,128.200459,37.916633,5922.0555168,-105.176,-57.219,93.185,1.0
8.2833,128.200493,37.916626,5917.4323104000005,-104.901,-57.27,92.887,1.0
8.3,128.200527,37.916618,5912.8033128,-104.626,-57.32,92.588,1.0
8.3166,128.200561,37.916611,5908.168524000001,-104.349,-57.369,92.288,1.0
8.3333,128.200595,37.916604,5903.527944,-104.071,-57.417,91.988,1.0
8.35,128.200629,37.916596,5898.8815728,-103.792,-57.464,91.686,1.0
8.3666,128.200663,37.916589,5894.2294104,-103.512,-57.511,91.383,1.0
8.3833,128.200696,37.916583,5889.5717616,-103.231,-57.557,91.08,1.0
8.4,128.20073,37.916576,5884.9083216,-102.948,-57.602,90.775,1.0
8.4166,128.200764,37.916569,5880.2393952,-102.665,-57.646,90.47,1.0
8.4333,128.200798,37.916563,5875.5646776,-102.38,-57.69,90.164,1.0
8.45,128.200832,37.916557,5870.884778400001,-102.095,-57.732,89.857,1.0
8.4666,128.200866,37.91655,5866.199088,-101.808,-57.774,89.548,1.0
8.4833,128.200899,37.916544,5861.508216,-101.52,-57.815,89.24,1.0
8.5,128.200933,37.916539,5856.8118576,-101.232,-57.855,88.93,1.0
8.5166,128.200967,37.916533,5852.1100128,-100.942,-57.894,88.619,1.0
8.5333,128.201001,37.916527,5847.4029864,-100.651,-57.933,88.308,1.0
8.55,128.201034,37.916522,5842.6907784,-100.359,-57.97,87.995,1.0
8.5666,128.201068,37.916516,5837.973084000001,-100.066,-58.007,87.682,1.0
8.5833,128.201102,37.916511,5833.2505128,-99.772,-58.042,87.369,1.0
8.6,128.201135,37.916506,5828.522760000001,-99.478,-58.077,87.054,1.0
8.6166,128.201169,37.916501,5823.7898256,-99.182,-58.111,86.739,1.0
8.6333,128.201202,37.916497,5819.0517096,-98.885,-58.145,86.422,1.0
8.65,128.201236,37.916492,5814.3087168,-98.587,-58.177,86.106,1.0
8.6666,128.201269,37.916488,5809.5605424000005,-98.289,-58.208,85.788,1.0
8.6833,128.201303,37.916483,5804.807796,-97.989,-58.239,85.47,1.0
8.7,128.201337,37.916479,5800.049868,-97.689,-58.268,85.151,1.0
8.7166,128.20137,37.916475,5795.287368,-97.387,-58.297,84.831,1.0
8.7333,128.201403,37.916471,5790.519991200001,-97.085,-58.325,84.511,1.0
8.75,128.201437,37.916468,5785.747737600001,-96.782,-58.352,84.19,1.0
8.7666,128.20147,37.916464,5780.970912,-96.478,-58.378,83.868,1.0
8.7833,128.201504,37.916461,5776.189514400001,-96.173,-58.403,83.546,1.0
8.8,128.201537,37.916457,5771.40324,-95.868,-58.427,83.223,1.0
8.8166,128.20157,37.916454,5766.612393599999,-95.561,-58.45,82.9,1.0
8.8333,128.201604,37.916451,5761.81728,-95.254,-58.472,82.576,1.0
8.85,128.201637,37.916448,5757.0175944,-94.946,-58.493,82.251,1.0
8.8666,128.20167,37.916446,5752.2133368,-94.637,-58.514,81.926,1.0
8.8833,128.201704,37.916443,5747.404812,-94.327,-58.533,81.601,1.0
8.9,128.201737,37.916441,5742.592020000001,-94.017,-58.552,81.275,1.0
8.9166,128.20177,37.916438,5737.7746560000005,-93.706,-58.569,80.948,1.0
8.9333,128.201803,37.916436,5732.9533296,-93.394,-58.586,80.621,1.0
8.95,128.201836,37.916434,5728.127736,-93.081,-58.601,80.294,1.0
8.9666,128.201869,37.916432,5723.2978752,-92.768,-58.616,79.966,1.0
8.9833,128.201902,37.916431,5718.4637472,-92.454,-58.63,79.638,1.0
9.0,128.201936,37.916429,5713.625656800001,-92.139,-58.642,79.309,1.0
9.0166,128.201969,37.916428,5708.7839088,-91.824,-58.654,78.98,1.0
9.0333,128.202002,37.916426,5703.9378936,-91.508,-58.665,78.651,1.0
9.05,128.202035,37.916425,5699.0879159999995,-91.192,-58.675,78.321,1.0
9.0666,128.202067,37.916424,5694.2339759999995,-90.874,-58.684,77.991,1.0
9.0833,128.2021,37.916424,5689.3763784,-90.556,-58.691,77.661,1.0
9.1,128.202133,37.916423,5684.515123200001,-90.238,-58.698,77.331,1.0
9.1166,128.202166,37.916422,5679.6499056,-89.919,-58.704,77.0,1.0
9.1333,128.202199,37.916422,5674.7810303999995,-89.6,-58.709,76.669,1.0
9.15,128.202232,37.916422,5669.9084976,-89.28,-58.713,76.338,1.0
9.1666,128.202265,37.916422,5665.0323072,-88.959,-58.716,76.007,1.0
9.1833,128.202297,37.916422,5660.152764,-88.638,-58.718,75.675,1.0
9.2,128.20233,37.916422,5655.2695632,-88.317,-58.718,75.343,1.0
9.2166,128.202363,37.916422,5650.3833144,-87.995,-58.718,75.012,1.0
9.2333,128.202395,37.916423,5645.4931032,-87.673,-58.717,74.68,1.0
9.25,128.202428,37.916424,5640.599844,-87.35,-58.715,74.348,1.0
9.2666,128.202461,37.916425,5635.703232000001,-87.027,-58.712,74.016,1.0
9.2833,128.202493,37.916426,5630.803572,-86.703,-58.708,73.684,1.0
9.3,128.202526,37.916427,5625.9005592,-86.379,-58.702,73.352,1.0
9.3166,128.202558,37.916428,5620.9944984,-86.055,-58.696,73.02,1.0
9.3333,128.202591,37.916429,5616.0850848,-85.73,-58.689,72.688,1.0
9.35,128.202623,37.916431,5611.172928000001,-85.405,-58.681,72.356,1.0
9.3666,128.202656,37.916433,5606.2577232,-85.08,-58.672,72.024,1.0
9.3833,128.202688,37.916435,5601.339470400001,-84.755,-58.661,71.692,1.0
9.4,128.20272,37.916437,5596.4181696000005,-84.429,-58.65,71.361,1.0
9.4166,128.202753,37.916439,5591.4944304,-84.103,-58.638,71.029,1.0
9.4333,128.202785,37.916441,5586.5676432,-83.777,-58.624,70.698,1.0
9.45,128.202817,37.916444,5581.6381128,-83.45,-58.61,70.367,1.0
9.4666,128.202849,37.916446,5576.706144,-83.123,-58.594,70.036,1.0
9.4833,128.202882,37.916449,5571.7714320000005,-82.796,-58.578,69.705,1.0
9.5,128.202914,37.916452,5566.8339768000005,-82.469,-58.56,69.375,1.0
9.5166,128.202946,37.916455,5561.894083200001,-82.142,-58.542,69.044,1.0
9.5333,128.202978,37.916458,5556.9517512,-81.814,-58.522,68.714,1.0
9.55,128.20301,37.916462,5552.0069808,-81.487,-58.502,68.385,1.0
9.5666,128.203042,37.916465,5547.0600768,-81.159,-58.48,68.056,1.0
9.5833,128.203074,37.916469,5542.1107344,-80.831,-58.457,67.727,1.0
9.6,128.203106,37.916473,5537.1589536,-80.504,-58.434,67.398,1.0
9.6166,128.203138,37.916477,5532.2050392,-80.176,-58.409,67.07,1.0
9.6333,128.20317,37.916481,5527.2489912,-79.848,-58.383,66.742,1.0
9.65,128.203201,37.916486,5522.291114400001,-79.52,-58.356,66.415,1.0
9.6666,128.203233,37.91649,5517.3307992,-79.193,-58.328,66.088,1.0
9.6833,128.203265,37.916495,5512.368655200001,-78.865,-58.3,65.762,1.0
9.7,128.203297,37.916499,5507.404682400001,-78.538,-58.27,65.436,1.0
9.7166,128.203328,37.916504,5502.4388808,-78.21,-58.239,65.111,1.0
9.7333,128.20336,37.916509,5497.471250400001,-77.883,-58.207,64.786,1.0
9.75,128.203392,37.916515,5492.5017912,-77.556,-58.174,64.462,1.0
9.7666,128.203423,37.91652,5487.5305032,-77.229,-58.14,64.138,1.0
9.7833,128.203455,37.916526,5482.557691200001,-76.902,-58.105,63.815,1.0
9.8,128.203486,37.916531,5477.5833552,-76.574,-58.068,63.493,1.0
9.8166,128.203518,37.916537,5472.6071904,-76.248,-58.031,63.171,1.0
9.8333,128.203549,37.916543,5467.629806400001,-75.921,-57.993,62.85,1.0
9.85,128.203581,37.916549,5462.6508984,-75.595,-57.954,62.53,1.0
9.8666,128.203612,37.916556,5457.6707712,-75.269,-57.914,62.21,1.0
9.8833,128.203643,37.916562,5452.689120000001,-74.943,-57.872,61.891,1.0
9.9,128.203675,37.916569,5447.706554400001,-74.618,-57.83,61.573,1.0
9.9166,128.203706,37.916576,5442.7224648,-74.292,-57.787,61.255,1.0
9.9333,128.203737,37.916583,5437.737460800001,-73.967,-57.743,60.939,1.0
9.95,128.203768,37.91659,5432.7512376,-73.643,-57.697,60.623,1.0
9.9666,128.203799,37.916597,5427.7641,-73.318,-57.651,60.308,1.0
9.9833,128.20383,37.916605,5422.7757432,-72.994,-57.603,59.993,1.0
10.0,128.203861,37.916612,5417.786776800001,-72.67,-57.555,59.68,1.0
10.0166,128.203892,37.91662,5412.796896000001,-72.346,-57.506,59.367,1.0
10.0333,128.203923,37.916628,5407.8061008,-72.023,-57.455,59.056,1.0
10.05,128.203954,37.916636,5402.814696,-71.7,-57.404,58.745,1.0
10.0666,128.203985,37.916644,5397.822681600001,-71.377,-57.351,58.435,1.0
10.0833,128.204016,37.916652,5392.8300576,-71.055,-57.298,58.126,1.0
10.1,128.204047,37.916661,5387.836824000001,-70.733,-57.243,57.818,1.0
10.1166,128.204077,37.91667,5382.8429808,-70.411,-57.188,57.512,1.0
10.1333,128.204108,37.916678,5377.8491376,-70.09,-57.132,57.206,1.0
10.15,128.204139,37.916687,5372.85438,-69.769,-57.074,56.901,1.0
10.1666,128.204169,37.916697,5367.8596224,-69.449,-57.016,56.597,1.0
10.1833,128.2042,37.916706,5362.864560000001,-69.129,-56.956,56.294,1.0
10.2,128.20423,37.916715,5357.869497600001,-68.809,-56.896,55.992,1.0
10.2166,128.204261,37.916725,5352.8741304,-68.49,-56.834,55.691,1.0
10.2333,128.204291,37.916735,5347.8787632,-68.171,-56.772,55.392,1.0
10.25,128.204322,37.916745,5342.883396,-67.853,-56.709,55.093,1.0
10.2666,128.204352,37.916755,5337.888028800001,-67.535,-56.644,54.796,1.0
10.2833,128.204382,37.916765,5332.8929664,-67.218,-56.579,54.499,1.0
10.3,128.204413,37.916775,5327.897904,-66.901,-56.513,54.204,1.0
10.3166,128.204443,37.916786,5322.903146400001,-66.585,-56.445,53.91,1.0
10.3333,128.204473,37.916797,5317.908693599999,-66.269,-56.377,53.617,1.0
10.35,128.204503,37.916808,5312.914545600001,-65.954,-56.308,53.325,1.0
10.3666,128.204533,37.916819,5307.9210072,-65.639,-56.238,53.035,1.0
10.3833,128.204563,37.91683,5302.9277736,-65.325,-56.166,52.745,1.0
10.4,128.204593,37.916841,5297.9354544,-65.012,-56.094,52.457,1.0
10.4166,128.204623,37.916853,5292.94344,-64.699,-56.021,52.17,1.0
10.4333,128.204653,37.916864,5287.95234,-64.386,-55.947,51.884,1.0
10.45,128.204683,37.916876,5282.9618496,-64.075,-55.872,51.6,1.0
10.4666,128.204713,37.916888,5277.9722736,-63.764,-55.796,51.317,1.0
10.4833,128.204743,37.9169,5272.983612,-63.453,-55.72,51.035,1.0
10.5,128.204773,37.916913,5267.9958648,-63.143,-55.642,50.754,1.0
10.5166,128.204802,37.916925,5263.009032,-62.834,-55.563,50.475,1.0
10.5333,128.204832,37.916938,5258.0234184,-62.526,-55.484,50.197,1.0
10.55,128.204862,37.91695,5253.039024000001,-62.218,-55.403,49.92,1.0
10.5666,128.204891,37.916963,5248.055544,-61.91,-55.322,49.645,1.0
10.5833,128.204921,37.916976,5243.073588000001,-61.604,-55.239,49.371,1.0
10.6,128.20495,37.91699,5238.093156000001,-61.298,-55.156,49.098,1.0
10.6166,128.20498,37.917003,5233.1139432,-60.992,-55.072,48.827,1.0
10.6333,128.205009,37.917017,5228.1362544,-60.687,-54.987,48.557,1.0
10.65,128.205038,37.91703,5223.1600896,-60.383,-54.901,48.288,1.0
10.6666,128.205068,37.917044,5218.1854488,-60.08,-54.814,48.021,1.0
10.6833,128.205097,37.917058,5213.2126368,-59.777,-54.726,47.755,1.0
10.7,128.205126,37.917072,5208.2413488,-59.474,-54.638,47.491,1.0
10.7166,128.205155,37.917087,5203.2721944,-59.172,-54.548,47.228,1.0
10.7333,128.205184,37.917101,5198.304868800001,-58.871,-54.458,46.966,1.0
10.75,128.205213,37.917116,5193.339372,-58.57,-54.366,46.706,1.0
10.7666,128.205242,37.917131,5188.3760088,-58.27,-54.274,46.447,1.0
10.7833,128.205271,37.917146,5183.4144744000005,-57.97,-54.181,46.189,1.0
10.8,128.2053,37.917161,5178.455378400001,-57.671,-54.087,45.933,1.0
10.8166,128.205329,37.917176,5173.498415999999,-57.373,-53.993,45.679,1.0
10.8333,128.205358,37.917192,5168.543892000001,-57.076,-53.897,45.425,1.0
10.85,128.205387,37.917207,5163.591501600001,-56.779,-53.801,45.174,1.0
10.8666,128.205415,37.917223,5158.6415496,-56.482,-53.703,44.923,1.0
10.8833,128.205444,37.917239,5153.694340800001,-56.186,-53.605,44.675,1.0
10.9,128.205473,37.917255,5148.749570400001,-55.891,-53.506,44.427,1.0
10.9166,128.205501,37.917272,5143.8075432,-55.596,-53.406,44.181,1.0
10.9333,128.20553,37.917288,5138.867954400001,-55.301,-53.306,43.937,1.0
10.95,128.205558,37.917305,5133.9314136,-55.007,-53.204,43.694,1.0
10.9666,128.205587,37.917321,5128.997616,-54.714,-53.102,43.452,1.0
10.9833,128.205615,37.917338,5124.0668663999995,-54.421,-52.999,43.212,1.0
11.0,128.205644,37.917355,5119.139164800001,-54.129,-52.895,42.974,1.0
11.0166,128.205672,37.917372,5114.214206400001,-53.838,-52.79,42.737,1.0
11.0333,128.2057,37.91739,5109.2926008,-53.547,-52.684,42.501,1.0
11.05,128.205728,37.917407,5104.374347999999,-53.256,-52.578,42.267,1.0
11.0666,128.205757,37.917425,5099.4591432,-52.966,-52.471,42.034,1.0
11.0833,128.205785,37.917443,5094.547596,-52.677,-52.363,41.803,1.0
11.1,128.205813,37.917461,5089.6390968000005,-52.388,-52.254,41.574,1.0
11.1166,128.205841,37.917479,5084.7342552,-52.1,-52.144,41.345,1.0
11.1333,128.205869,37.917497,5079.8330712,-51.813,-52.034,41.119,1.0
11.15,128.205897,37.917516,5074.9355448,-51.526,-51.923,40.894,1.0
11.1666,128.205925,37.917535,5070.041676,-51.24,-51.811,40.67,1.0
11.1833,128.205952,37.917553,5065.1514648,-50.955,-51.698,40.448,1.0
11.2,128.20598,37.917572,5060.265216,-50.669,-51.584,40.227,1.0
11.2166,128.206008,37.917591,5055.382929599999,-50.385,-51.47,40.008,1.0
11.2333,128.206036,37.917611,5050.5046056,-50.101,-51.355,39.79,1.0
11.25,128.206063,37.91763,5045.630244,-49.817,-51.239,39.574,1.0
11.2666,128.206091,37.91765,5040.7604544000005,-49.534,-51.123,39.36,1.0
11.2833,128.206118,37.917669,5035.8946272,-49.252,-51.005,39.146,1.0
11.3,128.206146,37.917689,5031.0330672,-48.971,-50.887,38.935,1.0
11.3166,128.206173,37.917709,5026.175774400001,-48.69,-50.769,38.724,1.0
11.3333,128.206201,37.91773,5021.3230536,-48.409,-50.649,38.516,1.0
11.35,128.206228,37.91775,5016.4749048,-48.129,-50.529,38.309,1.0
11.3666,128.206255,37.917771,5011.6316328,-47.85,-50.408,38.103,1.0
11.3833,128.206283,37.917791,5006.792628,-47.571,-50.286,37.899,1.0
11.4,128.20631,37.917812,5001.958500000001,-47.293,-50.164,37.696,1.0
11.4166,128.206337,37.917833,4997.1292488,-47.015,-50.041,37.495,1.0
11.4333,128.206364,37.917854,4992.3048744,-46.739,-49.917,37.295,1.0
11.45,128.206391,37.917876,4987.4853768,-46.462,-49.792,37.097,1.0
11.4666,128.206418,37.917897,4982.6710608,-46.187,-49.667,36.901,1.0
11.4833,128.206445,37.917919,4977.8619264,-45.912,-49.541,36.705,1.0
11.5,128.206472,37.91794,4973.057973600001,-45.637,-49.415,36.512,1.0
11.5166,128.206499,37.917962,4968.2592024000005,-45.363,-49.287,36.32,1.0
11.5333,128.206526,37.917985,4963.4656128,-45.09,-49.16,36.129,1.0
11.55,128.206553,37.918007,4958.6778144,-44.818,-49.031,35.94,1.0
11.5666,128.20658,37.918029,4953.895502400001,-44.546,-48.902,35.752,1.0
11.5833,128.206606,37.918052,4949.118372,-44.275,-48.772,35.566,1.0
11.6,128.206633,37.918075,4944.3473376,-44.005,-48.642,35.381,1.0
11.6166,128.20666,37.918097,4939.581789600001,-43.736,-48.51,35.198,1.0
11.6333,128.206686,37.91812,4934.8223376,-43.467,-48.379,35.016,1.0
11.65,128.206713,37.918144,4930.068372,-43.2,-48.246,34.836,1.0
11.6666,128.206739,37.918167,4925.320807200001,-42.933,-48.113,34.657,1.0
11.6833,128.206766,37.91819,4920.5790336,-42.667,-47.98,34.48,1.0
11.7,128.206792,37.918214,4915.843356,-42.403,-47.845,34.304,1.0
11.7166,128.206818,37.918238,4911.114079200001,-42.139,-47.71,34.129,1.0
11.7333,128.206845,37.918262,4906.3908984,-41.876,-47.575,33.956,1.0
11.75,128.206871,37.918286,4901.6741184,-41.614,-47.439,33.784,1.0
11.7666,128.206897,37.91831,4896.9637392,-41.353,-47.302,33.614,1.0
11.7833,128.206923,37.918335,4892.2600656,-41.094,-47.165,33.445,1.0
11.8,128.206949,37.918359,4887.5627928,-40.835,-47.027,33.278,1.0
11.8166,128.206975,37.918384,4882.8722256,-40.577,-46.888,33.112,1.0
11.8333,128.207001,37.918409,4878.188364000001,-40.32,-46.749,32.947,1.0
11.85,128.207027,37.918434,4873.511208,-40.064,-46.609,32.783,1.0
11.8666,128.207053,37.918459,4868.841062400001,-39.809,-46.469,32.621,1.0
11.8833,128.207079,37.918485,4864.1779272,-39.555,-46.328,32.461,1.0
11.9,128.207105,37.91851,4859.5218024000005,-39.302,-46.187,32.301,1.0
11.9166,128.207131,37.918536,4854.8729928,-39.05,-46.045,32.143,1.0
11.9333,128.207157,37.918562,4850.231193600001,-38.798,-45.903,31.987,1.0
11.95,128.207183,37.918588,4845.5967096,-38.548,-45.759,31.832,1.0
11.9666,128.207208,37.918614,4840.969236,-38.299,-45.616,31.678,1.0
11.9833,128.207234,37.91864,4836.3496872000005,-38.05,-45.472,31.525,1.0
12.0,128.207259,37.918666,4831.7374536,-37.803,-45.327,31.374,1.0
12.0166,128.207285,37.918693,4827.13284,-37.556,-45.182,31.224,1.0
12.0333,128.207311,37.91872,4822.5355416,-37.311,-45.036,31.075,1.0
12.05,128.207336,37.918747,4817.9464728,-37.065,-44.89,30.928,1.0
12.0666,128.207361,37.918774,4813.364719200001,-36.82,-44.743,30.782,1.0
12.0833,128.207387,37.918801,4808.7911952,-36.576,-44.596,30.637,1.0
12.1,128.207412,37.918828,4804.225596,-36.332,-44.448,30.494,1.0
12.1166,128.207437,37.918856,4799.6679216,-36.088,-44.299,30.352,1.0
12.1333,128.207463,37.918883,4795.118172,-35.844,-44.15,30.211,1.0
12.15,128.207488,37.918911,4790.5769568000005,-35.601,-44.001,30.072,1.0
12.1666,128.207513,37.918939,4786.043666400001,-35.357,-43.851,29.934,1.0
12.1833,128.207538,37.918967,4781.5189104,-35.114,-43.701,29.797,1.0
12.2,128.207563,37.918995,4777.002384,-34.869,-43.55,29.662,1.0
12.2166,128.207588,37.919024,4772.4943920000005,-34.623,-43.398,29.528,1.0
12.2333,128.207614,37.919052,4767.9946296,-34.375,-43.246,29.396,1.0
12.25,128.207638,37.919081,4763.5037064,-34.124,-43.093,29.266,1.0
12.2666,128.207663,37.91911,4759.0213176,-33.868,-42.94,29.137,1.0
12.2833,128.207688,37.919139,4754.5474632000005,-33.609,-42.786,29.009,1.0
12.3,128.207713,37.919168,4750.082448,-33.344,-42.632,28.884,1.0
12.3166,128.207738,37.919197,4745.6259672,-33.072,-42.477,28.76,1.0
12.3333,128.207763,37.919226,4741.178325600001,-32.791,-42.321,28.638,1.0
12.35,128.207788,37.919256,4736.7392184,-32.5,-42.165,28.519,1.0
12.3666,128.207812,37.919286,4732.309255200001,-32.196,-42.008,28.402,1.0
12.3833,128.207837,37.919316,4727.8881312,-31.879,-41.85,28.287,1.0
12.4,128.207862,37.919346,4723.4761512,-31.55,-41.692,28.174,1.0
12.4166,128.207886,37.919376,4719.0730104,-31.208,-41.533,28.062,1.0
12.4333,128.207911,37.919406,4714.679623200001,-30.857,-41.375,27.952,1.0
12.45,128.207935,37.919436,4710.2953800000005,-30.495,-41.215,27.844,1.0
12.4666,128.20796,37.919467,4705.9205856,-30.127,-41.056,27.738,1.0
12.4833,128.207984,37.919498,4701.5555448000005,-29.752,-40.896,27.633,1.0
12.5,128.208009,37.919528,4697.199952800001,-29.373,-40.736,27.53,1.0
12.5166,128.208033,37.919559,4692.854419200001,-28.989,-40.575,27.429,1.0
12.5333,128.208058,37.919591,4688.5186392000005,-28.602,-40.414,27.33,1.0
12.55,128.208082,37.919622,4684.1929176,-28.212,-40.252,27.233,1.0
12.5666,128.208106,37.919653,4679.8775592,-27.819,-40.09,27.138,1.0
12.5833,128.208131,37.919685,4675.5719544,-27.423,-39.927,27.045,1.0
12.6,128.208155,37.919716,4671.2770176,-27.026,-39.763,26.954,1.0
12.6166,128.208179,37.919748,4666.992139200001,-26.626,-39.599,26.865,1.0
12.6333,128.208204,37.91978,4662.7179288,-26.224,-39.434,26.778,1.0
12.65,128.208228,37.919812,4658.454386400001,-25.821,-39.268,26.693,1.0
12.6666,128.208252,37.919845,4654.201512000001,-25.416,-39.102,26.61,1.0
12.6833,128.208276,37.919877,4649.9593056,-25.009,-38.935,26.529,1.0
12.7,128.2083,37.919909,4645.7277672,-24.601,-38.768,26.45,1.0
12.7166,128.208324,37.919942,4641.5075064,-24.192,-38.6,26.373,1.0
12.7333,128.208349,37.919975,4637.2982184,-23.782,-38.431,26.299,1.0
12.75,128.208373,37.920008,4633.099903200001,-23.37,-38.262,26.226,1.0
12.7666,128.208397,37.920041,4628.9128656,-22.958,-38.092,26.155,1.0
12.7833,128.208421,37.920074,4624.7374104,-22.546,-37.922,26.086,1.0
12.8,128.208445,37.920107,4620.5732328,-22.133,-37.751,26.019,1.0
12.8166,128.208469,37.920141,4616.4206376,-21.721,-37.579,25.954,1.0
12.8333,128.208493,37.920174,4612.2796248,-21.31,-37.407,25.891,1.0
12.85,128.208517,37.920208,4608.1501944,-20.901,-37.235,25.83,1.0
12.8666,128.208541,37.920242,4604.032956,-20.493,-37.061,25.77,1.0
12.8833,128.208565,37.920276,4599.9276048,-20.088,-36.888,25.713,1.0
12.9,128.208589,37.92031,4595.834140800001,-19.686,-36.713,25.657,1.0
12.9166,128.208613,37.920344,4591.7528688,-19.287,-36.539,25.603,1.0
12.9333,128.208637,37.920379,4587.684093600001,-18.893,-36.363,25.551,1.0
12.95,128.208661,37.920413,4583.6275104,-18.504,-36.188,25.501,1.0
12.9666,128.208685,37.920448,4579.5837288,-18.121,-36.011,25.452,1.0
12.9833,128.208709,37.920483,4575.5521392,-17.745,-35.835,25.405,1.0
13.0,128.208733,37.920518,4571.533656,-17.377,-35.658,25.359,1.0
13.0166,128.208756,37.920553,4567.5279744,-17.018,-35.48,25.314,1.0
13.0333,128.20878,37.920588,4563.5350944,-16.67,-35.302,25.272,1.0
13.0499,128.208804,37.920623,4559.5556256,-16.332,-35.123,25.23,1.0
13.0666,128.208828,37.920659,4555.5892632000005,-16.009,-34.944,25.189,1.0
13.0833,128.208852,37.920694,4551.6363120000005,-15.701,-34.765,25.15,1.0
13.1,128.208876,37.92073,4547.6964672,-15.406,-34.585,25.112,1.0
13.1166,128.2089,37.920766,4543.770338400001,-15.123,-34.404,25.075,1.0
13.1333,128.208924,37.920802,4539.8573160000005,-14.852,-34.223,25.04,1.0
13.15,128.208948,37.920838,4535.9580096,-14.59,-34.041,25.006,1.0
13.1666,128.208972,37.920874,4532.072419200001,-14.336,-33.859,24.974,1.0
13.1833,128.208996,37.92091,4528.1999352,-14.088,-33.677,24.942,1.0
13.2,128.20902,37.920947,4524.3420816,-13.853,-33.495,24.911,1.0
13.2166,128.209044,37.920983,4520.497944000001,-13.63,-33.312,24.879,1.0
13.2333,128.209068,37.92102,4516.6678272,-13.42,-33.129,24.848,1.0
13.25,128.209092,37.921057,4512.852036,-13.223,-32.946,24.816,1.0
13.2666,128.209116,37.921094,4509.0502656,-13.04,-32.763,24.786,1.0
13.2833,128.20914,37.921131,4505.262516000001,-12.869,-32.58,24.756,1.0
13.3,128.209164,37.921168,4501.4893968,-12.71,-32.396,24.727,1.0
13.3166,128.209188,37.921205,4497.730603200001,-12.562,-32.212,24.698,1.0
13.3333,128.209212,37.921243,4493.985830400001,-12.424,-32.028,24.669,1.0
13.35,128.209236,37.92128,4490.255688,-12.295,-31.844,24.64,1.0
13.3666,128.20926,37.921318,4486.540176,-12.175,-31.659,24.612,1.0
13.3833,128.209284,37.921356,4482.8392944,-12.062,-31.475,24.584,1.0
13.4,128.209308,37.921394,4479.1527384,-11.956,-31.29,24.556,1.0
13.4166,128.209332,37.921432,4475.4808128,-11.858,-31.105,24.528,1.0
13.4333,128.209356,37.92147,4471.8235176,-11.765,-30.92,24.5,1.0
13.45,128.20938,37.921508,4468.1811576,-11.677,-30.735,24.472,1.0
13.4666,128.209405,37.921546,4464.553428,-11.594,-30.551,24.445,1.0
13.4833,128.209429,37.921585,4460.9403288,-11.514,-30.366,24.417,1.0
13.5,128.209453,37.921623,4457.3421648,-11.438,-30.181,24.39,1.0
13.5166,128.209477,37.921662,4453.758936,-11.364,-29.996,24.363,1.0
13.5333,128.209501,37.921701,4450.1906424,-11.292,-29.811,24.336,1.0
13.55,128.209525,37.92174,4446.637284,-11.222,-29.625,24.309,1.0
13.5666,128.20955,37.921779,4443.098556,-11.153,-29.44,24.283,1.0
13.5833,128.209574,37.921818,4439.5753728,-11.084,-29.255,24.256,1.0
13.6,128.209598,37.921857,4436.06682,-11.016,-29.07,24.23,1.0
13.6166,128.209622,37.921897,4432.5738120000005,-10.947,-28.885,24.204,1.0
13.6333,128.209646,37.921936,4429.0957392,-10.878,-28.701,24.178,1.0
13.65,128.209671,37.921976,4425.6326016,-10.809,-28.516,24.152,1.0
13.6666,128.209695,37.922015,4422.1850088,-10.739,-28.331,24.127,1.0
13.6833,128.209719,37.922055,4418.752656,-10.667,-28.146,24.101,1.0
13.7,128.209743,37.922095,4415.3355432,-10.595,-27.961,24.076,1.0
13.7166,128.209768,37.922135,4411.9339752000005,-10.52,-27.776,24.052,1.0
13.7333,128.209792,37.922175,4408.5476472,-10.444,-27.591,24.027,1.0
13.75,128.209816,37.922216,4405.1765592,-10.367,-27.406,24.003,1.0
13.7666,128.209841,37.922256,4401.821320800001,-10.287,-27.222,23.98,1.0
13.7833,128.209865,37.922296,4398.4813224,-10.204,-27.037,23.956,1.0
13.8,128.209889,37.922337,4395.1571736000005,-10.12,-26.852,23.933,1.0
13.8166,128.209914,37.922377,4391.8485696,-10.033,-26.667,23.91,1.0
13.8333,128.209938,37.922418,4388.5555104,-9.944,-26.483,23.888,1.0
13.85,128.209962,37.922459,4385.278300800001,-9.852,-26.298,23.866,1.0
13.8666,128.209987,37.9225,4382.016636,-9.757,-26.113,23.845,1.0
13.8833,128.210011,37.922541,4378.7708208,-9.66,-25.929,23.824,1.0
13.9,128.210036,37.922582,4375.540855200001,-9.559,-25.744,23.803,1.0
13.9166,128.21006,37.922623,4372.326739200001,-9.456,-25.559,23.783,1.0
13.9333,128.210085,37.922665,4369.1284728,-9.35,-25.375,23.763,1.0
13.95,128.210109,37.922706,4365.946056,-9.241,-25.19,23.744,1.0
13.9666,128.210133,37.922748,4362.779793600001,-9.128,-25.005,23.725,1.0
13.9833,128.210158,37.922789,4359.6296856,-9.013,-24.821,23.707,1.0
14.0,128.210182,37.922831,4356.4954272,-8.894,-24.636,23.69,1.0
14.0166,128.210207,37.922873,4353.3773232,-8.772,-24.451,23.673,1.0
14.0333,128.210231,37.922915,4350.2753736,-8.647,-24.267,23.656,1.0
14.05,128.210256,37.922957,4347.189578400001,-8.519,-24.082,23.64,1.0
14.0666,128.210281,37.922999,4344.1202424,-8.388,-23.898,23.625,1.0
14.0833,128.210305,37.923041,4341.0670608,-8.254,-23.713,23.61,1.0
14.1,128.21033,37.923084,4338.0303384,-8.117,-23.528,23.596,1.0
14.1166,128.210354,37.923126,4335.0097704,-7.976,-23.344,23.583,1.0
14.1333,128.210379,37.923168,4332.0056616,-7.831,-23.159,23.57,1.0
14.15,128.210403,37.923211,4329.018012,-7.684,-22.974,23.558,1.0
14.1666,128.210428,37.923254,4326.0468216,-7.532,-22.79,23.546,1.0
14.1833,128.210453,37.923296,4323.0920904,-7.377,-22.605,23.535,1.0
14.2,128.210477,37.923339,4320.1538184,-7.218,-22.421,23.525,1.0
14.2166,128.210502,37.923382,4317.2323104,-7.055,-22.236,23.516,1.0
14.2333,128.210527,37.923425,4314.3275664,-6.888,-22.051,23.508,1.0
14.25,128.210551,37.923468,4311.4392816,-6.717,-21.867,23.5,1.0
14.2666,128.210576,37.923511,4308.5677608,-6.543,-21.682,23.493,1.0
14.2833,128.210601,37.923555,4305.713004,-6.365,-21.497,23.486,1.0
14.3,128.210626,37.923598,4302.8750112,-6.184,-21.313,23.481,1.0
14.3166,128.21065,37.923642,4300.0540872,-6.0,-21.128,23.476,1.0
14.3333,128.210675,37.923685,4297.2499272000005,-5.814,-20.944,23.472,1.0
