Time,Longitude,Latitude,Altitude,Roll (deg),Pitch (deg),Yaw (deg),Health
0.0,128.181881,37.968463,7002.830292000001,0.0,-0.003,179.999,1.0
0.0166,128.181881,37.968418,7002.8116992000005,0.0,-0.012,180.0,1.0
0.0333,128.181881,37.968374,7002.791887200001,0.034,-0.013,180.007,1.0
0.05,128.181881,37.968329,7002.7702464,0.104,0.007,180.023,1.0
0.0666,128.181881,37.968284,7002.7473864,0.208,0.062,180.044,1.0
0.0833,128.181881,37.968239,7002.723612,0.345,0.164,180.067,1.0
0.1,128.181881,37.968194,7002.699837600001,0.513,0.325,180.092,1.0
0.1166,128.181881,37.968149,7002.6766728,0.709,0.551,180.117,1.0
0.1333,128.181881,37.968104,7002.655032000001,0.922,0.851,180.142,1.0
0.15,128.181881,37.968059,7002.635220000001,1.151,1.225,180.167,1.0
0.1666,128.181881,37.968014,7002.6178464,1.39,1.663,180.194,1.0
0.1833,128.181881,37.967969,7002.6032159999995,1.639,2.15,180.222,1.0
0.2,128.181881,37.967924,7002.5922432,1.894,2.674,180.252,1.0
0.2166,128.181881,37.967879,7002.585232800001,2.154,3.217,180.285,1.0
0.2333,128.181881,37.967834,7002.581270400001,2.489,3.762,180.324,1.0
0.25,128.181881,37.967789,7002.581270400001,2.895,4.291,180.369,1.0
0.2666,128.181881,37.967744,7002.584928,3.366,4.79,180.418,1.0
0.2833,128.181881,37.967699,7002.592548,3.894,5.253,180.47,1.0
0.3,128.181881,37.967654,7002.6044352,4.473,5.685,180.523,1.0
0.3166,128.181881,37.967608,7002.6218088000005,5.094,6.086,180.576,1.0
0.3333,128.181881,37.967563,7002.645583200001,5.684,6.46,180.626,1.0
0.35,128.181881,37.967518,7002.6760632000005,6.24,6.81,180.673,1.0
0.3666,128.181881,37.967473,7002.7138584,6.763,7.137,180.717,1.0
0.3833,128.18188,37.967428,7002.7598832,7.255,7.442,180.762,1.0
0.4,128.18188,37.967383,7002.814442400001,7.719,7.729,180.809,1.0
0.4166,128.18188,37.967338,7002.8784504000005,8.16,7.998,180.856,1.0
0.4333,128.18188,37.967293,7002.9497736,8.642,8.251,180.909,1.0
0.45,128.18188,37.967248,7003.0296312,9.168,8.49,180.969,1.0
0.4666,128.18188,37.967203,7003.1171088,9.735,8.715,181.032,1.0
0.4833,128.18188,37.967158,7003.2122064000005,10.34,8.929,181.097,1.0
0.5,128.181879,37.967113,7003.314924,10.98,9.132,181.165,1.0
0.5166,128.181879,37.967068,7003.425261599999,11.651,9.325,181.233,1.0
0.5333,128.181879,37.967023,7003.544438400001,12.327,9.499,181.299,1.0
0.55,128.181879,37.966977,7003.6721496,13.005,9.655,181.361,1.0
0.5666,128.181878,37.966932,7003.8093096,13.685,9.797,181.422,1.0
0.5833,128.181878,37.966887,7003.955004,14.365,9.928,181.482,1.0
0.6,128.181878,37.966842,7004.109842400001,15.045,10.05,181.543,1.0
0.6166,128.181877,37.966797,7004.273215200001,15.726,10.166,181.604,1.0
0.6333,128.181877,37.966752,7004.446341600001,16.366,10.266,181.66,1.0
0.65,128.181876,37.966707,7004.6289168,16.968,10.352,181.711,1.0
0.6666,128.181876,37.966662,7004.821550400001,17.535,10.427,181.758,1.0
0.6833,128.181875,37.966617,7005.024547200001,18.069,10.496,181.805,1.0
0.7,128.181875,37.966572,7005.236383200001,18.575,10.561,181.852,1.0
0.7166,128.181874,37.966527,7005.457972800001,19.058,10.624,181.901,1.0
0.7333,128.181874,37.966482,7005.6896208,19.493,10.682,181.948,1.0
0.75,128.181873,37.966437,7005.931632000001,19.884,10.736,181.992,1.0
0.7666,128.181872,37.966392,7006.183092,20.236,10.789,182.036,1.0
0.7833,128.181871,37.966347,7006.4440008,20.553,10.84,182.081,1.0
0.8,128.18187,37.966302,7006.7143584000005,20.84,10.893,182.127,1.0
0.8166,128.181869,37.966258,7006.9941648,21.101,10.946,182.175,1.0
0.8333,128.181868,37.966213,7007.283115200001,21.336,10.993,182.216,1.0
0.85,128.181867,37.966168,7007.5809048,21.548,11.032,182.249,1.0
0.8666,128.181866,37.966123,7007.887533600001,21.737,11.068,182.279,1.0
0.8833,128.181865,37.966078,7008.203001600001,21.906,11.101,182.306,1.0
0.9,128.181864,37.966033,7008.5270040000005,22.056,11.134,182.332,1.0
0.9166,128.181863,37.965988,7008.8595408,22.189,11.169,182.359,1.0
0.9333,128.181862,37.965943,7009.2009168,22.267,11.194,182.379,1.0
0.95,128.18186,37.965899,7009.5514368,22.294,11.21,182.393,1.0
0.9666,128.181859,37.965854,7009.911405600001,22.273,11.221,182.402,1.0
0.9833,128.181858,37.965809,7010.2802136,22.21,11.23,182.41,1.0
1.0,128.181856,37.965764,7010.657556000001,22.11,11.238,182.417,1.0
1.0166,128.181855,37.965719,7011.043128,21.978,11.248,182.426,1.0
1.0333,128.181853,37.965675,7011.437844,21.772,11.254,182.43,1.0
1.05,128.181852,37.96563,7011.8420088,21.495,11.257,182.43,1.0
1.0666,128.18185,37.965585,7012.2553176,21.146,11.259,182.426,1.0
1.0833,128.181848,37.96554,7012.6786848,20.735,11.263,182.422,1.0
1.1,128.181847,37.965496,7013.1099768,20.266,11.268,182.418,1.0
1.1166,128.181845,37.965451,7013.5504128,19.748,11.275,182.415,1.0
1.1333,128.181843,37.965406,7014.0002976000005,19.165,11.284,182.411,1.0
1.15,128.181841,37.965361,7014.459936,18.518,11.293,182.406,1.0
1.1666,128.181839,37.965317,7014.928108800001,17.809,11.304,182.399,1.0
1.1833,128.181837,37.965272,7015.4057304,17.04,11.317,182.393,1.0
1.2,128.181835,37.965228,7015.891886400001,16.215,11.334,182.386,1.0
1.2166,128.181833,37.965183,7016.3865768000005,15.341,11.354,182.38,1.0
1.2333,128.181831,37.965138,7016.890411200001,14.415,11.376,182.373,1.0
1.25,128.181829,37.965094,7017.4024752,13.443,11.4,182.366,1.0
1.2666,128.181827,37.965049,7017.9227688,12.43,11.426,182.359,1.0
1.2833,128.181825,37.965005,7018.451292000001,11.382,11.454,182.352,1.0
1.3,128.181823,37.96496,7018.9877400000005,10.303,11.485,182.344,1.0
1.3166,128.181821,37.964916,7019.5321128000005,9.197,11.519,182.336,1.0
1.3333,128.181819,37.964871,7020.0831912,8.08,11.553,182.329,1.0
1.35,128.181816,37.964826,7020.6415848,6.955,11.588,182.321,1.0
1.3666,128.181814,37.964782,7021.2069888,5.823,11.625,182.314,1.0
1.3833,128.181812,37.964737,7021.779708,4.685,11.663,182.305,1.0
1.4,128.18181,37.964693,7022.3591328,3.542,11.702,182.294,1.0
1.4166,128.181807,37.964648,7022.9458728,2.394,11.743,182.283,1.0
1.4333,128.181805,37.964604,7023.5380992,1.259,11.784,182.27,1.0
1.45,128.181803,37.964559,7024.1364216,0.136,11.824,182.258,1.0
1.4666,128.181801,37.964515,7024.7414496,-0.974,11.864,182.244,1.0
1.4833,128.181799,37.964471,7025.352878400001,-2.077,11.905,182.228,1.0
1.5,128.181796,37.964426,7025.9700984,-3.172,11.946,182.211,1.0
1.5166,128.181794,37.964382,7026.594024000001,-4.261,11.988,182.191,1.0
1.5333,128.181792,37.964337,7027.2225216,-5.333,12.028,182.17,1.0
1.55,128.18179,37.964293,7027.857420000001,-6.389,12.067,182.149,1.0
1.5666,128.181788,37.964248,7028.4978048,-7.431,12.105,182.126,1.0
1.5833,128.181785,37.964204,7029.1439808000005,-8.462,12.143,182.101,1.0
1.6,128.181783,37.964159,7029.7956432,-9.484,12.181,182.074,1.0
1.6166,128.181781,37.964115,7030.453401600001,-10.499,12.22,182.045,1.0
1.6333,128.181779,37.964071,7031.1154272,-11.499,12.256,182.016,1.0
1.65,128.181777,37.964026,7031.7829392,-12.485,12.291,181.985,1.0
1.6666,128.181775,37.963982,7032.455937600001,-13.46,12.325,181.953,1.0
1.6833,128.181773,37.963937,7033.1341176000005,-14.426,12.358,181.92,1.0
1.7,128.181771,37.963893,7033.817479200001,-15.384,12.391,181.885,1.0
1.7166,128.181769,37.963849,7034.5057176,-16.337,12.425,181.848,1.0
1.7333,128.181766,37.963804,7035.1982232,-17.276,12.456,181.81,1.0
1.75,128.181764,37.96376,7035.895605600001,-18.202,12.487,181.772,1.0
1.7666,128.181763,37.963715,7036.597864800001,-19.117,12.516,181.733,1.0
1.7833,128.181761,37.963671,7037.304696,-20.024,12.545,181.693,1.0
1.8,128.181759,37.963627,7038.0160992,-20.923,12.574,181.651,1.0
1.8166,128.181757,37.963582,7038.732074400001,-21.817,12.603,181.608,1.0
1.8333,128.181755,37.963538,7039.4514024,-22.696,12.631,181.564,1.0
1.85,128.181753,37.963494,7040.174997600001,-23.562,12.658,181.52,1.0
1.8666,128.181751,37.963449,7040.90286,-24.417,12.683,181.475,1.0
1.8833,128.181749,37.963405,7041.6349896,-25.262,12.709,181.429,1.0
1.9,128.181748,37.963361,7042.3707768,-26.099,12.734,181.382,1.0
1.9166,128.181746,37.963316,7043.110831200001,-26.929,12.759,181.333,1.0
1.9333,128.181744,37.963272,7043.8536288000005,-27.745,12.783,181.284,1.0
1.95,128.181743,37.963227,7044.6003888,-28.547,12.806,181.235,1.0
1.9666,128.181741,37.963183,7045.350501600001,-29.337,12.828,181.186,1.0
1.9833,128.181739,37.963139,7046.1042720000005,-30.118,12.85,181.135,1.0
2.0,128.181738,37.963094,7046.8617,-30.89,12.871,181.083,1.0
2.0166,128.181736,37.96305,7047.622176,-31.655,12.892,181.03,1.0
2.0333,128.181735,37.963006,7048.3853952,-32.406,12.912,180.977,1.0
2.05,128.181733,37.962961,7049.1519672,-33.143,12.931,180.925,1.0
2.0666,128.181732,37.962917,7049.921282400001,-33.869,12.949,180.872,1.0
2.0833,128.181731,37.962873,7050.6939504,-34.584,12.966,180.818,1.0
2.1,128.181729,37.962828,7051.4693615999995,-35.292,12.983,180.763,1.0
2.1166,128.181728,37.962784,7052.2478208,-35.992,13.0,180.707,1.0
2.1333,128.181727,37.96274,7053.029023200001,-36.681,13.028,180.642,1.0
2.15,128.181725,37.962695,7053.812968800001,-37.359,13.067,180.567,1.0
2.1666,128.181724,37.962651,7054.5996576,-38.028,13.114,180.485,1.0
2.1833,128.181723,37.962606,7055.3890896,-38.688,13.167,180.398,1.0
2.2,128.181722,37.962562,7056.1815696,-39.341,13.222,180.306,1.0
2.2166,128.181721,37.962518,7056.976792800001,-39.987,13.278,180.212,1.0
2.2333,128.18172,37.962473,7057.7747592000005,-40.627,13.331,180.118,1.0
2.25,128.181719,37.962429,7058.575468800001,-41.261,13.379,180.027,1.0
2.2666,128.181718,37.962385,7059.3789216000005,-41.891,13.424,179.937,1.0
2.2833,128.181717,37.96234,7060.1851176,-42.517,13.466,179.847,1.0
2.3,128.181716,37.962296,7060.993752000001,-43.14,13.505,179.759,1.0
2.3166,128.181716,37.962252,7061.8054344,-43.76,13.541,179.67,1.0
2.3333,128.181715,37.962207,7062.620164800001,-44.393,13.569,179.587,1.0
2.35,128.181714,37.962163,7063.4379432,-45.039,13.589,179.509,1.0
2.3666,128.181713,37.962119,7064.258464800001,-45.696,13.602,179.435,1.0
2.3833,128.181713,37.962074,7065.081424800001,-46.365,13.611,179.364,1.0
2.4,128.181712,37.96203,7065.907128000001,-47.044,13.618,179.294,1.0
2.4166,128.181712,37.961986,7066.735269600001,-47.732,13.622,179.225,1.0
2.4333,128.181712,37.961941,7067.565849600001,-48.432,13.623,179.159,1.0
2.45,128.181711,37.961897,7068.398868,-49.143,13.619,179.097,1.0
2.4666,128.181711,37.961853,7069.234020000001,-49.864,13.613,179.036,1.0
2.4833,128.181711,37.961808,7070.0713056,-50.594,13.606,178.976,1.0
2.5,128.18171,37.961764,7070.910724800001,-51.331,13.597,178.916,1.0
2.5166,128.18171,37.96172,7071.751668,-52.076,13.588,178.856,1.0
2.5333,128.18171,37.961675,7072.5941352,-52.806,13.581,178.796,1.0
2.55,128.18171,37.961631,7073.4375168,-53.52,13.574,178.736,1.0
2.5666,128.18171,37.961587,7074.2824224000005,-54.22,13.568,178.676,1.0
2.5833,128.18171,37.961542,7075.128547200001,-54.907,13.563,178.614,1.0
2.6,128.18171,37.961498,7075.975891200001,-55.583,13.557,178.551,1.0
2.6166,128.181711,37.961454,7076.8244544,-56.249,13.552,178.487,1.0
2.6333,128.181711,37.961409,7077.6733224,-56.885,13.548,178.421,1.0
2.65,128.181711,37.961365,7078.522800000001,-57.493,13.545,178.354,1.0
2.6666,128.181711,37.96132,7079.373192000001,-58.075,13.543,178.286,1.0
2.6833,128.181712,37.961276,7080.2244984,-58.634,13.541,178.216,1.0
2.7,128.181712,37.961232,7081.076109600001,-59.175,13.539,178.145,1.0
2.7166,128.181712,37.961187,7081.9286352,-59.699,13.537,178.073,1.0
2.7333,128.181713,37.961143,7082.781160800001,-60.196,13.534,178.001,1.0
2.75,128.181713,37.961099,7083.634600800001,-60.671,13.53,177.928,1.0
2.7666,128.181714,37.961054,7084.4880408,-61.125,13.527,177.856,1.0
2.7833,128.181715,37.96101,7085.3423952,-61.561,13.522,177.782,1.0
2.8,128.181715,37.960965,7086.1970544000005,-61.982,13.517,177.709,1.0
2.8166,128.181716,37.960921,7087.0523232000005,-62.39,13.511,177.635,1.0
2.8333,128.181717,37.960876,7087.9075920000005,-62.782,13.504,177.563,1.0
2.85,128.181717,37.960832,7088.763470400001,-63.158,13.497,177.492,1.0
2.8666,128.181718,37.960788,7089.6193488,-63.521,13.488,177.421,1.0
2.8833,128.181719,37.960743,7090.4758368,-63.873,13.48,177.351,1.0
2.9,128.18172,37.960699,7091.3326296,-64.215,13.47,177.282,1.0
2.9166,128.181721,37.960654,7092.189727200001,-64.549,13.46,177.213,1.0
2.9333,128.181722,37.96061,7093.046824800001,-64.871,13.449,177.145,1.0
2.95,128.181723,37.960565,7093.904227200001,-65.183,13.438,177.078,1.0
2.9666,128.181724,37.960521,7094.7616296,-65.485,13.427,177.012,1.0
2.9833,128.181726,37.960477,7095.6193368,-65.78,13.415,176.947,1.0
3.0,128.181727,37.960432,7096.477044,-66.067,13.403,176.882,1.0
3.0166,128.181728,37.960388,7097.335056000001,-66.348,13.391,176.817,1.0
3.0333,128.18173,37.960343,7098.1930680000005,-66.622,13.378,176.753,1.0
3.05,128.181731,37.960299,7099.05108,-66.888,13.366,176.689,1.0
3.0666,128.181732,37.960254,7099.909092000001,-67.147,13.353,176.625,1.0
3.0833,128.181734,37.96021,7100.7674088,-67.401,13.34,176.562,1.0
3.1,128.181736,37.960165,7101.6254208,-67.65,13.327,176.499,1.0
3.1166,128.181737,37.960121,7102.4837376000005,-67.894,13.314,176.435,1.0
3.1333,128.181739,37.960076,7103.3417496,-68.134,13.301,176.372,1.0
3.15,128.181741,37.960032,7104.1997616,-68.369,13.287,176.309,1.0
3.1666,128.181742,37.959987,7105.0577736000005,-68.6,13.274,176.246,1.0
3.1833,128.181744,37.959943,7105.9154808,-68.827,13.261,176.182,1.0
3.2,128.181746,37.959898,7106.773188000001,-69.051,13.247,176.119,1.0
3.2166,128.181748,37.959854,7107.6308952,-69.273,13.233,176.056,1.0
3.2333,128.18175,37.959809,7108.4886024,-69.491,13.22,175.993,1.0
3.25,128.181752,37.959765,7109.346004800001,-69.708,13.206,175.93,1.0
3.2666,128.181754,37.95972,7110.2031024,-69.921,13.192,175.866,1.0
3.2833,128.181756,37.959676,7111.060200000001,-70.133,13.178,175.803,1.0
3.3,128.181758,37.959631,7111.916992800001,-70.343,13.164,175.74,1.0
3.3166,128.181761,37.959587,7112.7734808000005,-70.552,13.149,175.677,1.0
3.3333,128.181763,37.959542,7113.629664,-70.758,13.135,175.613,1.0
3.35,128.181765,37.959498,7114.4858472000005,-70.964,13.12,175.55,1.0
3.3666,128.181768,37.959453,7115.3417256,-71.168,13.106,175.487,1.0
3.3833,128.18177,37.959408,7116.1972992,-71.37,13.091,175.424,1.0
3.4,128.181773,37.959364,7117.0522632,-71.572,13.076,175.361,1.0
3.4166,128.181775,37.959319,7117.9072272,-71.773,13.061,175.298,1.0
3.4333,128.181778,37.959275,7118.761886400001,-71.973,13.046,175.235,1.0
3.45,128.181781,37.95923,7119.615936,-72.172,13.031,175.172,1.0
3.4666,128.181783,37.959186,7120.4696808,-72.37,13.015,175.109,1.0
3.4833,128.181786,37.959141,7121.3231208,-72.568,13.0,175.046,1.0
3.5,128.181789,37.959096,7122.176256000001,-72.765,12.984,174.984,1.0
3.5166,128.181792,37.959052,7123.0287816,-72.961,12.968,174.921,1.0
3.5333,128.181795,37.959007,7123.8810023999995,-73.157,12.952,174.858,1.0
3.55,128.181798,37.958963,7124.7326136,-73.352,12.936,174.795,1.0
3.5666,128.181801,37.958918,7125.583920000001,-73.547,12.92,174.732,1.0
3.5833,128.181804,37.958873,7126.4346168,-73.741,12.903,174.669,1.0
3.6,128.181807,37.958829,7127.284704000001,-73.935,12.887,174.607,1.0
3.6166,128.181811,37.958784,7128.1344864,-74.128,12.87,174.544,1.0
3.6333,128.181814,37.95874,7128.9836592,-74.321,12.854,174.481,1.0
3.65,128.181817,37.958695,7129.8322224,-74.514,12.837,174.418,1.0
3.6666,128.181821,37.95865,7130.680176,-74.707,12.82,174.355,1.0
3.6833,128.181824,37.958606,7131.5278248,-74.899,12.803,174.292,1.0
3.7,128.181828,37.958561,7132.3745592000005,-75.091,12.786,174.229,1.0
3.7166,128.181831,37.958516,7133.220684000001,-75.283,12.768,174.166,1.0
3.7333,128.181835,37.958472,7134.0661992000005,-75.475,12.751,174.103,1.0
3.75,128.181839,37.958427,7134.9111048,-75.666,12.733,174.04,1.0
3.7666,128.181842,37.958382,7135.755400800001,-75.857,12.716,173.976,1.0
3.7833,128.181846,37.958338,7136.5990872,-76.048,12.698,173.913,1.0
3.8,128.18185,37.958293,7137.4418592,-76.239,12.68,173.85,1.0
3.8166,128.181854,37.958248,7138.2840216,-76.429,12.661,173.787,1.0
3.8333,128.181858,37.958204,7139.125269600001,-76.62,12.643,173.723,1.0
3.85,128.181862,37.958159,7139.965908,-76.81,12.625,173.66,1.0
3.8666,128.181866,37.958114,7140.8059368,-77.001,12.606,173.596,1.0
3.8833,128.18187,37.95807,7141.645051200001,-77.191,12.588,173.533,1.0
3.9,128.181874,37.958025,7142.4832512,-77.381,12.569,173.469,1.0
3.9166,128.181878,37.95798,7143.320841600001,-77.571,12.55,173.406,1.0
3.9333,128.181883,37.957936,7144.1572128,-77.761,12.531,173.342,1.0
3.95,128.181887,37.957891,7144.993279200001,-77.95,12.511,173.279,1.0
3.9666,128.181891,37.957846,7145.8281264,-78.14,12.492,173.215,1.0
3.9833,128.181896,37.957802,7146.662059200001,-78.33,12.472,173.152,1.0
4.0,128.1819,37.957757,7147.4953824,-78.519,12.453,173.088,1.0
4.0166,128.181905,37.957712,7148.3274864,-78.709,12.433,173.025,1.0
4.0333,128.18191,37.957667,7149.158676,-78.898,12.413,172.962,1.0
4.05,128.181914,37.957623,7149.989256000001,-79.087,12.392,172.899,1.0
4.0666,128.181919,37.957578,7150.8186168,-79.277,12.372,172.836,1.0
4.0833,128.181924,37.957533,7151.6470632,-79.466,12.352,172.773,1.0
4.1,128.181929,37.957488,7152.4742904,-79.655,12.331,172.71,1.0
4.1166,128.181934,37.957444,7153.300908,-79.844,12.31,172.648,1.0
4.1333,128.181939,37.957399,7154.126001600001,-80.032,12.289,172.585,1.0
4.15,128.181944,37.957354,7154.9504856,-80.221,12.268,172.522,1.0
4.1666,128.181949,37.957309,7155.773750400001,-80.409,12.247,172.459,1.0
4.1833,128.181954,37.957265,7156.5961008,-80.598,12.226,172.397,1.0
4.2,128.181959,37.95722,7157.4169272,-80.786,12.204,172.334,1.0
4.2166,128.181964,37.957175,7158.237144,-80.974,12.183,172.271,1.0
4.2333,128.18197,37.95713,7159.0558368,-81.162,12.161,172.208,1.0
4.25,128.181975,37.957086,7159.873615200001,-81.35,12.139,172.145,1.0
4.2666,128.181981,37.957041,7160.690174400001,-81.537,12.117,172.082,1.0
4.2833,128.181986,37.956996,7161.505514400001,-81.725,12.095,172.019,1.0
4.3,128.181992,37.956951,7162.31994,-81.912,12.073,171.955,1.0
4.3166,128.181997,37.956907,7163.132841600001,-82.099,12.05,171.892,1.0
4.3333,128.182003,37.956862,7163.9445240000005,-82.286,12.028,171.829,1.0
4.35,128.182009,37.956817,7164.755292000001,-82.472,12.005,171.766,1.0
4.3666,128.182014,37.956772,7165.564536,-82.658,11.983,171.702,1.0
4.3833,128.18202,37.956727,7166.3725608,-82.844,11.96,171.639,1.0
4.4,128.182026,37.956683,7167.1793664,-83.029,11.937,171.576,1.0
4.4166,128.182032,37.956638,7167.984648,-83.215,11.914,171.512,1.0
4.4333,128.182038,37.956593,7168.788710400001,-83.399,11.89,171.449,1.0
4.45,128.182044,37.956548,7169.5915536,-83.583,11.867,171.386,1.0
4.4666,128.18205,37.956503,7170.393177600001,-83.767,11.844,171.322,1.0
4.4833,128.182057,37.956458,7171.1932776,-83.951,11.82,171.259,1.0
4.5,128.182063,37.956414,7171.9918536000005,-84.133,11.796,171.195,1.0
4.5166,128.182069,37.956369,7172.7892104,-84.316,11.772,171.132,1.0
4.5333,128.182075,37.956324,7173.5850432,-84.498,11.748,171.068,1.0
4.55,128.182082,37.956279,7174.379656800001,-84.679,11.724,171.005,1.0
4.5666,128.182088,37.956234,7175.172441600001,-84.86,11.7,170.941,1.0
4.5833,128.182095,37.956189,7175.964312,-85.04,11.676,170.878,1.0
4.6,128.182102,37.956145,7176.7543536,-85.219,11.651,170.814,1.0
4.6166,128.182108,37.9561,7177.5428712,-85.398,11.626,170.751,1.0
4.6333,128.182115,37.956055,7178.330169600001,-85.576,11.601,170.687,1.0
4.65,128.182122,37.95601,7179.1156392,-85.754,11.577,170.623,1.0
4.6666,128.182128,37.955965,7179.8995848,-85.93,11.552,170.559,1.0
4.6833,128.182135,37.95592,7180.682311200001,-86.106,11.527,170.496,1.0
4.7,128.182142,37.955875,7181.4632088,-86.282,11.501,170.432,1.0
4.7166,128.182149,37.955831,7182.2425824,-86.456,11.476,170.368,1.0
4.7333,128.182156,37.955786,7183.020432,-86.63,11.45,170.305,1.0
4.75,128.182163,37.955741,7183.7967576,-86.803,11.425,170.241,1.0
4.7666,128.182171,37.955696,7184.571254400001,-86.975,11.399,170.177,1.0
4.7833,128.182178,37.955651,7185.3442272,-87.146,11.373,170.113,1.0
4.8,128.182185,37.955606,7186.1153712,-87.316,11.347,170.049,1.0
4.8166,128.182193,37.955561,7186.8849912000005,-87.486,11.321,169.985,1.0
4.8333,128.1822,37.955516,7187.6530872,-87.654,11.295,169.921,1.0
4.85,128.182207,37.955471,7188.4193544,-87.821,11.268,169.857,1.0
4.8666,128.182215,37.955426,7189.1837928,-87.987,11.242,169.793,1.0
4.8833,128.182222,37.955382,7189.9467072,-88.152,11.216,169.729,1.0
4.9,128.18223,37.955337,7190.707792800001,-88.317,11.189,169.665,1.0
4.9166,128.182238,37.955292,7191.4670496,-88.48,11.162,169.601,1.0
4.9333,128.182246,37.955247,7192.224782400001,-88.642,11.135,169.537,1.0
4.95,128.182253,37.955202,7192.9806864,-88.803,11.108,169.473,1.0
4.9666,128.182261,37.955157,7193.734456800001,-88.963,11.081,169.409,1.0
4.9833,128.182269,37.955112,7194.4867032,-89.122,11.054,169.344,1.0
5.0,128.182277,37.955067,7195.2371207999995,-89.28,11.026,169.28,1.0
5.0166,128.182285,37.955022,7195.9857096000005,-89.438,10.998,169.216,1.0
5.0333,128.182293,37.954977,7196.7324696000005,-89.594,10.971,169.151,1.0
5.05,128.182302,37.954932,7197.4774008,-89.749,10.943,169.087,1.0
5.0666,128.18231,37.954887,7198.2205032,-89.902,10.915,169.022,1.0
5.0833,128.182318,37.954842,7198.961472,-90.055,10.887,168.958,1.0
5.1,128.182326,37.954797,7199.7009168,-90.207,10.859,168.893,1.0
5.1166,128.182335,37.954752,7200.438228000001,-90.358,10.831,168.829,1.0
5.1333,128.182343,37.954707,7201.1734056000005,-90.507,10.802,168.764,1.0
5.15,128.182352,37.954662,7201.907059200001,-90.656,10.774,168.699,1.0
5.1666,128.18236,37.954617,7202.638579200001,-90.802,10.745,168.634,1.0
5.1833,128.182369,37.954573,7203.3679656,-90.948,10.717,168.569,1.0
5.2,128.182378,37.954528,7204.095523200001,-91.093,10.688,168.504,1.0
5.2166,128.182387,37.954483,7204.821252000001,-91.237,10.659,168.44,1.0
5.2333,128.182395,37.954438,7205.544847200001,-91.38,10.63,168.375,1.0
5.25,128.182404,37.954393,7206.2663088,-91.521,10.601,168.309,1.0
5.2666,128.182413,37.954348,7206.985941600001,-91.661,10.571,168.244,1.0
5.2833,128.182422,37.954303,7207.7034408,-91.8,10.542,168.179,1.0
5.3,128.182431,37.954258,7208.418806400001,-91.939,10.512,168.114,1.0
5.3166,128.18244,37.954213,7209.132038400001,-92.076,10.482,168.049,1.0
5.3333,128.18245,37.954168,7209.843441600001,-92.213,10.453,167.984,1.0
5.35,128.182459,37.954123,7210.552711200001,-92.348,10.423,167.919,1.0
5.3666,128.182468,37.954078,7211.259847200001,-92.482,10.393,167.853,1.0
5.3833,128.182477,37.954033,7211.9648496,-92.615,10.363,167.788,1.0
5.4,128.182487,37.953988,7212.6677184,-92.747,10.332,167.722,1.0
5.4166,128.182496,37.953943,7213.3684536,-92.878,10.302,167.657,1.0
5.4333,128.182506,37.953898,7214.0670552,-93.009,10.271,167.592,1.0
5.45,128.182515,37.953853,7214.7635232,-93.138,10.241,167.526,1.0
5.4666,128.182525,37.953808,7215.4575528,-93.266,10.21,167.46,1.0
5.4833,128.182535,37.953762,7216.1497536,-93.394,10.179,167.394,1.0
5.5,128.182545,37.953717,7216.839516,-93.52,10.148,167.328,1.0
5.5166,128.182554,37.953672,7217.5271448,-93.646,10.117,167.263,1.0
5.5333,128.182564,37.953627,7218.21264,-93.771,10.086,167.197,1.0
5.55,128.182574,37.953582,7218.896001600001,-93.895,10.055,167.131,1.0
5.5666,128.182584,37.953537,7219.576924800001,-94.018,10.023,167.064,1.0
5.5833,128.182594,37.953492,7220.2557144,-94.14,9.992,166.998,1.0
5.6,128.182605,37.953447,7220.932065600001,-94.261,9.96,166.932,1.0
5.6166,128.182615,37.953402,7221.606283200001,-94.381,9.928,166.866,1.0
5.6333,128.182625,37.953357,7222.2780624,-94.501,9.896,166.8,1.0
5.65,128.182635,37.953312,7222.947708,-94.62,9.864,166.734,1.0
5.6666,128.182646,37.953267,7223.614915200001,-94.738,9.832,166.667,1.0
5.6833,128.182656,37.953222,7224.2799888,-94.856,9.8,166.601,1.0
5.7,128.182667,37.953177,7224.942624,-94.973,9.767,166.534,1.0
5.7166,128.182677,37.953132,7225.6028208,-95.09,9.735,166.468,1.0
5.7333,128.182688,37.953087,7226.2605792,-95.206,9.702,166.401,1.0
5.75,128.182699,37.953042,7226.916204,-95.321,9.669,166.334,1.0
5.7666,128.182709,37.952997,7227.5693904,-95.436,9.636,166.267,1.0
5.7833,128.18272,37.952952,7228.220138400001,-95.55,9.603,166.2,1.0
5.8,128.182731,37.952907,7228.868448,-95.664,9.57,166.134,1.0
5.8166,128.182742,37.952862,7229.5143192000005,-95.778,9.537,166.067,1.0
5.8333,128.182753,37.952817,7230.157752000001,-95.89,9.503,166.0,1.0
5.85,128.182764,37.952772,7230.799051200001,-96.003,9.469,165.933,1.0
5.8666,128.182775,37.952726,7231.4376072,-96.115,9.436,165.865,1.0
5.8833,128.182787,37.952681,7232.0737248000005,-96.226,9.402,165.798,1.0
5.9,128.182798,37.952636,7232.707404000001,-96.337,9.368,165.731,1.0
5.9166,128.182809,37.952591,7233.3386448,-96.447,9.334,165.664,1.0
5.9333,128.18282,37.952546,7233.967447200001,-96.557,9.3,165.597,1.0
5.95,128.182832,37.952501,7234.5935064000005,-96.666,9.266,165.53,1.0
5.9666,128.182843,37.952456,7235.2171272000005,-96.775,9.231,165.462,1.0
5.9833,128.182855,37.952411,7235.838309600001,-96.884,9.197,165.394,1.0
6.0,128.182867,37.952366,7236.4570536,-96.992,9.162,165.327,1.0
6.0166,128.182878,37.952321,7237.073054400001,-97.1,9.127,165.26,1.0
6.0333,128.18289,37.952276,7237.6866168,-97.208,9.092,165.192,1.0
6.05,128.182902,37.952231,7238.297436,-97.315,9.057,165.124,1.0
6.0666,128.182914,37.952186,7238.9058168,-97.423,9.022,165.056,1.0
6.0833,128.182926,37.952141,7239.511759200001,-97.53,8.986,164.988,1.0
6.1,128.182938,37.952096,7240.114653600001,-97.636,8.951,164.92,1.0
6.1166,128.18295,37.952051,7240.715414400001,-97.743,8.915,164.853,1.0
6.1333,128.182962,37.952005,7241.3131272,-97.849,8.879,164.785,1.0
6.15,128.182974,37.95196,7241.908401600001,-97.955,8.843,164.716,1.0
6.1666,128.182986,37.951915,7242.500932800001,-98.061,8.807,164.648,1.0
6.1833,128.182999,37.95187,7243.0910256,-98.167,8.771,164.579,1.0
6.2,128.183011,37.951825,7243.6783752,-98.272,8.735,164.511,1.0
6.2166,128.183024,37.95178,7244.2626768,-98.377,8.699,164.443,1.0
6.2333,128.183036,37.951735,7244.84454,-98.482,8.662,164.374,1.0
6.25,128.183049,37.95169,7245.4239648,-98.587,8.625,164.306,1.0
6.2666,128.183061,37.951645,7246.000341600001,-98.691,8.589,164.237,1.0
6.2833,128.183074,37.9516,7246.5739752,-98.795,8.552,164.168,1.0
6.3,128.183087,37.951555,7247.144865600001,-98.899,8.514,164.099,1.0
6.3166,128.1831,37.95151,7247.713317600001,-99.003,8.477,164.031,1.0
6.3333,128.183113,37.951465,7248.2787216,-99.107,8.44,163.962,1.0
6.35,128.183126,37.95142,7248.841382400001,-99.21,8.402,163.893,1.0
6.3666,128.183139,37.951375,7249.4013,-99.314,8.364,163.824,1.0
6.3833,128.183152,37.951329,7249.9581696000005,-99.417,8.326,163.755,1.0
6.4,128.183165,37.951284,7250.512600800001,-99.521,8.288,163.686,1.0
6.4166,128.183178,37.951239,7251.063984000001,-99.624,8.25,163.617,1.0
6.4333,128.183191,37.951194,7251.612624,-99.727,8.212,163.548,1.0
6.45,128.183205,37.951149,7252.158216,-99.829,8.173,163.478,1.0
6.4666,128.183218,37.951104,7252.7010648000005,-99.932,8.135,163.409,1.0
6.4833,128.183232,37.951059,7253.241170400001,-100.034,8.096,163.339,1.0
6.5,128.183245,37.951014,7253.778228,-100.136,8.057,163.27,1.0
6.5166,128.183259,37.950969,7254.312542400001,-100.237,8.018,163.201,1.0
6.5333,128.183273,37.950924,7254.8438088,-100.339,7.978,163.131,1.0
6.55,128.183286,37.950879,7255.372332000001,-100.44,7.939,163.062,1.0
6.5666,128.1833,37.950834,7255.8978072,-100.541,7.899,162.992,1.0
6.5833,128.183314,37.950789,7256.4202344,-100.641,7.859,162.922,1.0
6.6,128.183328,37.950744,7256.9399184,-100.742,7.82,162.852,1.0
6.6166,128.183342,37.950699,7257.456554400001,-100.842,7.78,162.783,1.0
6.6333,128.183356,37.950654,7257.9701424,-100.942,7.739,162.713,1.0
6.65,128.18337,37.950609,7258.480682400001,-101.042,7.699,162.643,1.0
6.6666,128.183384,37.950564,7258.988479200001,-101.141,7.658,162.573,1.0
6.6833,128.183399,37.950519,7259.4929232,-101.24,7.618,162.503,1.0
6.7,128.183413,37.950474,7259.994624000001,-101.338,7.577,162.432,1.0
6.7166,128.183427,37.950429,7260.4932768,-101.436,7.536,162.362,1.0
6.7333,128.183442,37.950384,7260.9885768,-101.534,7.495,162.291,1.0
6.75,128.183456,37.950339,7261.481133600001,-101.631,7.453,162.22,1.0
6.7666,128.183471,37.950294,7261.9706424000005,-101.728,7.412,162.149,1.0
6.7833,128.183486,37.950249,7262.4567984,-101.825,7.37,162.078,1.0
6.8,128.1835,37.950204,7262.940211200001,-101.921,7.328,162.006,1.0
6.8166,128.183515,37.950159,7263.4202712,-102.017,7.286,161.935,1.0
6.8333,128.18353,37.950114,7263.897283200001,-102.112,7.244,161.864,1.0
6.85,128.183545,37.950069,7264.370942400001,-102.207,7.202,161.792,1.0
6.8666,128.18356,37.950024,7264.8415536,-102.302,7.16,161.72,1.0
6.8833,128.183575,37.949979,7265.3091168,-102.396,7.117,161.648,1.0
6.9,128.18359,37.949934,7265.773632,-102.49,7.074,161.577,1.0
6.9166,128.183605,37.949889,7266.2347944,-102.583,7.032,161.505,1.0
6.9333,128.183621,37.949844,7266.692908800001,-102.676,6.989,161.433,1.0
6.95,128.183636,37.949799,7267.147670400001,-102.768,6.946,161.361,1.0
6.9666,128.183651,37.949754,7267.599079200001,-102.86,6.902,161.289,1.0
6.9833,128.183667,37.949709,7268.04744,-102.951,6.859,161.217,1.0
7.0,128.183683,37.949664,7268.4927528,-103.042,6.815,161.144,1.0
7.0166,128.183698,37.949619,7268.934408,-103.133,6.772,161.073,1.0
7.0333,128.183714,37.949574,7269.373015200001,-103.223,6.728,161.0,1.0
7.05,128.18373,37.949529,7269.808269600001,-103.313,6.684,160.928,1.0
7.0666,128.183745,37.949484,7270.240476,-103.403,6.64,160.855,1.0
7.0833,128.183761,37.949439,7270.6690248,-103.493,6.596,160.783,1.0
7.1,128.183777,37.949394,7271.0945255999995,-103.582,6.551,160.71,1.0
7.1166,128.183793,37.949349,7271.516673600001,-103.671,6.507,160.638,1.0
7.1333,128.183809,37.949304,7271.9354688,-103.76,6.462,160.566,1.0
7.15,128.183825,37.949259,7272.350911200001,-103.849,6.418,160.493,1.0
7.1666,128.183842,37.949214,7272.762696000001,-103.937,6.373,160.42,1.0
7.1833,128.183858,37.949169,7273.171432800001,-104.026,6.328,160.347,1.0
7.2,128.183874,37.949124,7273.5768168,-104.114,6.282,160.274,1.0
7.2166,128.183891,37.94908,7273.9785432,-104.202,6.237,160.201,1.0
7.2333,128.183907,37.949035,7274.3772216,-104.29,6.192,160.128,1.0
7.25,128.183924,37.94899,7274.7722424,-104.378,6.146,160.055,1.0
7.2666,128.18394,37.948945,7275.163605600001,-104.467,6.1,159.981,1.0
7.2833,128.183957,37.9489,7275.5519208,-104.555,6.054,159.907,1.0
7.3,128.183974,37.948855,7275.936578400001,-104.643,6.008,159.834,1.0
7.3166,128.183991,37.94881,7276.3175784000005,-104.731,5.962,159.76,1.0
7.3333,128.184008,37.948765,7276.6955304,-104.819,5.915,159.687,1.0
7.35,128.184025,37.94872,7277.069520000001,-104.907,5.869,159.613,1.0
7.3666,128.184042,37.948676,7277.4404616,-104.996,5.822,159.539,1.0
7.3833,128.184059,37.948631,7277.8074408,-105.084,5.775,159.465,1.0
7.4,128.184076,37.948586,7278.1710672,-105.173,5.728,159.391,1.0
7.4166,128.184093,37.948541,7278.531036,-105.262,5.681,159.317,1.0
7.4333,128.184111,37.948496,7278.887652000001,-105.35,5.634,159.243,1.0
7.45,128.184128,37.948451,7279.240610400001,-105.439,5.586,159.169,1.0
7.4666,128.184145,37.948407,7279.589911200001,-105.529,5.538,159.094,1.0
7.4833,128.184163,37.948362,7279.9355544,-105.618,5.49,159.019,1.0
7.5,128.184181,37.948317,7280.2778448,-105.707,5.443,158.945,1.0
7.5166,128.184198,37.948272,7280.616172800001,-105.797,5.395,158.871,1.0
7.5333,128.184216,37.948227,7280.951148,-105.887,5.346,158.796,1.0
7.55,128.184234,37.948182,7281.2821608,-105.977,5.298,158.721,1.0
7.5666,128.184252,37.948138,7281.6098208,-106.067,5.249,158.646,1.0
7.5833,128.18427,37.948093,7281.9335184,-106.157,5.2,158.571,1.0
7.6,128.184288,37.948048,7282.2535584,-106.248,5.152,158.496,1.0
7.6166,128.184306,37.948003,7282.5699408,-106.339,5.103,158.421,1.0
7.6333,128.184324,37.947959,7282.882665600001,-106.429,5.053,158.346,1.0
7.65,128.184342,37.947914,7283.191732800001,-106.521,5.004,158.271,1.0
7.6666,128.184361,37.947869,7283.496837600001,-106.613,4.954,158.195,1.0
7.6833,128.184379,37.947824,7283.7982848,-106.705,4.905,158.12,1.0
7.7,128.184397,37.94778,7284.0957696000005,-106.797,4.855,158.044,1.0
7.7166,128.184416,37.947735,7284.389596800001,-106.889,4.805,157.969,1.0
7.7333,128.184435,37.94769,7284.6797664,-106.981,4.755,157.894,1.0
7.75,128.184453,37.947646,7284.9659736,-107.075,4.704,157.817,1.0
7.7666,128.184472,37.947601,7285.2482184,-107.168,4.653,157.741,1.0
7.7833,128.184491,37.947556,7285.5268056,-107.262,4.602,157.665,1.0
7.8,128.18451,37.947512,7285.8014304,-107.356,4.551,157.589,1.0
7.8166,128.184529,37.947467,7286.072092800001,-107.45,4.5,157.513,1.0
7.8333,128.184548,37.947422,7286.338792800001,-107.546,4.445,157.424,1.0
7.85,128.184567,37.947378,7286.6015304,-107.643,4.384,157.318,1.0
7.8666,128.184586,37.947333,7286.8603056,-107.741,4.32,157.201,1.0
7.8833,128.184605,37.947288,7287.1151184,-107.84,4.253,157.077,1.0
7.9,128.184625,37.947244,7287.365664000001,-107.939,4.185,156.95,1.0
7.9166,128.184644,37.947199,7287.612247200001,-108.038,4.116,156.821,1.0
7.9333,128.184664,37.947155,7287.8545632000005,-108.135,4.047,156.696,1.0
7.95,128.184683,37.94711,7288.0929168,-108.23,3.981,156.575,1.0
7.9666,128.184703,37.947065,7288.3270032,-108.323,3.915,156.457,1.0
7.9833,128.184722,37.947021,7288.557127200001,-108.415,3.85,156.344,1.0
8.0,128.184742,37.946976,7288.7826792000005,-108.505,3.785,156.233,1.0
8.0166,128.184762,37.946932,7289.0042688,-108.594,3.722,156.125,1.0
8.0333,128.184782,37.946887,7289.2215912,-108.678,3.661,156.026,1.0
8.05,128.184802,37.946843,7289.434646400001,-108.757,3.603,155.936,1.0
8.0666,128.184822,37.946798,7289.6434344,-108.832,3.547,155.851,1.0
8.0833,128.184842,37.946754,7289.8476504,-108.904,3.492,155.771,1.0
8.1,128.184863,37.946709,7290.047904,-108.972,3.439,155.694,1.0
8.1166,128.184883,37.946665,7290.2438904,-109.038,3.385,155.619,1.0
8.1333,128.184903,37.94662,7290.4356096,-109.102,3.333,155.546,1.0
8.15,128.184924,37.946576,7290.622756800001,-109.163,3.281,155.477,1.0
8.1666,128.184944,37.946531,7290.805636800001,-109.223,3.23,155.409,1.0
8.1833,128.184965,37.946487,7290.9842496,-109.281,3.179,155.342,1.0
8.2,128.184986,37.946443,7291.1585952000005,-109.338,3.128,155.276,1.0
8.2166,128.185007,37.946398,7291.3283688,-109.394,3.077,155.21,1.0
8.2333,128.185028,37.946354,7291.4938752,-109.452,3.025,155.142,1.0
8.25,128.185049,37.946309,7291.654809600001,-109.513,2.972,155.071,1.0
8.2666,128.18507,37.946265,7291.8114768000005,-109.576,2.918,154.999,1.0
8.2833,128.185091,37.946221,7291.963572000001,-109.642,2.863,154.925,1.0
8.3,128.185112,37.946177,7292.111400000001,-109.708,2.809,154.851,1.0
8.3166,128.185133,37.946132,7292.254656000001,-109.777,2.754,154.776,1.0
8.3333,128.185155,37.946088,7292.3933400000005,-109.849,2.698,154.699,1.0
8.35,128.185176,37.946044,7292.527756800001,-109.924,2.64,154.619,1.0
8.3666,128.185198,37.945999,7292.657601600001,-110.003,2.582,154.537,1.0
8.3833,128.185219,37.945955,7292.782874400001,-110.084,2.523,154.454,1.0
8.4,128.185241,37.945911,7292.90388,-110.168,2.464,154.371,1.0
8.4166,128.185263,37.945867,7293.0200088,-110.253,2.405,154.288,1.0
8.4333,128.185284,37.945822,7293.1318704000005,-110.342,2.345,154.203,1.0
8.45,128.185306,37.945778,7293.2388552,-110.432,2.285,154.118,1.0
8.4666,128.185328,37.945734,7293.3415728,-110.525,2.224,154.033,1.0
8.4833,128.18535,37.94569,7293.4394136,-110.62,2.163,153.947,1.0
8.5,128.185373,37.945646,7293.5326824,-110.716,2.102,153.862,1.0
8.5166,128.185395,37.945602,7293.621379200001,-110.814,2.041,153.776,1.0
8.5333,128.185417,37.945558,7293.7055040000005,-110.913,1.979,153.692,1.0
8.55,128.185439,37.945514,7293.7847520000005,-111.013,1.918,153.607,1.0
8.5666,128.185462,37.945469,7293.859428000001,-111.115,1.856,153.523,1.0
8.5833,128.185484,37.945425,7293.9292272,-111.218,1.795,153.44,1.0
8.6,128.185507,37.945381,7293.9944544,-111.322,1.733,153.357,1.0
8.6166,128.18553,37.945337,7294.055109600001,-111.426,1.671,153.274,1.0
8.6333,128.185553,37.945293,7294.110888000001,-111.532,1.61,153.191,1.0
8.65,128.185575,37.945249,7294.1617896,-111.638,1.548,153.109,1.0
8.6666,128.185598,37.945205,7294.2081192000005,-111.745,1.486,153.028,1.0
8.6833,128.185621,37.945161,7294.2492672,-111.852,1.424,152.946,1.0
8.7,128.185644,37.945117,7294.2858432,-111.96,1.361,152.865,1.0
8.7166,128.185668,37.945073,7294.317542400001,-112.069,1.299,152.784,1.0
8.7333,128.185691,37.94503,7294.3443648,-112.178,1.237,152.703,1.0
8.75,128.185714,37.944986,7294.366310400001,-112.287,1.174,152.622,1.0
8.7666,128.185738,37.944942,7294.383684000001,-112.397,1.111,152.541,1.0
8.7833,128.185761,37.944898,7294.3958760000005,-112.507,1.048,152.46,1.0
8.8,128.185785,37.944854,7294.4028864,-112.618,0.984,152.379,1.0
8.8166,128.185808,37.94481,7294.405324800001,-112.728,0.921,152.299,1.0
8.8333,128.185832,37.944767,7294.4025816,-112.839,0.857,152.218,1.0
8.85,128.185856,37.944723,7294.3949616,-112.951,0.793,152.136,1.0
8.8666,128.18588,37.944679,7294.382464800001,-113.062,0.728,152.055,1.0
8.8833,128.185904,37.944635,7294.3647864,-113.174,0.664,151.973,1.0
8.9,128.185928,37.944591,7294.3422312,-113.286,0.599,151.892,1.0
8.9166,128.185952,37.944548,7294.3144944000005,-113.398,0.534,151.81,1.0
8.9333,128.185976,37.944504,7294.281576,-113.51,0.469,151.729,1.0
8.95,128.186,37.94446,7294.2437808,-113.622,0.403,151.646,1.0
8.9666,128.186025,37.944417,7294.200804,-113.734,0.337,151.564,1.0
8.9833,128.186049,37.944373,7294.1526456,-113.846,0.271,151.482,1.0
9.0,128.186074,37.944329,7294.0996104000005,-113.958,0.205,151.4,1.0
9.0166,128.186098,37.944286,7294.0410888,-114.069,0.138,151.318,1.0
9.0333,128.186123,37.944242,7293.9776904,-114.181,0.071,151.235,1.0
9.05,128.186148,37.944199,7293.908805600001,-114.292,0.004,151.153,1.0
9.0666,128.186173,37.944155,7293.8347392,-114.404,-0.062,151.07,1.0
9.0833,128.186198,37.944112,7293.7554912000005,-114.515,-0.129,150.988,1.0
9.1,128.186223,37.944068,7293.6710616,-114.626,-0.197,150.905,1.0
9.1166,128.186248,37.944025,7293.581450400001,-114.736,-0.264,150.823,1.0
9.1333,128.186273,37.943981,7293.4863528,-114.847,-0.332,150.74,1.0
9.15,128.186298,37.943938,7293.386073600001,-114.958,-0.401,150.658,1.0
9.1666,128.186323,37.943894,7293.280308,-115.068,-0.469,150.575,1.0
9.1833,128.186349,37.943851,7293.1693608000005,-115.178,-0.538,150.492,1.0
9.2,128.186374,37.943808,7293.0529272,-115.288,-0.607,150.409,1.0
9.2166,128.1864,37.943764,7292.931312,-115.398,-0.676,150.327,1.0
9.2333,128.186425,37.943721,7292.804210400001,-115.431,-0.732,150.255,1.0
9.25,128.186451,37.943678,7292.672232000001,-115.389,-0.768,150.207,1.0
9.2666,128.186477,37.943634,7292.5359864,-115.271,-0.781,150.196,1.0
9.2833,128.186503,37.943591,7292.3954736000005,-115.077,-0.767,150.238,1.0
9.3,128.186528,37.943548,7292.2509984,-114.808,-0.729,150.329,1.0
9.3166,128.186554,37.943504,7292.103170400001,-114.465,-0.674,150.455,1.0
9.3333,128.18658,37.943461,7291.9513799999995,-114.049,-0.612,150.6,1.0
9.35,128.186606,37.943418,7291.796541600001,-113.564,-0.546,150.754,1.0
9.3666,128.186632,37.943374,7291.638045600001,-113.011,-0.481,150.908,1.0
9.3833,128.186658,37.943331,7291.476501600001,-112.393,-0.418,151.061,1.0
9.4,128.186684,37.943288,7291.311909600001,-111.711,-0.358,151.209,1.0
9.4166,128.18671,37.943244,7291.1442696,-110.968,-0.302,151.351,1.0
9.4333,128.186737,37.943201,7290.9738864,-110.166,-0.25,151.488,1.0
9.45,128.186763,37.943158,7290.8004552,-109.307,-0.202,151.618,1.0
9.4666,128.186789,37.943114,7290.6242808,-108.393,-0.158,151.743,1.0
9.4833,128.186815,37.943071,7290.445668,-107.426,-0.117,151.862,1.0
9.5,128.186841,37.943028,7290.264312,-106.407,-0.081,151.977,1.0
9.5166,128.186868,37.942984,7290.0805176,-105.338,-0.047,152.086,1.0
9.5333,128.186894,37.942941,7289.8942848,-104.222,-0.018,152.192,1.0
9.55,128.18692,37.942898,7289.7056136,-103.06,0.008,152.293,1.0
9.5666,128.186947,37.942854,7289.514504000001,-101.853,0.032,152.391,1.0
9.5833,128.186973,37.942811,7289.3209560000005,-100.603,0.053,152.486,1.0
9.6,128.186999,37.942767,7289.1249696,-99.311,0.072,152.577,1.0
9.6166,128.187026,37.942724,7288.9271544,-97.98,0.088,152.666,1.0
9.6333,128.187052,37.94268,7288.726596,-96.61,0.101,152.753,1.0
9.65,128.187079,37.942637,7288.5242088,-95.203,0.112,152.837,1.0
9.6666,128.187105,37.942594,7288.319383200001,-93.76,0.121,152.919,1.0
9.6833,128.187131,37.94255,7288.112119200001,-92.282,0.128,153.0,1.0
9.7,128.187158,37.942507,7287.9030264,-90.772,0.132,153.079,1.0
9.7166,128.187184,37.942463,7287.691495200001,-89.229,0.135,153.156,1.0
9.7333,128.187211,37.94242,7287.4778304,-87.654,0.136,153.228,1.0
9.75,128.187237,37.942376,7287.2620320000005,-86.05,0.135,153.293,1.0
9.7666,128.187264,37.942333,7287.0441,-84.417,0.132,153.354,1.0
9.7833,128.187291,37.942289,7286.8240344,-82.756,0.128,153.413,1.0
9.8,128.187317,37.942245,7286.6018352,-81.068,0.122,153.47,1.0
9.8166,128.187344,37.942202,7286.3775024,-79.354,0.114,153.526,1.0
9.8333,128.18737,37.942158,7286.151036,-77.614,0.108,153.566,1.0
9.85,128.187397,37.942115,7285.922436,-75.851,0.108,153.575,1.0
9.8666,128.187424,37.942071,7285.692312,-74.063,0.117,153.548,1.0
9.8833,128.18745,37.942027,7285.4600544,-72.253,0.134,153.492,1.0
9.9,128.187477,37.941984,7285.225968000001,-70.421,0.156,153.42,1.0
9.9166,128.187504,37.94194,7284.9903576,-68.568,0.183,153.342,1.0
9.9333,128.18753,37.941897,7284.7532232,-66.695,0.219,153.244,1.0
9.95,128.187557,37.941853,7284.514564800001,-64.803,0.272,153.116,1.0
9.9666,128.187584,37.941809,7284.274992000001,-62.894,0.342,152.961,1.0
9.9833,128.187611,37.941766,7284.034504800001,-60.97,0.424,152.792,1.0
10.0,128.187638,37.941722,7283.793408,-59.033,0.515,152.621,1.0
10.0166,128.187665,37.941678,7283.5517016,-57.086,0.609,152.453,1.0
10.0333,128.187692,37.941635,7283.310909600001,-55.211,0.712,152.276,1.0
10.05,128.187719,37.941591,7283.071032000001,-53.409,0.83,152.081,1.0
10.0666,128.187746,37.941548,7282.8323736,-51.671,0.962,151.876,1.0
10.0833,128.187773,37.941504,7282.595544,-49.99,1.105,151.671,1.0
10.1,128.1878,37.94146,7282.3611528,-48.356,1.253,151.474,1.0
10.1166,128.187827,37.941417,7282.1288952,-46.761,1.404,151.287,1.0
10.1333,128.187855,37.941373,7281.900904800001,-45.265,1.564,151.1,1.0
10.15,128.187882,37.94133,7281.6768768,-43.859,1.738,150.906,1.0
10.1666,128.18791,37.941286,7281.4577256,-42.531,1.923,150.711,1.0
10.1833,128.187937,37.941243,7281.243451200001,-41.267,2.116,150.521,1.0
10.2,128.187965,37.941199,7281.033444,-40.058,2.311,150.341,1.0
10.2166,128.187992,37.941156,7280.828923200001,-38.893,2.506,150.172,1.0
10.2333,128.18802,37.941112,7280.6308032,-37.81,2.694,150.016,1.0
10.25,128.188048,37.941069,7280.439084000001,-36.8,2.875,149.872,1.0
10.2666,128.188076,37.941026,7280.254070400001,-35.853,3.05,149.739,1.0
10.2833,128.188104,37.940982,7280.0754576,-34.958,3.219,149.618,1.0
10.3,128.188132,37.940939,7279.9035504,-34.106,3.384,149.508,1.0
10.3166,128.18816,37.940896,7279.7383488000005,-33.29,3.545,149.408,1.0
10.3333,128.188189,37.940852,7279.5807672,-32.54,3.69,149.322,1.0
10.35,128.188217,37.940809,7279.431415200001,-31.851,3.819,149.248,1.0
10.3666,128.188245,37.940766,7279.289683200001,-31.213,3.937,149.184,1.0
10.3833,128.188274,37.940723,7279.1552664,-30.62,4.048,149.128,1.0
10.4,128.188302,37.940679,7279.028469600001,-30.063,4.155,149.079,1.0
10.4166,128.188331,37.940636,7278.909292800001,-29.536,4.26,149.035,1.0
10.4333,128.188359,37.940593,7278.7986504,-29.055,4.358,148.996,1.0
10.45,128.188388,37.94055,7278.696237600001,-28.616,4.448,148.963,1.0
10.4666,128.188417,37.940507,7278.6014448000005,-28.211,4.535,148.933,1.0
10.4833,128.188445,37.940464,7278.5148816,-27.835,4.62,148.906,1.0
10.5,128.188474,37.940421,7278.435633600001,-27.485,4.704,148.882,1.0
10.5166,128.188503,37.940378,7278.3643104,-27.155,4.788,148.859,1.0
10.5333,128.188532,37.940335,7278.3018264,-26.908,4.857,148.839,1.0
10.55,128.188561,37.940292,7278.2472672,-26.739,4.908,148.824,1.0
10.5666,128.18859,37.940249,7278.201852000001,-26.64,4.948,148.813,1.0
10.5833,128.18862,37.940206,7278.1655808000005,-26.603,4.982,148.805,1.0
10.6,128.188649,37.940163,7278.1372344,-26.621,5.015,148.798,1.0
10.6166,128.188678,37.94012,7278.1171176,-26.685,5.048,148.792,1.0
10.6333,128.188707,37.940077,7278.10584,-26.846,5.067,148.788,1.0
10.65,128.188737,37.940034,7278.1030968000005,-27.101,5.059,148.793,1.0
10.6666,128.188766,37.939992,7278.109497600001,-27.448,5.032,148.805,1.0
10.6833,128.188796,37.939949,7278.124737600001,-27.888,4.993,148.82,1.0
10.7,128.188825,37.939906,7278.1488168,-28.418,4.951,148.836,1.0
10.7166,128.188855,37.939863,7278.1814304,-29.039,4.909,148.852,1.0
10.7333,128.188884,37.939821,7278.2222736,-29.74,4.858,148.867,1.0
10.75,128.188914,37.939778,7278.271041600001,-30.52,4.798,148.881,1.0
10.7666,128.188944,37.939735,7278.3274296,-31.378,4.735,148.893,1.0
10.7833,128.188974,37.939693,7278.3911328,-32.316,4.673,148.902,1.0
10.8,128.189004,37.93965,7278.4621512,-33.333,4.615,148.909,1.0
10.8166,128.189034,37.939608,7278.5398752,-34.427,4.561,148.912,1.0
10.8333,128.189064,37.939565,7278.6246096,-35.593,4.514,148.906,1.0
10.85,128.189094,37.939523,7278.7157448,-36.828,4.474,148.892,1.0
10.8666,128.189124,37.93948,7278.812976,-38.132,4.44,148.87,1.0
10.8833,128.189154,37.939438,7278.9159984,-39.505,4.412,148.843,1.0
10.9,128.189184,37.939395,7279.0245072,-40.945,4.388,148.811,1.0
10.9166,128.189215,37.939353,7279.1388072,-42.452,4.369,148.774,1.0
10.9333,128.189245,37.939311,7279.256155200001,-43.956,4.351,148.752,1.0
10.95,128.189276,37.939268,7279.377160800001,-45.446,4.325,148.756,1.0
10.9666,128.189306,37.939226,7279.5012144,-46.915,4.278,148.792,1.0
10.9833,128.189337,37.939184,7279.6277064000005,-48.36,4.209,148.859,1.0
11.0,128.189367,37.939141,7279.756636800001,-49.78,4.124,148.946,1.0
11.0166,128.189398,37.939099,7279.8867864,-51.18,4.032,149.044,1.0
11.0333,128.189429,37.939057,7280.0205936,-52.636,3.929,149.137,1.0
11.05,128.18946,37.939015,7280.1562296,-54.146,3.819,149.222,1.0
11.0666,128.18949,37.938972,7280.2933896,-55.719,3.708,149.299,1.0
11.0833,128.189521,37.93893,7280.432683200001,-57.359,3.6,149.369,1.0
11.1,128.189552,37.938888,7280.5735008,-59.068,3.498,149.434,1.0
11.1166,128.189583,37.938846,7280.715537600001,-60.846,3.402,149.493,1.0
11.1333,128.189614,37.938804,7280.8587936,-62.691,3.313,149.547,1.0
11.15,128.189645,37.938762,7281.0023544000005,-64.6,3.228,149.596,1.0
11.1666,128.189677,37.93872,7281.146524800001,-66.571,3.15,149.64,1.0
11.1833,128.189708,37.938678,7281.291,-68.603,3.076,149.679,1.0
11.2,128.189739,37.938636,7281.435170400001,-70.693,3.007,149.714,1.0
11.2166,128.189771,37.938594,7281.579036,-72.84,2.943,149.745,1.0
11.2333,128.189802,37.938552,7281.722292,-75.04,2.883,149.771,1.0
11.25,128.189833,37.93851,7281.864633600001,-77.292,2.827,149.794,1.0
11.2666,128.189865,37.938468,7282.0060608,-79.594,2.775,149.813,1.0
11.2833,128.189896,37.938426,7282.145964,-81.942,2.725,149.828,1.0
11.3,128.189928,37.938384,7282.284648,-84.337,2.678,149.841,1.0
11.3166,128.18996,37.938342,7282.4211984,-86.776,2.632,149.85,1.0
11.3333,128.189991,37.938301,7282.555920000001,-89.256,2.588,149.857,1.0
11.35,128.190023,37.938259,7282.6888128,-91.778,2.546,149.861,1.0
11.3666,128.190055,37.938217,7282.8189624,-94.339,2.504,149.863,1.0
11.3833,128.190087,37.938175,7282.9466736,-96.937,2.464,149.863,1.0
11.4,128.190119,37.938133,7283.0716416000005,-99.571,2.424,149.86,1.0
11.4166,128.19015,37.938091,7283.1938664,-102.239,2.384,149.856,1.0
11.4333,128.190182,37.93805,7283.312738400001,-104.939,2.343,149.844,1.0
11.45,128.190214,37.938008,7283.4285624,-107.67,2.301,149.825,1.0
11.4666,128.190246,37.937966,7283.540728800001,-110.431,2.257,149.801,1.0
11.4833,128.190278,37.937924,7283.6495424,-113.218,2.211,149.774,1.0
11.5,128.19031,37.937883,7283.7543936,-116.03,2.164,149.745,1.0
11.5166,128.190343,37.937841,7283.855587200001,-118.865,2.116,149.716,1.0
11.5333,128.190375,37.937799,7283.9522088,-121.721,2.059,149.673,1.0
11.55,128.190407,37.937758,7284.0442584,-124.596,1.984,149.606,1.0
11.5666,128.190439,37.937716,7284.1314312,-127.49,1.881,149.504,1.0
11.5833,128.190471,37.937674,7284.2134224,-130.399,1.75,149.373,1.0
11.6,128.190504,37.937633,7284.2899272,-133.321,1.599,149.228,1.0
11.6166,128.190536,37.937591,7284.3609456,-136.251,1.434,149.077,1.0
11.6333,128.190568,37.93755,7284.4252584000005,-139.186,1.243,148.913,1.0
11.65,128.190601,37.937508,7284.482865600001,-142.121,1.014,148.732,1.0
11.6666,128.190633,37.937466,7284.5328528,-145.054,0.744,148.533,1.0
11.6833,128.190666,37.937425,7284.575220000001,-147.981,0.441,148.33,1.0
11.7,128.190698,37.937383,7284.6090527999995,-150.9,0.116,148.131,1.0
11.7166,128.190731,37.937342,7284.6343512,-153.806,-0.22,147.945,1.0
11.7333,128.190764,37.9373,7284.649896000001,-156.5,-0.554,147.75,1.0
11.75,128.190796,37.937259,7284.6569064000005,-158.989,-0.88,147.552,1.0
11.7666,128.190829,37.937217,7284.6550776,-161.266,-1.197,147.36,1.0
11.7833,128.190862,37.937176,7284.643800000001,-163.328,-1.508,147.182,1.0
11.8,128.190895,37.937134,7284.6236832,-165.178,-1.812,147.022,1.0
11.8166,128.190927,37.937093,7284.5944224,-166.824,-2.109,146.881,1.0
11.8333,128.19096,37.937051,7284.556627200001,-168.278,-2.382,146.76,1.0
11.85,128.190993,37.93701,7284.510297600001,-169.55,-2.614,146.661,1.0
11.8666,128.191026,37.936968,7284.4566528,-170.652,-2.787,146.584,1.0
11.8833,128.191059,37.936927,7284.394778400001,-171.594,-2.904,146.525,1.0
11.9,128.191092,37.936886,7284.325588799999,-172.384,-2.98,146.479,1.0
11.9166,128.191124,37.936844,7284.2493888,-173.031,-3.03,146.442,1.0
11.9333,128.191157,37.936803,7284.167092800001,-173.543,-3.038,146.415,1.0
11.95,128.19119,37.936761,7284.078700800001,-173.927,-3.006,146.394,1.0
11.9666,128.191223,37.93672,7283.9851272000005,-174.191,-2.945,146.379,1.0
11.9833,128.191256,37.936678,7283.886372,-174.339,-2.869,146.366,1.0
12.0,128.191289,37.936637,7283.7830448,-174.376,-2.786,146.355,1.0
12.0166,128.191322,37.936595,7283.675755200001,-174.308,-2.703,146.344,1.0
12.0333,128.191355,37.936553,7283.5635888,-174.139,-2.63,146.334,1.0
12.05,128.191388,37.936512,7283.44746,-173.872,-2.569,146.322,1.0
12.0666,128.191421,37.93647,7283.327368800001,-173.513,-2.518,146.31,1.0
12.0833,128.191454,37.936429,7283.2033152,-173.063,-2.475,146.297,1.0
12.1,128.191488,37.936387,7283.0752992,-172.527,-2.438,146.285,1.0
12.1166,128.191521,37.936346,7282.9436256,-171.908,-2.406,146.272,1.0
12.1333,128.191554,37.936304,7282.8079896,-171.209,-2.394,146.257,1.0
12.15,128.191587,37.936262,7282.6677816,-170.433,-2.409,146.238,1.0
12.1666,128.19162,37.936221,7282.5242208,-169.583,-2.445,146.216,1.0
12.1833,128.191653,37.936179,7282.376392800001,-168.661,-2.494,146.191,1.0
12.2,128.191686,37.936138,7282.2246024,-167.672,-2.55,146.165,1.0
12.2166,128.19172,37.936096,7282.0688496,-166.617,-2.609,146.138,1.0
12.2333,128.191753,37.936054,7281.908220000001,-165.499,-2.685,146.105,1.0
12.25,128.191786,37.936013,7281.7433232,-164.32,-2.783,146.066,1.0
12.2666,128.191819,37.935971,7281.5738544000005,-163.084,-2.896,146.02,1.0
12.2833,128.191853,37.935929,7281.3998136,-161.791,-3.016,145.971,1.0
12.3,128.191886,37.935888,7281.220896000001,-160.445,-3.137,145.918,1.0
12.3166,128.191919,37.935846,7281.037101600001,-159.048,-3.256,145.863,1.0
12.3333,128.191953,37.935804,7280.8478208,-157.601,-3.386,145.801,1.0
12.35,128.191986,37.935763,7280.6530536,-156.106,-3.531,145.728,1.0
12.3666,128.192019,37.935721,7280.4528,-154.564,-3.684,145.647,1.0
12.3833,128.192053,37.935679,7280.247060000001,-152.977,-3.838,145.561,1.0
12.4,128.192086,37.935637,7280.035224000001,-151.348,-3.99,145.471,1.0
12.4166,128.19212,37.935596,7279.8175968000005,-149.676,-4.135,145.378,1.0
12.4333,128.192153,37.935554,7279.5923496000005,-147.977,-4.286,145.276,1.0
12.45,128.192187,37.935512,7279.3607016000005,-146.255,-4.448,145.161,1.0
12.4666,128.19222,37.935471,7279.121738400001,-144.515,-4.616,145.036,1.0
12.4833,128.192254,37.935429,7278.87546,-142.759,-4.784,144.904,1.0
12.5,128.192287,37.935387,7278.6218664,-140.992,-4.945,144.768,1.0
12.5166,128.192321,37.935346,7278.3609576,-139.213,-5.099,144.631,1.0
12.5333,128.192355,37.935304,7278.091819200001,-137.493,-5.258,144.484,1.0
12.55,128.192389,37.935262,7277.8138416,-135.83,-5.428,144.324,1.0
12.5666,128.192422,37.935221,7277.5273296,-134.217,-5.603,144.15,1.0
12.5833,128.192456,37.935179,7277.2316736,-132.649,-5.776,143.967,1.0
12.6,128.19249,37.935138,7276.9271784,-131.118,-5.942,143.78,1.0
12.6166,128.192524,37.935096,7276.6141488,-129.618,-6.098,143.59,1.0
12.6333,128.192559,37.935055,7276.291670400001,-128.207,-6.256,143.389,1.0
12.65,128.192593,37.935013,7275.9597432,-126.876,-6.422,143.171,1.0
12.6666,128.192627,37.934972,7275.6180624,-125.615,-6.589,142.94,1.0
12.6833,128.192661,37.93493,7275.2669328,-124.413,-6.752,142.702,1.0
12.7,128.192696,37.934889,7274.906659200001,-123.261,-6.907,142.459,1.0
12.7166,128.19273,37.934848,7274.537546400001,-122.15,-7.052,142.217,1.0
12.7333,128.192765,37.934807,7274.15868,-121.118,-7.193,141.97,1.0
12.75,128.1928,37.934765,7273.770060000001,-120.157,-7.332,141.72,1.0
12.7666,128.192835,37.934724,7273.3722960000005,-119.257,-7.464,141.469,1.0
12.7833,128.192869,37.934683,7272.9653880000005,-118.409,-7.589,141.219,1.0
12.8,128.192904,37.934642,7272.549336,-117.605,-7.705,140.972,1.0
12.8166,128.19294,37.934601,7272.1247496000005,-116.836,-7.811,140.728,1.0
12.8333,128.192975,37.934561,7271.690714400001,-116.126,-7.911,140.49,1.0
12.85,128.19301,37.93452,7271.2475352,-115.469,-8.005,140.257,1.0
12.8666,128.193046,37.934479,7270.7958216,-114.856,-8.093,140.029,1.0
12.8833,128.193081,37.934438,7270.3352688,-114.282,-8.174,139.805,1.0
12.9,128.193117,37.934398,7269.8661816,-113.74,-8.249,139.586,1.0
12.9166,128.193153,37.934357,7269.388864800001,-113.224,-8.318,139.37,1.0
12.9333,128.193188,37.934317,7268.9033184,-112.701,-8.381,139.157,1.0
12.95,128.193224,37.934276,7268.4098472000005,-112.168,-8.438,138.948,1.0
12.9666,128.19326,37.934236,7267.909060800001,-111.624,-8.489,138.742,1.0
12.9833,128.193297,37.934196,7267.400044800001,-111.069,-8.537,138.539,1.0
13.0,128.193333,37.934155,7266.8834088,-110.506,-8.581,138.34,1.0
13.0166,128.193369,37.934115,7266.3591528,-109.934,-8.622,138.143,1.0
13.0333,128.193406,37.934075,7265.8275816000005,-109.399,-8.664,137.951,1.0
13.0499,128.193442,37.934035,7265.2883904,-108.902,-8.707,137.763,1.0
13.0666,128.193479,37.933995,7264.741274400001,-108.44,-8.75,137.578,1.0
13.0833,128.193516,37.933955,7264.1862336,-108.009,-8.792,137.395,1.0
13.1,128.193553,37.933916,7263.624182400001,-107.608,-8.83,137.214,1.0
13.1166,128.19359,37.933876,7263.054511200001,-107.231,-8.866,137.035,1.0
13.1333,128.193627,37.933836,7262.477220000001,-106.899,-8.901,136.857,1.0
13.15,128.193665,37.933797,7261.8926136,-106.608,-8.935,136.68,1.0
13.1666,128.193702,37.933757,7261.300692000001,-106.353,-8.967,136.505,1.0
13.1833,128.19374,37.933718,7260.701455200001,-106.129,-8.997,136.33,1.0
13.2,128.193777,37.933678,7260.095208,-105.93,-9.026,136.156,1.0
13.2166,128.193815,37.933639,7259.4822552000005,-105.754,-9.054,135.983,1.0
13.2333,128.193853,37.9336,7258.861987200001,-105.599,-9.081,135.811,1.0
13.25,128.193891,37.933561,7258.234708800001,-105.464,-9.108,135.64,1.0
13.2666,128.193929,37.933522,7257.6007248000005,-105.345,-9.135,135.47,1.0
13.2833,128.193968,37.933483,7256.9600352,-105.24,-9.162,135.301,1.0
13.3,128.194006,37.933444,7256.3123352,-105.149,-9.189,135.133,1.0
13.3166,128.194044,37.933406,7255.6582344,-105.067,-9.215,134.965,1.0
13.3333,128.194083,37.933367,7254.997123200001,-105.012,-9.243,134.799,1.0
13.35,128.194122,37.933328,7254.329001600001,-104.979,-9.273,134.634,1.0
13.3666,128.194161,37.93329,7253.6544792,-104.968,-9.303,134.47,1.0
13.3833,128.1942,37.933252,7252.9729464,-104.977,-9.334,134.306,1.0
13.4,128.194239,37.933213,7252.2850128,-105.003,-9.366,134.144,1.0
13.4166,128.194278,37.933175,7251.5900688,-105.043,-9.397,133.981,1.0
13.4333,128.194317,37.933137,7250.889028800001,-105.112,-9.435,133.821,1.0
13.45,128.194357,37.933099,7250.180978400001,-105.206,-9.48,133.663,1.0
13.4666,128.194396,37.933061,7249.4662224,-105.326,-9.529,133.506,1.0
13.4833,128.194436,37.933023,7248.744456,-105.471,-9.581,133.35,1.0
13.5,128.194476,37.932985,7248.015984000001,-105.641,-9.634,133.195,1.0
13.5166,128.194516,37.932948,7247.280806400001,-105.832,-9.688,133.04,1.0
13.5333,128.194556,37.93291,7246.5383136,-106.059,-9.744,132.886,1.0
13.55,128.194596,37.932873,7245.7888104,-106.317,-9.802,132.732,1.0
13.5666,128.194636,37.932835,7245.032296800001,-106.605,-9.861,132.578,1.0
13.5833,128.194677,37.932798,7244.2687728,-106.917,-9.922,132.425,1.0
13.6,128.194717,37.932761,7243.4982384,-107.251,-9.983,132.271,1.0
13.6166,128.194758,37.932723,7242.7203887999995,-107.603,-10.046,132.118,1.0
13.6333,128.194799,37.932686,7241.9346144,-107.983,-10.104,131.964,1.0
13.65,128.19484,37.932649,7241.1418296,-108.389,-10.158,131.808,1.0
13.6666,128.19488,37.932613,7240.341424800001,-108.813,-10.209,131.651,1.0
13.6833,128.194922,37.932576,7239.5337048,-109.249,-10.26,131.494,1.0
13.7,128.194963,37.932539,7238.718669600001,-109.695,-10.312,131.337,1.0
13.7166,128.195004,37.932503,7237.8960144,-110.148,-10.366,131.181,1.0
13.7333,128.195045,37.932466,7237.0663488,-110.591,-10.426,131.027,1.0
13.75,128.195087,37.93243,7236.2290632,-111.024,-10.494,130.876,1.0
13.7666,128.195129,37.932393,7235.3841576,-111.453,-10.568,130.727,1.0
13.7833,128.19517,37.932357,7234.531632,-111.88,-10.646,130.579,1.0
13.8,128.195212,37.932321,7233.671181600001,-112.309,-10.728,130.433,1.0
13.8166,128.195254,37.932285,7232.802806400001,-112.74,-10.811,130.287,1.0
13.8333,128.195296,37.932249,7231.926506400001,-113.165,-10.897,130.142,1.0
13.85,128.195338,37.932213,7231.0422816,-113.583,-10.983,129.997,1.0
13.8666,128.19538,37.932177,7230.149827200001,-113.995,-11.07,129.853,1.0
13.8833,128.195423,37.932141,7229.249448,-114.402,-11.159,129.709,1.0
13.9,128.195465,37.932106,7228.3405344,-114.805,-11.25,129.566,1.0
13.9166,128.195507,37.93207,7227.423391200001,-115.204,-11.343,129.423,1.0
13.9333,128.19555,37.932035,7226.4983232,-115.591,-11.435,129.281,1.0
13.95,128.195593,37.931999,7225.564416,-115.965,-11.526,129.138,1.0
13.9666,128.195635,37.931964,7224.622279200001,-116.327,-11.617,128.995,1.0
13.9833,128.195678,37.931929,7223.671608,-116.678,-11.708,128.852,1.0
14.0,128.195721,37.931894,7222.7127072,-117.019,-11.801,128.71,1.0
14.0166,128.195764,37.931859,7221.7446624,-117.351,-11.896,128.569,1.0
14.0333,128.195807,37.931824,7220.768997600001,-117.66,-11.994,128.43,1.0
14.05,128.195851,37.931789,7219.7844936,-117.948,-12.096,128.293,1.0
14.0666,128.195894,37.931754,7218.7911504,-118.219,-12.201,128.158,1.0
14.0833,128.195937,37.93172,7217.789272800001,-118.478,-12.308,128.024,1.0
14.1,128.195981,37.931685,7216.7782512,-118.728,-12.417,127.891,1.0
14.1166,128.196024,37.93165,7215.7583904,-118.971,-12.528,127.759,1.0
14.1333,128.196068,37.931616,7214.7299952,-119.2,-12.638,127.628,1.0
14.15,128.196112,37.931582,7213.692151200001,-119.418,-12.749,127.497,1.0
14.1666,128.196156,37.931547,7212.6457728000005,-119.626,-12.861,127.367,1.0
14.1833,128.1962,37.931513,7211.589945600001,-119.826,-12.973,127.237,1.0
14.2,128.196244,37.931479,7210.525279200001,-120.018,-13.086,127.107,1.0
14.2166,128.196288,37.931445,7209.451468800001,-120.204,-13.2,126.979,1.0
14.2333,128.196332,37.931411,7208.368514400001,-120.379,-13.314,126.85,1.0
14.25,128.196376,37.931377,7207.276416,-120.545,-13.428,126.722,1.0
14.2666,128.19642,37.931343,7206.174868800001,-120.703,-13.542,126.595,1.0
14.2833,128.196465,37.93131,7205.0644824,-120.853,-13.656,126.468,1.0
14.3,128.196509,37.931276,7203.944342400001,-120.997,-13.772,126.341,1.0
14.3166,128.196554,37.931243,7202.8150584,-121.136,-13.887,126.215,1.0
14.3333,128.196598,37.931209,7201.6763256,-121.267,-14.003,126.089,1.0
14.35,128.196643,37.931176,7200.5284488,-121.391,-14.118,125.964,1.0
14.3666,128.196688,37.931143,7199.3711232000005,-121.509,-14.234,125.838,1.0
14.3833,128.196733,37.93111,7198.204044,-121.621,-14.35,125.713,1.0
14.4,128.196778,37.931077,7197.0278208,-121.729,-14.466,125.589,1.0
14.4166,128.196823,37.931044,7195.841844,-121.833,-14.583,125.464,1.0
14.4333,128.196868,37.931011,7194.6467232,-121.932,-14.699,125.34,1.0
