Time,Longitude,Latitude,Altitude,Roll (deg),Pitch (deg),Yaw (deg),Health
0.0,128.181881,37.968463,7002.830292000001,0.0,-0.003,179.999,1.0
0.0166,128.181881,37.968418,7002.8116992000005,0.0,-0.012,180.0,1.0
0.0333,128.181881,37.968374,7002.7912776,0.087,-0.026,180.011,1.0
0.05,128.181881,37.968329,7002.7690272,0.258,-0.043,180.034,1.0
0.0666,128.181881,37.968284,7002.744033600001,0.516,-0.062,180.064,1.0
0.0833,128.181881,37.968239,7002.716601600001,0.864,-0.083,180.097,1.0
0.1,128.181881,37.968194,7002.6861216,1.3,-0.105,180.132,1.0
0.1166,128.181881,37.968149,7002.6522888,1.824,-0.128,180.167,1.0
0.1333,128.181881,37.968104,7002.6144936,2.432,-0.153,180.201,1.0
0.15,128.181881,37.968059,7002.572736,3.122,-0.178,180.234,1.0
0.1666,128.181881,37.968014,7002.526406400001,3.89,-0.205,180.266,1.0
0.1833,128.181881,37.967968,7002.4761144,4.733,-0.232,180.296,1.0
0.2,128.181881,37.967923,7002.4221648,5.648,-0.261,180.326,1.0
0.2166,128.181881,37.967878,7002.363948,6.632,-0.291,180.354,1.0
0.2333,128.181881,37.967833,7002.302073600001,7.681,-0.321,180.38,1.0
0.25,128.181881,37.967788,7002.2359320000005,8.793,-0.353,180.406,1.0
0.2666,128.181881,37.967743,7002.166132800001,9.966,-0.387,180.43,1.0
0.2833,128.181881,37.967698,7002.0923712,11.196,-0.421,180.452,1.0
0.3,128.181881,37.967652,7002.014647200001,12.482,-0.457,180.473,1.0
0.3166,128.181881,37.967607,7001.933265600001,13.821,-0.494,180.493,1.0
0.3333,128.181881,37.967562,7001.8482264,15.21,-0.532,180.511,1.0
0.35,128.181881,37.967517,7001.7595296,16.649,-0.571,180.528,1.0
0.3666,128.181881,37.967472,7001.666870400001,18.135,-0.612,180.543,1.0
0.3833,128.181881,37.967426,7001.5705536000005,19.666,-0.653,180.556,1.0
0.4,128.181881,37.967381,7001.470884000001,21.24,-0.696,180.568,1.0
0.4166,128.181881,37.967336,7001.367252000001,22.856,-0.739,180.578,1.0
0.4333,128.181881,37.96729,7001.2602672,24.512,-0.784,180.587,1.0
0.45,128.181881,37.967245,7001.149624800001,26.206,-0.829,180.593,1.0
0.4666,128.181881,37.9672,7001.0356296,27.938,-0.875,180.598,1.0
0.4833,128.181881,37.967154,7000.9179768,29.706,-0.921,180.601,1.0
0.5,128.181881,37.967109,7000.7969712,31.509,-0.968,180.603,1.0
0.5166,128.181881,37.967064,7000.672308,33.344,-1.016,180.602,1.0
0.5333,128.181881,37.967018,7000.5442920000005,35.213,-1.064,180.6,1.0
0.55,128.181882,37.966973,7000.413228,37.112,-1.112,180.595,1.0
0.5666,128.181882,37.966928,7000.278506400001,39.042,-1.161,180.589,1.0
0.5833,128.181882,37.966882,7000.140432,41.001,-1.209,180.581,1.0
0.6,128.181882,37.966837,6999.9990048,42.988,-1.258,180.572,1.0
0.6166,128.181882,37.966791,6999.8545296,45.003,-1.306,180.56,1.0
0.6333,128.181882,37.966746,6999.706701600001,47.045,-1.354,180.547,1.0
0.65,128.181882,37.9667,6999.5558256,49.112,-1.402,180.532,1.0
0.6666,128.181882,37.966655,6999.4015968,51.205,-1.45,180.515,1.0
0.6833,128.181882,37.966609,6999.244015200001,53.322,-1.497,180.497,1.0
0.7,128.181882,37.966564,6999.0833856,55.463,-1.543,180.477,1.0
0.7166,128.181883,37.966518,6998.919708,57.628,-1.589,180.455,1.0
0.7333,128.181883,37.966472,6998.7529824,59.814,-1.634,180.432,1.0
0.75,128.181883,37.966427,6998.583208800001,62.023,-1.678,180.407,1.0
0.7666,128.181883,37.966381,6998.4103872000005,64.254,-1.721,180.381,1.0
0.7833,128.181883,37.966336,6998.2342128,66.505,-1.764,180.354,1.0
0.8,128.181883,37.96629,6998.055600000001,68.777,-1.805,180.326,1.0
0.8166,128.181883,37.966244,6997.8736344,71.068,-1.845,180.296,1.0
0.8333,128.181884,37.966199,6997.6889255999995,73.379,-1.883,180.265,1.0
0.85,128.181884,37.966153,6997.5011688,75.709,-1.921,180.234,1.0
0.8666,128.181884,37.966107,6997.310668800001,78.057,-1.957,180.201,1.0
0.8833,128.181884,37.966062,6997.1174256,80.424,-1.991,180.167,1.0
0.9,128.181884,37.966016,6996.9214392,82.808,-2.025,180.133,1.0
0.9166,128.181885,37.96597,6996.722404800001,85.209,-2.056,180.099,1.0
0.9333,128.181885,37.965924,6996.520932,87.626,-2.087,180.063,1.0
0.95,128.181885,37.965879,6996.316716,90.06,-2.116,180.028,1.0
0.9666,128.181885,37.965833,6996.110061599999,92.51,-2.143,179.992,1.0
0.9833,128.181886,37.965787,6995.900664000001,94.975,-2.169,179.956,1.0
1.0,128.181886,37.965741,6995.688828,97.455,-2.193,179.919,1.0
1.0166,128.181886,37.965695,6995.4745536,99.95,-2.216,179.883,1.0
1.0333,128.181887,37.96565,6995.258145600001,102.458,-2.238,179.846,1.0
1.05,128.181887,37.965604,6995.0389944,104.981,-2.258,179.81,1.0
1.0666,128.181887,37.965558,6994.817709600001,107.516,-2.277,179.774,1.0
1.0833,128.181888,37.965512,6994.5939864,110.064,-2.294,179.738,1.0
1.1,128.181888,37.965466,6994.3684344,112.624,-2.31,179.703,1.0
1.1166,128.181888,37.96542,6994.140444,115.197,-2.324,179.668,1.0
1.1333,128.181889,37.965374,6993.910624800001,117.78,-2.338,179.633,1.0
1.15,128.181889,37.965328,6993.678672,120.375,-2.35,179.599,1.0
1.1666,128.18189,37.965282,6993.4448904,122.979,-2.361,179.565,1.0
1.1833,128.18189,37.965236,6993.20928,125.595,-2.371,179.532,1.0
1.2,128.18189,37.96519,6992.971536,128.22,-2.38,179.5,1.0
1.2166,128.181891,37.965144,6992.732268000001,130.854,-2.387,179.468,1.0
1.2333,128.181891,37.965098,6992.491476,133.498,-2.394,179.436,1.0
1.25,128.181892,37.965052,6992.248550400001,136.15,-2.4,179.405,1.0
1.2666,128.181892,37.965006,6992.004405600001,138.811,-2.405,179.375,1.0
1.2833,128.181893,37.96496,6991.7587368,141.48,-2.408,179.346,1.0
1.3,128.181893,37.964914,6991.511544,144.156,-2.411,179.317,1.0
1.3166,128.181894,37.964868,6991.2628272,146.84,-2.413,179.289,1.0
1.3333,128.181894,37.964822,6991.0125864,149.531,-2.415,179.262,1.0
1.35,128.181895,37.964775,6990.7611264,152.228,-2.415,179.235,1.0
1.3666,128.181895,37.964729,6990.508447200001,154.931,-2.415,179.209,1.0
1.3833,128.181896,37.964683,6990.254244,157.639,-2.414,179.184,1.0
1.4,128.181896,37.964637,6989.9991264,160.353,-2.412,179.16,1.0
1.4166,128.181897,37.964591,6989.7424848,163.071,-2.409,179.136,1.0
1.4333,128.181897,37.964544,6989.4849288000005,165.793,-2.406,179.113,1.0
1.45,128.181898,37.964498,6989.2261536000005,168.518,-2.401,179.091,1.0
1.4666,128.181898,37.964452,6988.9658544,171.246,-2.397,179.07,1.0
1.4833,128.181899,37.964406,6988.704640800001,173.977,-2.391,179.05,1.0
1.5,128.181899,37.964359,6988.4425128,176.71,-2.384,179.03,1.0
1.5166,128.1819,37.964313,6988.178860800001,179.444,-2.377,179.012,1.0
1.5333,128.181901,37.964267,6987.9139896,-177.82,-2.369,178.994,1.0
1.55,128.181901,37.96422,6987.648204,-175.084,-2.361,178.978,1.0
1.5666,128.181902,37.964174,6987.3811992,-172.349,-2.351,178.962,1.0
1.5833,128.181902,37.964128,6987.112670400001,-169.615,-2.341,178.947,1.0
1.6,128.181903,37.964081,6986.8432272,-166.881,-2.33,178.934,1.0
1.6166,128.181903,37.964035,6986.572260000001,-164.15,-2.319,178.922,1.0
1.6333,128.181904,37.963988,6986.2997688000005,-161.42,-2.306,178.911,1.0
1.65,128.181904,37.963942,6986.0260584,-158.694,-2.293,178.901,1.0
1.6666,128.181905,37.963896,6985.7511288000005,-155.97,-2.28,178.893,1.0
1.6833,128.181905,37.963849,6985.4746752,-153.251,-2.266,178.886,1.0
1.7,128.181906,37.963803,6985.1963928000005,-150.535,-2.251,178.88,1.0
1.7166,128.181906,37.963756,6984.916586400001,-147.824,-2.236,178.876,1.0
1.7333,128.181907,37.96371,6984.6355608,-145.308,-2.232,178.892,1.0
1.75,128.181907,37.963663,6984.351792,-142.98,-2.241,178.927,1.0
1.7666,128.181908,37.963616,6984.0655848,-140.846,-2.258,178.972,1.0
1.7833,128.181908,37.96357,6983.776329599999,-138.909,-2.28,179.023,1.0
1.8,128.181909,37.963523,6983.4837216,-137.168,-2.305,179.075,1.0
1.8166,128.181909,37.963477,6983.187456000001,-135.619,-2.331,179.126,1.0
1.8333,128.18191,37.96343,6982.8878376,-134.255,-2.358,179.175,1.0
1.85,128.18191,37.963384,6982.584256800001,-133.069,-2.386,179.222,1.0
1.8666,128.181911,37.963337,6982.2767136,-132.054,-2.415,179.266,1.0
1.8833,128.181911,37.96329,6981.9649032,-131.204,-2.445,179.307,1.0
1.9,128.181912,37.963244,6981.6488256,-130.51,-2.477,179.345,1.0
1.9166,128.181913,37.963197,6981.3284808,-129.967,-2.51,179.38,1.0
1.9333,128.181913,37.96315,6981.003564000001,-129.57,-2.544,179.412,1.0
1.95,128.181914,37.963104,6980.673770400001,-129.311,-2.579,179.442,1.0
1.9666,128.181915,37.963057,6980.3394048,-129.185,-2.616,179.468,1.0
1.9833,128.181915,37.963011,6979.9998576,-129.188,-2.653,179.493,1.0
2.0,128.181916,37.962964,6979.655128800001,-129.314,-2.691,179.514,1.0
2.0166,128.181917,37.962917,6979.3049136,-129.558,-2.731,179.533,1.0
2.0333,128.181918,37.962871,6978.9501264,-129.915,-2.771,179.55,1.0
2.05,128.181919,37.962824,6978.5901576,-130.381,-2.812,179.564,1.0
2.0666,128.18192,37.962777,6978.225312,-130.952,-2.853,179.577,1.0
2.0833,128.181921,37.962731,6977.8552848,-131.623,-2.896,179.587,1.0
2.1,128.181922,37.962684,6977.4803808,-132.391,-2.939,179.596,1.0
2.1166,128.181923,37.962637,6977.100600000001,-133.25,-2.982,179.603,1.0
2.1333,128.181924,37.962591,6976.7156376,-134.198,-3.026,179.609,1.0
2.15,128.181925,37.962544,6976.3257984,-135.231,-3.071,179.614,1.0
2.1666,128.181926,37.962498,6975.9310824,-136.345,-3.116,179.617,1.0
2.1833,128.181927,37.962451,6975.5311848,-137.536,-3.162,179.62,1.0
2.2,128.181928,37.962404,6975.1261056,-138.802,-3.208,179.621,1.0
2.2166,128.181929,37.962358,6974.7161496,-140.138,-3.254,179.622,1.0
2.2333,128.18193,37.962311,6974.301012,-141.542,-3.301,179.623,1.0
2.25,128.181932,37.962264,6973.880997600001,-143.011,-3.348,179.623,1.0
2.2666,128.181933,37.962218,6973.455496800001,-144.542,-3.395,179.623,1.0
2.2833,128.181934,37.962171,6973.0251192000005,-146.13,-3.443,179.623,1.0
2.3,128.181935,37.962124,6972.5892552000005,-147.775,-3.49,179.623,1.0
2.3166,128.181937,37.962078,6972.148209600001,-149.473,-3.538,179.623,1.0
2.3333,128.181938,37.962031,6971.701982400001,-151.22,-3.585,179.623,1.0
2.35,128.181939,37.961984,6971.2502688,-153.016,-3.633,179.624,1.0
2.3666,128.181941,37.961938,6970.7933736,-154.856,-3.681,179.624,1.0
2.3833,128.181942,37.961891,6970.330992000001,-156.739,-3.728,179.626,1.0
2.4,128.181943,37.961844,6969.863124,-158.661,-3.776,179.628,1.0
2.4166,128.181945,37.961798,6969.3897696,-160.622,-3.823,179.63,1.0
2.4333,128.181946,37.961751,6968.910624000001,-162.617,-3.869,179.633,1.0
2.45,128.181948,37.961704,6968.4262968,-164.646,-3.915,179.637,1.0
2.4666,128.181949,37.961658,6967.9361784,-166.706,-3.961,179.641,1.0
2.4833,128.181951,37.961611,6967.440268800001,-168.794,-4.006,179.646,1.0
2.5,128.181952,37.961565,6966.9385680000005,-170.909,-4.051,179.652,1.0
2.5166,128.181953,37.961518,6966.4313808,-173.049,-4.095,179.658,1.0
2.5333,128.181955,37.961471,6965.9184024,-175.212,-4.138,179.666,1.0
2.55,128.181956,37.961425,6965.3996328,-177.396,-4.18,179.674,1.0
2.5666,128.181958,37.961378,6964.875072,-179.599,-4.221,179.682,1.0
2.5833,128.181959,37.961331,6964.344415200001,178.18,-4.261,179.691,1.0
2.6,128.181961,37.961285,6963.8079672,175.944,-4.3,179.701,1.0
2.6166,128.181962,37.961238,6963.265728,173.693,-4.338,179.712,1.0
2.6333,128.181964,37.961191,6962.717697600001,171.43,-4.375,179.722,1.0
2.65,128.181965,37.961145,6962.1635712,169.156,-4.41,179.734,1.0
2.6666,128.181967,37.961098,6961.6036536,166.872,-4.444,179.745,1.0
2.6833,128.181968,37.961051,6961.0376400000005,164.579,-4.477,179.757,1.0
2.7,128.181969,37.961005,6960.4658352,162.28,-4.508,179.77,1.0
2.7166,128.181971,37.960958,6959.8879344,159.974,-4.539,179.782,1.0
2.7333,128.181972,37.960911,6959.3045472,157.664,-4.567,179.794,1.0
2.75,128.181973,37.960865,6958.715064000001,155.351,-4.594,179.806,1.0
2.7666,128.181975,37.960818,6958.1194848,153.035,-4.62,179.818,1.0
2.7833,128.181976,37.960771,6957.518419200001,150.717,-4.644,179.83,1.0
2.8,128.181977,37.960725,6956.9115624,148.399,-4.667,179.842,1.0
2.8166,128.181979,37.960678,6956.2992192,146.082,-4.689,179.853,1.0
2.8333,128.18198,37.960631,6955.68078,143.765,-4.709,179.863,1.0
2.85,128.181981,37.960585,6955.057159200001,141.451,-4.728,179.873,1.0
2.8666,128.181982,37.960538,6954.4277472,139.139,-4.746,179.883,1.0
2.8833,128.181983,37.960491,6953.793153600001,136.831,-4.762,179.891,1.0
2.9,128.181985,37.960445,6953.1530736,134.527,-4.777,179.899,1.0
2.9166,128.181986,37.960398,6952.5075072,132.228,-4.792,179.905,1.0
2.9333,128.181987,37.960351,6951.859197600001,130.127,-4.822,179.895,1.0
2.95,128.181988,37.960305,6951.206316,128.219,-4.87,179.869,1.0
2.9666,128.181989,37.960258,6950.5491672,126.51,-4.928,179.834,1.0
2.9833,128.18199,37.960211,6949.888360800001,125.004,-4.991,179.795,1.0
3.0,128.18199,37.960165,6949.223592,123.7,-5.054,179.754,1.0
3.0166,128.181991,37.960118,6948.555165600001,122.592,-5.118,179.714,1.0
3.0333,128.181992,37.960071,6947.883691200001,121.674,-5.18,179.676,1.0
3.05,128.181993,37.960025,6947.208864,120.94,-5.241,179.64,1.0
3.0666,128.181994,37.959978,6946.5309888,120.379,-5.302,179.605,1.0
3.0833,128.181995,37.959931,6945.850370400001,119.987,-5.361,179.573,1.0
3.1,128.181996,37.959884,6945.1673136,119.754,-5.42,179.542,1.0
3.1166,128.181997,37.959838,6944.4818184000005,119.674,-5.477,179.513,1.0
3.1333,128.181997,37.959791,6943.7938848,119.741,-5.534,179.485,1.0
3.15,128.181998,37.959744,6943.1038176,119.948,-5.59,179.458,1.0
3.1666,128.181999,37.959697,6942.4119216,120.289,-5.646,179.432,1.0
3.1833,128.182,37.95965,6941.7181968,120.759,-5.7,179.407,1.0
3.2,128.182001,37.959604,6941.0226432,121.352,-5.753,179.383,1.0
3.2166,128.182002,37.959557,6940.325870400001,122.063,-5.805,179.359,1.0
3.2333,128.182003,37.95951,6939.627573600001,122.886,-5.856,179.335,1.0
3.25,128.182004,37.959463,6938.9274479999995,123.817,-5.906,179.312,1.0
3.2666,128.182005,37.959416,6938.2261032,124.85,-5.955,179.289,1.0
3.2833,128.182006,37.959369,6937.5229296,125.982,-6.002,179.266,1.0
3.3,128.182007,37.959322,6936.8185368,127.208,-6.049,179.243,1.0
3.3166,128.182008,37.959275,6936.112924800001,128.523,-6.094,179.22,1.0
3.3333,128.182009,37.959228,6935.405484000001,129.924,-6.139,179.198,1.0
3.35,128.18201,37.959181,6934.6971288,131.407,-6.182,179.175,1.0
3.3666,128.182011,37.959134,6933.9872496,132.968,-6.224,179.153,1.0
3.3833,128.182012,37.959087,6933.276151200001,134.603,-6.265,179.13,1.0
3.4,128.182013,37.95904,6932.564138400001,136.309,-6.306,179.107,1.0
3.4166,128.182014,37.958993,6931.850906400001,138.083,-6.345,179.085,1.0
3.4333,128.182015,37.958946,6931.1364552000005,139.921,-6.383,179.062,1.0
3.45,128.182016,37.958899,6930.4207848,141.82,-6.419,179.039,1.0
3.4666,128.182018,37.958852,6929.7045048,143.777,-6.455,179.016,1.0
3.4833,128.182019,37.958804,6928.987005600001,145.79,-6.49,178.993,1.0
3.5,128.18202,37.958757,6928.268592,147.855,-6.524,178.97,1.0
3.5166,128.182021,37.95871,6927.5495688,149.969,-6.556,178.946,1.0
3.5333,128.182022,37.958663,6926.8293264,152.131,-6.587,178.923,1.0
3.55,128.182023,37.958616,6926.108474400001,154.337,-6.618,178.899,1.0
3.5666,128.182025,37.958568,6925.3870128,156.585,-6.647,178.876,1.0
3.5833,128.182026,37.958521,6924.6646368,158.873,-6.674,178.852,1.0
3.6,128.182027,37.958474,6923.941346400001,161.198,-6.701,178.828,1.0
3.6166,128.182028,37.958426,6923.217751200001,163.558,-6.726,178.804,1.0
3.6333,128.18203,37.958379,6922.4932416,165.951,-6.749,178.78,1.0
3.65,128.182031,37.958332,6921.7678176,168.375,-6.771,178.756,1.0
3.6666,128.182032,37.958284,6921.0420888,170.827,-6.792,178.732,1.0
3.6833,128.182033,37.958237,6920.3154456,173.306,-6.811,178.708,1.0
3.7,128.182034,37.95819,6919.588192800001,175.809,-6.829,178.684,1.0
3.7166,128.182036,37.958142,6918.8603304,178.336,-6.845,178.66,1.0
3.7333,128.182037,37.958095,6918.1315536,-179.116,-6.859,178.636,1.0
3.75,128.182038,37.958047,6917.4018624,-176.549,-6.872,178.613,1.0
3.7666,128.182039,37.958,6916.6715616,-173.965,-6.883,178.59,1.0
3.7833,128.182041,37.957952,6915.940346400001,-171.364,-6.893,178.568,1.0
3.8,128.182042,37.957905,6915.2082168,-168.75,-6.9,178.546,1.0
3.8166,128.182043,37.957857,6914.4751728,-166.122,-6.906,178.526,1.0
3.8333,128.182044,37.95781,6913.7406048,-163.69,-6.917,178.53,1.0
3.85,128.182046,37.957762,6913.004208,-161.447,-6.934,178.558,1.0
3.8666,128.182047,37.957715,6912.2653728000005,-159.402,-6.955,178.6,1.0
3.8833,128.182048,37.957667,6911.5237944,-157.558,-6.978,178.647,1.0
3.9,128.182049,37.957619,6910.779168,-155.916,-7.001,178.696,1.0
3.9166,128.182051,37.957572,6910.0311888,-154.471,-7.025,178.743,1.0
3.9333,128.182052,37.957524,6909.279856800001,-153.215,-7.05,178.787,1.0
3.95,128.182053,37.957476,6908.5245624,-152.14,-7.076,178.829,1.0
3.9666,128.182054,37.957429,6907.765000800001,-151.239,-7.104,178.868,1.0
3.9833,128.182056,37.957381,6907.001172,-150.505,-7.133,178.905,1.0
4.0,128.182057,37.957333,6906.2327712,-149.93,-7.163,178.939,1.0
4.0166,128.182058,37.957286,6905.4597984,-149.507,-7.195,178.972,1.0
4.0333,128.182059,37.957238,6904.6813392,-149.23,-7.229,179.002,1.0
4.05,128.182061,37.95719,6903.8980032,-149.093,-7.264,179.03,1.0
4.0666,128.182062,37.957143,6903.108876,-149.091,-7.3,179.057,1.0
4.0833,128.182063,37.957095,6902.3139576,-149.218,-7.337,179.082,1.0
4.1,128.182065,37.957047,6901.513248,-149.468,-7.376,179.105,1.0
4.1166,128.182066,37.957,6900.706137600001,-149.837,-7.416,179.126,1.0
4.1333,128.182068,37.956952,6899.893236,-150.319,-7.456,179.146,1.0
4.15,128.182069,37.956904,6899.074848,-150.91,-7.498,179.164,1.0
4.1666,128.18207,37.956857,6898.250364,-151.605,-7.541,179.181,1.0
4.1833,128.182072,37.956809,6897.4200888,-152.399,-7.584,179.197,1.0
4.2,128.182073,37.956761,6896.5840224,-153.289,-7.628,179.213,1.0
4.2166,128.182075,37.956714,6895.742164800001,-154.269,-7.672,179.227,1.0
4.2333,128.182076,37.956666,6894.894515999999,-155.337,-7.718,179.24,1.0
4.25,128.182078,37.956618,6894.041076,-156.487,-7.763,179.253,1.0
4.2666,128.18208,37.956571,6893.1818448,-157.717,-7.809,179.266,1.0
4.2833,128.182081,37.956523,6892.3168224,-159.021,-7.855,179.278,1.0
4.3,128.182083,37.956475,6891.4460088000005,-160.398,-7.901,179.29,1.0
4.3166,128.182084,37.956428,6890.569708800001,-161.843,-7.948,179.302,1.0
4.3333,128.182086,37.95638,6889.6873128,-163.353,-7.994,179.314,1.0
4.35,128.182088,37.956332,6888.7991256,-164.924,-8.04,179.326,1.0
4.3666,128.182089,37.956285,6887.905147200001,-166.554,-8.086,179.339,1.0
4.3833,128.182091,37.956237,6887.005072800001,-168.239,-8.132,179.351,1.0
4.4,128.182092,37.956189,6886.099512,-169.976,-8.177,179.364,1.0
4.4166,128.182094,37.956142,6885.187855200001,-171.763,-8.222,179.377,1.0
4.4333,128.182096,37.956094,6884.2701024,-173.596,-8.266,179.39,1.0
4.45,128.182097,37.956046,6883.3468632,-175.472,-8.31,179.404,1.0
4.4666,128.182099,37.955999,6882.4172232,-177.39,-8.353,179.418,1.0
4.4833,128.182101,37.955951,6881.4817920000005,-179.346,-8.395,179.433,1.0
4.5,128.182102,37.955904,6880.540569600001,178.661,-8.436,179.448,1.0
4.5166,128.182104,37.955856,6879.592946400001,176.636,-8.476,179.464,1.0
4.5333,128.182106,37.955808,6878.6407512000005,174.794,-8.517,179.453,1.0
4.55,128.182107,37.955761,6877.6833744000005,173.128,-8.559,179.416,1.0
4.5666,128.182109,37.955713,6876.7211208,171.65,-8.603,179.364,1.0
4.5833,128.182111,37.955665,6875.7549048,170.365,-8.646,179.307,1.0
4.6,128.182112,37.955618,6874.7841168,169.273,-8.689,179.251,1.0
4.6166,128.182114,37.95557,6873.8099760000005,168.369,-8.732,179.196,1.0
4.6333,128.182115,37.955522,6872.8321776,167.647,-8.775,179.145,1.0
4.65,128.182117,37.955475,6871.8513312000005,167.099,-8.819,179.097,1.0
4.6666,128.182119,37.955427,6870.867741600001,166.717,-8.862,179.05,1.0
4.6833,128.18212,37.955379,6869.881713600001,166.492,-8.905,179.006,1.0
4.7,128.182122,37.955332,6868.893247200001,166.419,-8.948,178.963,1.0
4.7166,128.182123,37.955284,6867.903256800001,166.489,-8.991,178.922,1.0
4.7333,128.182125,37.955236,6866.911437600001,166.698,-9.033,178.882,1.0
4.75,128.182127,37.955188,6865.918704000001,167.038,-9.075,178.842,1.0
4.7666,128.182128,37.95514,6864.924751200001,167.505,-9.116,178.804,1.0
4.7833,128.18213,37.955093,6863.9301888,168.091,-9.155,178.767,1.0
4.8,128.182132,37.955045,6862.9356264,168.792,-9.193,178.73,1.0
4.8166,128.182133,37.954997,6861.940759200001,169.603,-9.23,178.694,1.0
4.8333,128.182135,37.954949,6860.945282400001,170.517,-9.265,178.658,1.0
4.85,128.182136,37.954901,6859.9495008,171.53,-9.298,178.623,1.0
4.8666,128.182138,37.954853,6858.9531096,172.638,-9.33,178.588,1.0
4.8833,128.18214,37.954805,6857.9564136,173.835,-9.361,178.554,1.0
4.9,128.182141,37.954757,6856.959108,175.117,-9.389,178.521,1.0
4.9166,128.182143,37.954709,6855.961497600001,176.481,-9.416,178.488,1.0
4.9333,128.182145,37.954661,6854.9629728,177.921,-9.441,178.455,1.0
4.95,128.182146,37.954613,6853.9641432,179.434,-9.465,178.423,1.0
4.9666,128.182148,37.954565,6852.964704,-178.983,-9.486,178.391,1.0
4.9833,128.18215,37.954517,6851.9646552,-177.336,-9.506,178.36,1.0
5.0,128.182151,37.954469,6850.963692,-175.626,-9.523,178.329,1.0
5.0166,128.182153,37.954421,6849.962424,-173.858,-9.539,178.299,1.0
5.0333,128.182155,37.954373,6848.960241600001,-172.036,-9.554,178.27,1.0
5.05,128.182156,37.954325,6847.957144800001,-170.161,-9.566,178.241,1.0
5.0666,128.182158,37.954277,6846.953438400001,-168.237,-9.576,178.213,1.0
5.0833,128.18216,37.954228,6845.948512800001,-166.266,-9.585,178.186,1.0
5.1,128.182161,37.95418,6844.942977600001,-164.253,-9.592,178.159,1.0
5.1166,128.182163,37.954132,6843.9362232,-162.199,-9.597,178.134,1.0
5.1333,128.182165,37.954084,6842.9285544,-160.106,-9.6,178.11,1.0
5.15,128.182166,37.954035,6841.9199712,-157.978,-9.602,178.087,1.0
5.1666,128.182168,37.953987,6840.9101688,-155.817,-9.602,178.065,1.0
5.1833,128.182169,37.953939,6839.898842400001,-153.624,-9.6,178.044,1.0
5.2,128.182171,37.95389,6838.886601600001,-151.402,-9.596,178.025,1.0
5.2166,128.182173,37.953842,6837.8728368,-149.154,-9.591,178.008,1.0
5.2333,128.182174,37.953794,6836.8578528,-147.1,-9.599,178.015,1.0
5.25,128.182176,37.953745,6835.8404304,-145.235,-9.621,178.047,1.0
5.2666,128.182177,37.953697,6834.8205696,-143.567,-9.652,178.092,1.0
5.2833,128.182179,37.953648,6833.797356000001,-142.104,-9.685,178.142,1.0
5.3,128.18218,37.9536,6832.7710944,-140.844,-9.718,178.192,1.0
5.3166,128.182182,37.953552,6831.7411752,-139.782,-9.751,178.24,1.0
5.3333,128.182184,37.953503,6830.7075984,-138.91,-9.783,178.284,1.0
5.35,128.182185,37.953455,6829.6697544,-138.219,-9.816,178.326,1.0
5.3666,128.182187,37.953406,6828.627948,-137.7,-9.849,178.365,1.0
5.3833,128.182189,37.953358,6827.581874400001,-137.346,-9.883,178.402,1.0
5.4,128.18219,37.953309,6826.5312288000005,-137.149,-9.917,178.436,1.0
5.4166,128.182192,37.953261,6825.475401600001,-137.102,-9.953,178.469,1.0
5.4333,128.182194,37.953212,6824.4150024,-137.199,-9.989,178.499,1.0
5.45,128.182195,37.953164,6823.3494216,-137.434,-10.027,178.528,1.0
5.4666,128.182197,37.953115,6822.2783544,-137.801,-10.065,178.554,1.0
5.4833,128.182199,37.953067,6821.2018008000005,-138.294,-10.104,178.578,1.0
5.5,128.182201,37.953018,6820.1191512000005,-138.907,-10.143,178.601,1.0
5.5166,128.182203,37.95297,6819.0307104,-139.636,-10.184,178.621,1.0
5.5333,128.182205,37.952921,6817.936783200001,-140.476,-10.225,178.64,1.0
5.55,128.182207,37.952873,6816.837064800001,-141.421,-10.267,178.658,1.0
5.5666,128.182209,37.952824,6815.731555200001,-142.468,-10.309,178.674,1.0
5.5833,128.182211,37.952776,6814.620254400001,-143.61,-10.353,178.689,1.0
5.6,128.182213,37.952727,6813.5034672,-144.845,-10.396,178.703,1.0
5.6166,128.182215,37.952679,6812.380888799999,-146.168,-10.44,178.716,1.0
5.6333,128.182217,37.95263,6811.2525192,-147.575,-10.485,178.729,1.0
5.65,128.182219,37.952582,6810.1183584,-149.061,-10.53,178.741,1.0
5.6666,128.182221,37.952533,6808.978711200001,-150.623,-10.575,178.752,1.0
5.6833,128.182223,37.952485,6807.832968000001,-152.258,-10.621,178.763,1.0
5.7,128.182225,37.952437,6806.6817384000005,-153.961,-10.666,178.774,1.0
5.7166,128.182227,37.952388,6805.5244128,-155.729,-10.712,178.785,1.0
5.7333,128.18223,37.95234,6804.361600800001,-157.559,-10.758,178.795,1.0
5.75,128.182232,37.952291,6803.192997600001,-159.447,-10.804,178.806,1.0
5.7666,128.182234,37.952243,6802.0182984,-161.39,-10.85,178.818,1.0
5.7833,128.182236,37.952194,6800.837808,-163.384,-10.895,178.829,1.0
5.8,128.182238,37.952146,6799.6515264,-165.427,-10.94,178.841,1.0
5.8166,128.182241,37.952097,6798.4594536,-167.516,-10.985,178.854,1.0
5.8333,128.182243,37.952049,6797.2615896,-169.418,-11.023,178.837,1.0
5.85,128.182245,37.952001,6796.0588488,-171.139,-11.056,178.792,1.0
5.8666,128.182247,37.951952,6794.851536,-172.667,-11.085,178.732,1.0
5.8833,128.18225,37.951904,6793.639956000001,-173.995,-11.114,178.667,1.0
5.9,128.182252,37.951855,6792.424413600001,-175.122,-11.143,178.603,1.0
5.9166,128.182254,37.951807,6791.2052136,-176.054,-11.173,178.544,1.0
5.9333,128.182256,37.951759,6789.982965600001,-176.798,-11.204,178.488,1.0
5.95,128.182259,37.95171,6788.757669600001,-177.365,-11.237,178.435,1.0
5.9666,128.182261,37.951662,6787.5296304,-177.762,-11.27,178.384,1.0
5.9833,128.182263,37.951613,6786.2994576,-177.998,-11.305,178.335,1.0
6.0,128.182265,37.951565,6785.067456000001,-178.08,-11.339,178.287,1.0
6.0166,128.182268,37.951516,6783.8336256,-178.015,-11.373,178.241,1.0
6.0333,128.18227,37.951468,6782.5988808,-177.81,-11.407,178.195,1.0
6.05,128.182272,37.951419,6781.3629168,-177.471,-11.441,178.151,1.0
6.0666,128.182274,37.951371,6780.126038400001,-177.005,-11.474,178.108,1.0
6.0833,128.182276,37.951322,6778.889160000001,-176.417,-11.505,178.066,1.0
6.1,128.182279,37.951274,6777.652281600001,-175.713,-11.535,178.025,1.0
6.1166,128.182281,37.951225,6776.4154032,-174.9,-11.564,177.985,1.0
6.1333,128.182283,37.951177,6775.178220000001,-173.981,-11.591,177.946,1.0
6.15,128.182285,37.951128,6773.941036800001,-172.963,-11.616,177.908,1.0
6.1666,128.182288,37.95108,6772.703244,-171.851,-11.64,177.871,1.0
6.1833,128.18229,37.951031,6771.465451200001,-170.65,-11.662,177.835,1.0
6.2,128.182292,37.950982,6770.2270488,-169.363,-11.682,177.799,1.0
6.2166,128.182294,37.950934,6768.9883416,-167.997,-11.7,177.764,1.0
6.2333,128.182297,37.950885,6767.7493296,-166.554,-11.717,177.731,1.0
6.25,128.182299,37.950836,6766.5097080000005,-165.04,-11.731,177.698,1.0
6.2666,128.182301,37.950788,6765.2694768,-163.457,-11.743,177.666,1.0
6.2833,128.182303,37.950739,6764.0283312,-161.811,-11.753,177.636,1.0
6.3,128.182305,37.95069,6762.7868808,-160.104,-11.762,177.606,1.0
6.3166,128.182308,37.950641,6761.544211200001,-158.34,-11.768,177.578,1.0
6.3333,128.18231,37.950593,6760.300932,-156.523,-11.773,177.551,1.0
6.35,128.182312,37.950544,6759.0570431999995,-154.655,-11.775,177.525,1.0
6.3666,128.182314,37.950495,6757.8116304,-152.739,-11.776,177.501,1.0
6.3833,128.182316,37.950446,6756.565608,-150.78,-11.775,177.478,1.0
6.4,128.182318,37.950397,6755.3183664,-148.778,-11.772,177.457,1.0
6.4166,128.182321,37.950348,6754.0696008,-146.738,-11.768,177.438,1.0
6.4333,128.182323,37.9503,6752.8202255999995,-144.892,-11.779,177.445,1.0
6.45,128.182325,37.950251,6751.5687168,-143.236,-11.805,177.478,1.0
6.4666,128.182327,37.950202,6750.314464800001,-141.779,-11.841,177.524,1.0
6.4833,128.182329,37.950153,6749.0571648000005,-140.529,-11.879,177.576,1.0
6.5,128.182331,37.950104,6747.7968168,-139.485,-11.917,177.626,1.0
6.5166,128.182333,37.950055,6746.533116,-138.641,-11.953,177.674,1.0
6.5333,128.182336,37.950006,6745.2657576,-137.988,-11.988,177.718,1.0
6.55,128.182338,37.949957,6743.994436800001,-137.517,-12.023,177.759,1.0
6.5666,128.18234,37.949908,6742.7191536,-137.217,-12.058,177.798,1.0
6.5833,128.182342,37.949859,6741.4396032,-137.081,-12.094,177.834,1.0
6.6,128.182344,37.949811,6740.1554808,-137.102,-12.131,177.869,1.0
6.6166,128.182347,37.949762,6738.8667864,-137.271,-12.168,177.901,1.0
6.6333,128.182349,37.949713,6737.573215200001,-137.583,-12.206,177.932,1.0
6.65,128.182351,37.949664,6736.2747672000005,-138.031,-12.245,177.961,1.0
6.6666,128.182354,37.949615,6734.970832800001,-138.61,-12.284,177.987,1.0
6.6833,128.182356,37.949566,6733.661412,-139.313,-12.324,178.012,1.0
6.7,128.182358,37.949517,6732.346504800001,-140.134,-12.364,178.035,1.0
6.7166,128.182361,37.949469,6731.0251968,-141.069,-12.406,178.057,1.0
6.7333,128.182363,37.94942,6729.6987072,-142.113,-12.448,178.077,1.0
6.75,128.182366,37.949371,6728.3664264,-143.259,-12.491,178.096,1.0
6.7666,128.182368,37.949322,6727.0286592,-144.505,-12.534,178.113,1.0
6.7833,128.182371,37.949273,6725.6851008,-145.844,-12.578,178.13,1.0
6.8,128.182373,37.949225,6724.3357512,-147.273,-12.622,178.145,1.0
6.8166,128.182376,37.949176,6722.980915200001,-148.787,-12.667,178.16,1.0
6.8333,128.182379,37.949127,6721.620592800001,-150.381,-12.712,178.174,1.0
6.85,128.182381,37.949078,6720.254174400001,-152.053,-12.757,178.188,1.0
6.8666,128.182384,37.94903,6718.8825744000005,-153.798,-12.803,178.201,1.0
6.8833,128.182387,37.948981,6717.504878400001,-155.612,-12.849,178.215,1.0
6.9,128.182389,37.948932,6716.121696,-157.491,-12.895,178.228,1.0
6.9166,128.182392,37.948884,6714.7327224,-159.432,-12.941,178.241,1.0
6.9333,128.182395,37.948835,6713.3379576,-161.432,-12.987,178.255,1.0
6.95,128.182398,37.948787,6711.937706400001,-163.486,-13.033,178.269,1.0
6.9666,128.1824,37.948738,6710.5313592,-165.591,-13.079,178.283,1.0
6.9833,128.182403,37.948689,6709.1192208,-167.745,-13.124,178.298,1.0
7.0,128.182406,37.948641,6707.7012912,-169.944,-13.168,178.313,1.0
7.0166,128.182409,37.948592,6706.2775704000005,-172.185,-13.212,178.329,1.0
7.0333,128.182411,37.948544,6704.8480584,-174.465,-13.255,178.345,1.0
7.05,128.182414,37.948495,6703.4124504,-176.781,-13.297,178.362,1.0
7.0666,128.182417,37.948447,6701.971051200001,-179.13,-13.339,178.38,1.0
7.0833,128.18242,37.948398,6700.523556000001,178.489,-13.379,178.398,1.0
7.1,128.182423,37.94835,6699.069964800001,176.08,-13.418,178.417,1.0
7.1166,128.182425,37.948301,6697.6108872,173.646,-13.455,178.436,1.0
7.1333,128.182428,37.948253,6696.1454088,171.189,-13.491,178.456,1.0
7.15,128.182431,37.948204,6694.6741392,168.711,-13.526,178.476,1.0
7.1666,128.182434,37.948156,6693.196773600001,166.214,-13.559,178.497,1.0
7.1833,128.182436,37.948108,6691.7136168,163.701,-13.59,178.518,1.0
7.2,128.182439,37.948059,6690.224364000001,161.173,-13.62,178.538,1.0
7.2166,128.182442,37.948011,6688.72932,158.632,-13.648,178.559,1.0
7.2333,128.182444,37.947963,6687.2284848,156.081,-13.674,178.58,1.0
7.25,128.182447,37.947914,6685.7215536,153.521,-13.698,178.6,1.0
7.2666,128.18245,37.947866,6684.2088312000005,150.954,-13.72,178.62,1.0
7.2833,128.182452,37.947818,6682.6903176000005,148.38,-13.741,178.64,1.0
7.3,128.182455,37.947769,6681.1663176,145.803,-13.759,178.659,1.0
7.3166,128.182457,37.947721,6679.636526400001,143.223,-13.776,178.677,1.0
7.3333,128.18246,37.947673,6678.1012488,140.642,-13.791,178.694,1.0
7.35,128.182462,37.947625,6676.5604848,138.06,-13.805,178.71,1.0
7.3666,128.182465,37.947576,6675.0142344,135.479,-13.817,178.725,1.0
7.3833,128.182467,37.947528,6673.4631072,132.9,-13.827,178.738,1.0
7.4,128.18247,37.94748,6671.9064935999995,130.324,-13.836,178.751,1.0
7.4166,128.182472,37.947432,6670.3450032,127.752,-13.843,178.761,1.0
7.4333,128.182474,37.947384,6668.7789408,125.185,-13.85,178.77,1.0
7.45,128.182476,37.947336,6667.208001600001,122.624,-13.855,178.777,1.0
7.4666,128.182478,37.947288,6665.6324904,120.068,-13.859,178.783,1.0
7.4833,128.182481,37.94724,6664.052712,117.519,-13.862,178.787,1.0
7.5,128.182483,37.947191,6662.4686664,114.978,-13.865,178.789,1.0
7.5166,128.182485,37.947143,6660.8806584,112.444,-13.867,178.788,1.0
7.5333,128.182486,37.947095,6659.2889928,109.918,-13.87,178.79,1.0
7.55,128.182488,37.947047,6657.6936696,107.399,-13.874,178.792,1.0
7.5666,128.18249,37.946999,6656.0949936,104.889,-13.878,178.796,1.0
7.5833,128.182492,37.946951,6654.4932696000005,102.388,-13.883,178.798,1.0
7.6,128.182493,37.946903,6652.888497600001,99.896,-13.887,178.799,1.0
7.6166,128.182495,37.946855,6651.2809824000005,97.414,-13.892,178.798,1.0
7.6333,128.182497,37.946807,6649.671333600001,94.938,-13.898,178.812,1.0
7.65,128.182498,37.946759,6648.0592464,92.465,-13.906,178.853,1.0
7.6666,128.182499,37.946711,6646.4453304,89.997,-13.913,178.914,1.0
7.6833,128.182501,37.946663,6644.8295856,87.537,-13.92,178.985,1.0
7.7,128.182502,37.946616,6643.2126216,85.085,-13.925,179.058,1.0
7.7166,128.182503,37.946568,6641.5941336000005,82.644,-13.928,179.13,1.0
7.7333,128.182504,37.94652,6639.975340800001,80.214,-13.928,179.195,1.0
7.75,128.182505,37.946472,6638.355633600001,77.795,-13.928,179.254,1.0
7.7666,128.182506,37.946424,6636.7359264,75.387,-13.925,179.306,1.0
7.7833,128.182507,37.946376,6635.1162192,72.989,-13.921,179.352,1.0
7.8,128.182508,37.946328,6633.4968168,70.598,-13.917,179.393,1.0
7.8166,128.182508,37.94628,6631.8783288,68.214,-13.911,179.429,1.0
7.8333,128.182509,37.946232,6630.261060000001,65.837,-13.905,179.459,1.0
7.85,128.182509,37.946184,6628.6450104000005,63.464,-13.899,179.484,1.0
7.8666,128.18251,37.946137,6627.0307896,61.096,-13.894,179.505,1.0
7.8833,128.18251,37.946089,6625.418397600001,58.73,-13.889,179.521,1.0
7.9,128.18251,37.946041,6623.808444,56.367,-13.885,179.535,1.0
7.9166,128.182511,37.945993,6622.200928800001,54.004,-13.88,179.545,1.0
7.9333,128.182511,37.945945,6620.5964616,51.642,-13.877,179.552,1.0
7.95,128.182511,37.945897,6618.995042400001,49.279,-13.876,179.556,1.0
7.9666,128.182511,37.945849,6617.396976,46.916,-13.875,179.556,1.0
7.9833,128.182511,37.945801,6615.8025672,44.55,-13.876,179.555,1.0
8.0,128.182511,37.945754,6614.2121208,42.183,-13.877,179.551,1.0
8.0166,128.18251,37.945706,6612.6256368,39.811,-13.879,179.547,1.0
8.0333,128.18251,37.945658,6611.043724800001,37.437,-13.883,179.54,1.0
8.05,128.18251,37.94561,6609.46608,35.058,-13.889,179.531,1.0
8.0666,128.182509,37.945562,6607.8930072,32.674,-13.896,179.52,1.0
8.0833,128.182509,37.945514,6606.324811200001,30.285,-13.904,179.509,1.0
8.1,128.182509,37.945466,6604.7617968,27.89,-13.913,179.497,1.0
8.1166,128.182508,37.945418,6603.203964,25.489,-13.922,179.485,1.0
8.1333,128.182508,37.94537,6601.6513128,23.313,-13.923,179.496,1.0
8.15,128.182507,37.945322,6600.1038432,21.352,-13.9,179.536,1.0
8.1666,128.182506,37.945274,6598.5612504,19.608,-13.831,179.602,1.0
8.1833,128.182506,37.945227,6597.024144,18.082,-13.702,179.69,1.0
8.2,128.182505,37.945179,6595.492828800001,16.769,-13.501,179.798,1.0
8.2166,128.182504,37.945131,6593.9679144,15.664,-13.218,179.925,1.0
8.2333,128.182504,37.945083,6592.448486400001,14.752,-12.862,180.067,1.0
8.25,128.182503,37.945035,6590.9351544,14.027,-12.45,180.219,1.0
8.2666,128.182502,37.944987,6589.427613600001,13.481,-11.998,180.375,1.0
8.2833,128.182502,37.944939,6587.9264736000005,13.107,-11.527,180.529,1.0
8.3,128.182501,37.944891,6586.4314296,12.898,-11.058,180.677,1.0
8.3166,128.1825,37.944843,6584.9424816,12.836,-10.614,180.813,1.0
8.3333,128.182499,37.944795,6583.4596296,12.918,-10.21,180.94,1.0
8.35,128.182498,37.944747,6581.983178400001,13.133,-9.844,181.057,1.0
8.3666,128.182497,37.944699,6580.5131280000005,13.458,-9.511,181.167,1.0
8.3833,128.182497,37.944651,6579.050088000001,13.873,-9.205,181.27,1.0
8.4,128.182496,37.944602,6577.5955824,14.36,-8.92,181.366,1.0
8.4166,128.182495,37.944554,6576.149306400001,14.903,-8.653,181.457,1.0
8.4333,128.182494,37.944506,6574.711564800001,15.486,-8.404,181.55,1.0
8.45,128.182493,37.944458,6573.283272000001,16.1,-8.171,181.646,1.0
8.4666,128.182492,37.94441,6571.864428000001,16.741,-7.951,181.743,1.0
8.4833,128.182491,37.944362,6570.4550328000005,17.406,-7.743,181.842,1.0
8.5,128.182489,37.944313,6569.0553912000005,18.093,-7.545,181.94,1.0
8.5166,128.182488,37.944265,6567.6655032,18.798,-7.357,182.038,1.0
8.5333,128.182487,37.944217,6566.286892800001,19.506,-7.176,182.135,1.0
8.55,128.182486,37.944169,6564.918645600001,20.213,-7.002,182.231,1.0
8.5666,128.182484,37.94412,6563.5607616,20.919,-6.835,182.327,1.0
8.5833,128.182483,37.944072,6562.2138504,21.623,-6.673,182.424,1.0
8.6,128.182482,37.944024,6560.8773024,22.324,-6.516,182.522,1.0
8.6166,128.18248,37.943976,6559.5514224,23.024,-6.365,182.622,1.0
8.6333,128.182479,37.943927,6558.237124800001,23.704,-6.218,182.722,1.0
8.65,128.182477,37.943879,6556.934104800001,24.366,-6.074,182.821,1.0
8.6666,128.182475,37.943831,6555.6417528,25.011,-5.933,182.921,1.0
8.6833,128.182473,37.943782,6554.3603736000005,25.642,-5.796,183.023,1.0
8.7,128.182472,37.943734,6553.0899672000005,26.26,-5.662,183.126,1.0
8.7166,128.18247,37.943685,6551.8302288,26.869,-5.531,183.231,1.0
8.7333,128.182468,37.943637,6550.582377600001,27.454,-5.403,183.336,1.0
8.75,128.182466,37.943589,6549.3454992,28.017,-5.275,183.44,1.0
8.7666,128.182464,37.94354,6548.1195935999995,28.561,-5.15,183.545,1.0
8.7833,128.182461,37.943492,6546.904356000001,29.088,-5.027,183.651,1.0
8.8,128.182459,37.943443,6545.7000912,29.6,-4.905,183.758,1.0
8.8166,128.182457,37.943395,6544.5064944000005,30.101,-4.786,183.868,1.0
8.8333,128.182454,37.943346,6543.322651200001,30.658,-4.669,183.979,1.0
8.85,128.182452,37.943298,6542.148256800001,31.272,-4.554,184.091,1.0
8.8666,128.182449,37.943249,6540.983311200001,31.937,-4.441,184.204,1.0
8.8833,128.182447,37.943201,6539.8269,32.645,-4.329,184.317,1.0
8.9,128.182444,37.943152,6538.679632800001,33.388,-4.218,184.431,1.0
8.9166,128.182441,37.943104,6537.5421192,34.16,-4.109,184.546,1.0
8.9333,128.182438,37.943055,6536.4134448,34.825,-4.002,184.645,1.0
8.95,128.182435,37.943007,6535.294524000001,35.386,-3.897,184.731,1.0
8.9666,128.182432,37.942958,6534.1856616,35.839,-3.794,184.808,1.0
8.9833,128.182429,37.942909,6533.0874672,36.18,-3.692,184.883,1.0
9.0,128.182426,37.942861,6531.9999408,36.41,-3.592,184.958,1.0
9.0166,128.182422,37.942812,6530.923082400001,36.533,-3.493,185.035,1.0
9.0333,128.182419,37.942764,6529.8575016,36.554,-3.403,185.107,1.0
9.05,128.182415,37.942715,6528.8028936,36.476,-3.322,185.174,1.0
9.0666,128.182412,37.942666,6527.7601728,36.305,-3.246,185.239,1.0
9.0833,128.182408,37.942618,6526.7293392,36.044,-3.171,185.302,1.0
9.1,128.182404,37.942569,6525.7106976000005,35.697,-3.096,185.366,1.0
9.1166,128.1824,37.94252,6524.7045528,35.268,-3.02,185.43,1.0
9.1333,128.182396,37.942472,6523.7106,34.76,-2.942,185.494,1.0
9.15,128.182392,37.942423,6522.729144,34.175,-2.863,185.557,1.0
9.1666,128.182387,37.942374,6521.75988,33.517,-2.783,185.619,1.0
9.1833,128.182383,37.942326,6520.8031128,32.788,-2.7,185.68,1.0
9.2,128.182378,37.942277,6519.858537600001,31.991,-2.615,185.741,1.0
9.2166,128.182374,37.942228,6518.926764000001,31.128,-2.527,185.8,1.0
9.2333,128.182369,37.94218,6518.008401600001,30.397,-2.437,185.887,1.0
9.25,128.182364,37.942131,6517.1019264,29.794,-2.339,186.002,1.0
9.2666,128.182359,37.942082,6516.2073384000005,29.328,-2.231,186.136,1.0
9.2833,128.182354,37.942034,6515.324028000001,29.007,-2.116,186.279,1.0
9.3,128.182349,37.941985,6514.4516904,28.831,-1.994,186.424,1.0
9.3166,128.182344,37.941936,6513.5900208,28.796,-1.867,186.568,1.0
9.3333,128.182339,37.941888,6512.7390192,28.861,-1.738,186.709,1.0
9.35,128.182333,37.941839,6511.898076,29.003,-1.607,186.845,1.0
9.3666,128.182328,37.94179,6511.067191200001,29.207,-1.475,186.976,1.0
9.3833,128.182323,37.941741,6510.245450400001,29.46,-1.343,187.103,1.0
9.4,128.182317,37.941693,6509.4334632,29.75,-1.214,187.228,1.0
9.4166,128.182311,37.941644,6508.6312296,30.069,-1.086,187.349,1.0
9.4333,128.182306,37.941595,6507.83814,30.416,-0.961,187.47,1.0
9.45,128.1823,37.941546,6507.0554136,30.788,-0.84,187.59,1.0
9.4666,128.182294,37.941497,6506.282136,31.18,-0.721,187.709,1.0
9.4833,128.182288,37.941449,6505.5189168,31.588,-0.606,187.828,1.0
9.5,128.182282,37.9414,6504.765756000001,32.009,-0.493,187.946,1.0
9.5166,128.182276,37.941351,6504.0223488,32.442,-0.382,188.063,1.0
9.5333,128.18227,37.941302,6503.2893048000005,32.88,-0.275,188.181,1.0
9.55,128.182264,37.941253,6502.5663192,33.321,-0.17,188.3,1.0
9.5666,128.182257,37.941205,6501.8530872,33.766,-0.068,188.42,1.0
9.5833,128.182251,37.941156,6501.1499136,34.214,0.032,188.541,1.0
9.6,128.182244,37.941107,6500.4564936,34.666,0.13,188.662,1.0
9.6166,128.182238,37.941058,6499.7728272,35.12,0.227,188.784,1.0
9.6333,128.182231,37.941009,6499.099524,35.575,0.323,188.907,1.0
9.65,128.182224,37.940961,6498.4359744,36.028,0.417,189.03,1.0
9.6666,128.182217,37.940912,6497.782178400001,36.48,0.51,189.154,1.0
9.6833,128.18221,37.940863,6497.137831200001,36.932,0.602,189.279,1.0
9.7,128.182203,37.940814,6496.503542400001,37.383,0.692,189.404,1.0
9.7166,128.182196,37.940765,6495.878702399999,37.834,0.782,189.531,1.0
9.7333,128.182189,37.940716,6495.263616,38.282,0.87,189.659,1.0
9.75,128.182181,37.940668,6494.6579784000005,38.727,0.957,189.788,1.0
9.7666,128.182174,37.940619,6494.0617896,39.17,1.044,189.917,1.0
9.7833,128.182166,37.94057,6493.475049600001,39.611,1.129,190.048,1.0
9.8,128.182158,37.940521,6492.8974536000005,40.051,1.213,190.18,1.0
9.8166,128.18215,37.940472,6492.329306400001,40.489,1.296,190.312,1.0
9.8333,128.182143,37.940423,6491.770608,40.925,1.378,190.446,1.0
9.85,128.182134,37.940375,6491.2207488,41.359,1.459,190.581,1.0
9.8666,128.182126,37.940326,6490.6803384,41.79,1.539,190.716,1.0
9.8833,128.182118,37.940277,6490.1484624,42.22,1.619,190.853,1.0
9.9,128.18211,37.940228,6489.6260352,42.649,1.697,190.99,1.0
9.9166,128.182101,37.940179,6489.1121424,43.076,1.774,191.129,1.0
9.9333,128.182093,37.940131,6488.6073936,43.502,1.85,191.268,1.0
9.95,128.182084,37.940082,6488.111179200001,43.926,1.925,191.409,1.0
9.9666,128.182075,37.940033,6487.6234992,44.349,1.999,191.55,1.0
9.9833,128.182066,37.939984,6487.1446584000005,44.77,2.072,191.692,1.0
10.0,128.182057,37.939936,6486.674352000001,45.191,2.144,191.834,1.0
10.0166,128.182048,37.939887,6486.212579999999,45.611,2.215,191.978,1.0
10.0333,128.182039,37.939838,6485.759037600001,46.03,2.284,192.123,1.0
10.05,128.182029,37.939789,6485.3140296,46.448,2.353,192.268,1.0
10.0666,128.18202,37.939741,6484.8772512000005,46.865,2.421,192.414,1.0
10.0833,128.18201,37.939692,6484.4487024,47.281,2.488,192.561,1.0
10.1,128.182,37.939643,6484.028078400001,47.697,2.553,192.708,1.0
10.1166,128.181991,37.939595,6483.615684000001,48.112,2.618,192.857,1.0
10.1333,128.181981,37.939546,6483.2106048000005,48.608,2.677,193.01,1.0
10.15,128.181971,37.939497,6482.812536,49.182,2.73,193.167,1.0
10.1666,128.18196,37.939449,6482.421477600001,49.828,2.779,193.327,1.0
10.1833,128.18195,37.9394,6482.0365152,50.537,2.826,193.488,1.0
10.2,128.18194,37.939351,6481.657344,51.301,2.872,193.649,1.0
10.2166,128.181929,37.939303,6481.285183200001,52.112,2.918,193.81,1.0
10.2333,128.181918,37.939254,6480.919423200001,52.951,2.962,193.971,1.0
10.25,128.181908,37.939206,6480.5603688,53.811,3.006,194.131,1.0
10.2666,128.181897,37.939157,6480.2074104,54.689,3.049,194.292,1.0
10.2833,128.181886,37.939108,6479.8608527999995,55.579,3.09,194.454,1.0
10.3,128.181875,37.93906,6479.520391200001,56.48,3.128,194.617,1.0
10.3166,128.181863,37.939011,6479.1857208,57.389,3.164,194.782,1.0
10.3333,128.181852,37.938963,6478.8574512000005,58.278,3.199,194.948,1.0
10.35,128.18184,37.938914,6478.5352776,59.146,3.235,195.115,1.0
10.3666,128.181829,37.938866,6478.2192000000005,59.994,3.268,195.283,1.0
10.3833,128.181817,37.938817,6477.9089136,60.826,3.3,195.454,1.0
10.4,128.181805,37.938769,6477.6038088000005,61.643,3.329,195.627,1.0
10.4166,128.181793,37.938721,6477.3041904,62.449,3.355,195.803,1.0
10.4333,128.181781,37.938672,6477.0100584,63.22,3.38,195.98,1.0
10.45,128.181768,37.938624,6476.7214128000005,63.959,3.404,196.159,1.0
10.4666,128.181756,37.938576,6476.437644,64.67,3.427,196.339,1.0
10.4833,128.181743,37.938527,6476.158752000001,65.358,3.448,196.522,1.0
10.5,128.18173,37.938479,6475.884432000001,66.025,3.466,196.707,1.0
10.5166,128.181717,37.938431,6475.614684000001,66.676,3.481,196.893,1.0
10.5333,128.181704,37.938382,6475.3498128,67.299,3.495,197.081,1.0
10.55,128.181691,37.938334,6475.0892088,67.897,3.508,197.27,1.0
10.5666,128.181677,37.938286,6474.832872,68.473,3.518,197.46,1.0
10.5833,128.181664,37.938238,6474.580192800001,69.032,3.527,197.651,1.0
10.6,128.18165,37.93819,6474.3317808,69.575,3.533,197.843,1.0
10.6166,128.181636,37.938142,6474.0867216,70.106,3.536,198.036,1.0
10.6333,128.181622,37.938094,6473.845624800001,70.62,3.538,198.229,1.0
10.65,128.181608,37.938046,6473.6081856,71.12,3.538,198.423,1.0
10.6666,128.181593,37.937998,6473.3737944,71.607,3.537,198.617,1.0
10.6833,128.181579,37.93795,6473.142756000001,72.084,3.533,198.81,1.0
10.7,128.181564,37.937902,6472.915070400001,72.552,3.527,199.004,1.0
10.7166,128.181549,37.937854,6472.690128,73.013,3.519,199.198,1.0
10.7333,128.181534,37.937806,6472.4682336000005,73.466,3.51,199.392,1.0
10.75,128.181519,37.937758,6472.249082400001,73.912,3.499,199.586,1.0
10.7666,128.181504,37.93771,6472.0326744,74.353,3.486,199.779,1.0
10.7833,128.181488,37.937662,6471.819009600001,74.788,3.471,199.972,1.0
10.8,128.181473,37.937615,6471.6074784,75.219,3.455,200.165,1.0
10.8166,128.181457,37.937567,6471.3983856,75.647,3.437,200.357,1.0
10.8333,128.181441,37.937519,6471.1917312000005,76.072,3.417,200.549,1.0
10.85,128.181425,37.937471,6470.987210400001,76.493,3.396,200.74,1.0
10.8666,128.181409,37.937424,6470.784518400001,76.913,3.373,200.931,1.0
10.8833,128.181393,37.937376,6470.583960000001,77.33,3.349,201.122,1.0
10.9,128.181376,37.937329,6470.3849256,77.746,3.323,201.312,1.0
10.9166,128.181359,37.937281,6470.188024800001,78.16,3.296,201.502,1.0
10.9333,128.181343,37.937234,6469.9923432,78.574,3.268,201.691,1.0
10.95,128.181326,37.937186,6469.7984904,78.986,3.238,201.88,1.0
10.9666,128.181308,37.937139,6469.605856800001,79.397,3.206,202.069,1.0
10.9833,128.181291,37.937092,6469.414442400001,79.807,3.173,202.257,1.0
11.0,128.181274,37.937044,6469.224247200001,80.216,3.139,202.445,1.0
11.0166,128.181256,37.936997,6469.0352712,80.625,3.104,202.632,1.0
11.0333,128.181238,37.93695,6468.8472096000005,81.033,3.067,202.819,1.0
11.05,128.18122,37.936902,6468.6600624,81.44,3.029,203.006,1.0
11.0666,128.181202,37.936855,6468.4738296,81.847,2.99,203.192,1.0
11.0833,128.181184,37.936808,6468.287901600001,82.252,2.949,203.378,1.0
11.1,128.181165,37.936761,6468.102888,82.657,2.907,203.564,1.0
11.1166,128.181147,37.936714,6467.918179200001,83.062,2.864,203.749,1.0
11.1333,128.181128,37.936667,6467.73408,83.463,2.818,203.935,1.0
11.15,128.181109,37.93662,6467.5499808,83.86,2.769,204.12,1.0
11.1666,128.18109,37.936573,6467.3664912,84.255,2.718,204.305,1.0
11.1833,128.181071,37.936526,6467.1826968000005,84.649,2.665,204.489,1.0
11.2,128.181052,37.936479,6466.9989024,85.042,2.611,204.674,1.0
11.2166,128.181032,37.936433,6466.8148032,85.436,2.556,204.858,1.0
11.2333,128.181012,37.936386,6466.6303992,85.83,2.501,205.041,1.0
11.25,128.180993,37.936339,6466.4456904,86.227,2.447,205.224,1.0
11.2666,128.180972,37.936292,6466.260372,86.623,2.392,205.407,1.0
11.2833,128.180952,37.936246,6466.0747488,87.019,2.337,205.589,1.0
11.3,128.180932,37.936199,6465.888211200001,87.413,2.281,205.771,1.0
11.3166,128.180912,37.936153,6465.7007592,87.805,2.224,205.953,1.0
11.3333,128.180891,37.936106,6465.512392800001,88.195,2.166,206.134,1.0
11.35,128.18087,37.93606,6465.3234168,88.582,2.106,206.315,1.0
11.3666,128.180849,37.936013,6465.1329168,88.966,2.046,206.496,1.0
11.3833,128.180828,37.935967,6464.9415024,89.349,1.984,206.676,1.0
11.4,128.180807,37.935921,6464.748564,89.729,1.921,206.856,1.0
11.4166,128.180785,37.935875,6464.5544064000005,90.108,1.857,207.036,1.0
11.4333,128.180764,37.935828,6464.358724800001,90.484,1.792,207.215,1.0
11.45,128.180742,37.935782,6464.161519200001,90.857,1.725,207.394,1.0
11.4666,128.18072,37.935736,6463.9624848,91.228,1.658,207.573,1.0
11.4833,128.180698,37.93569,6463.7616216,91.595,1.59,207.751,1.0
11.5,128.180676,37.935644,6463.5589296,91.961,1.52,207.929,1.0
11.5166,128.180653,37.935598,6463.354104,92.326,1.449,208.107,1.0
11.5333,128.180631,37.935552,6463.1474496,92.686,1.378,208.284,1.0
11.55,128.180608,37.935506,6462.938356800001,93.044,1.305,208.461,1.0
11.5666,128.180585,37.935461,6462.7271304,93.399,1.232,208.638,1.0
11.5833,128.180562,37.935415,6462.513160800001,93.752,1.157,208.814,1.0
11.6,128.180539,37.935369,6462.2970576,94.102,1.081,208.989,1.0
11.6166,128.180516,37.935324,6462.078516,94.45,1.005,209.165,1.0
11.6333,128.180492,37.935278,6461.8569264,94.796,0.927,209.34,1.0
11.65,128.180469,37.935233,6461.6325936,95.138,0.849,209.514,1.0
11.6666,128.180445,37.935187,6461.4058224,95.477,0.769,209.688,1.0
11.6833,128.180421,37.935142,6461.1756984,95.814,0.689,209.862,1.0
11.7,128.180397,37.935096,6460.9425264,96.149,0.608,210.035,1.0
11.7166,128.180372,37.935051,6460.706611200001,96.481,0.525,210.208,1.0
11.7333,128.180348,37.935006,6460.467038400001,96.811,0.442,210.38,1.0
11.75,128.180323,37.934961,6460.2244176,97.138,0.358,210.552,1.0
11.7666,128.180299,37.934915,6459.9781391999995,97.461,0.274,210.724,1.0
11.7833,128.180274,37.93487,6459.728508,97.783,0.188,210.895,1.0
11.8,128.180249,37.934825,6459.475524,98.102,0.101,211.065,1.0
11.8166,128.180223,37.93478,6459.218577600001,98.42,0.014,211.235,1.0
11.8333,128.180198,37.934736,6458.9579736000005,98.734,-0.073,211.405,1.0
11.85,128.180173,37.934691,6458.6934071999995,99.046,-0.162,211.574,1.0
11.8666,128.180147,37.934646,6458.425183200001,99.355,-0.252,211.743,1.0
11.8833,128.180121,37.934601,6458.152692000001,99.662,-0.342,211.911,1.0
11.9,128.180095,37.934557,6457.876238400001,99.966,-0.434,212.079,1.0
11.9166,128.180069,37.934512,6457.5955176,100.269,-0.526,212.246,1.0
11.9333,128.180043,37.934467,6457.310529599999,100.569,-0.619,212.413,1.0
11.95,128.180016,37.934423,6457.021274400001,100.866,-0.712,212.579,1.0
11.9666,128.17999,37.934378,6456.727447200001,101.16,-0.806,212.745,1.0
11.9833,128.179963,37.934334,6456.4293528,101.452,-0.901,212.911,1.0
12.0,128.179936,37.93429,6456.1263816,101.743,-0.997,213.076,1.0
12.0166,128.179909,37.934246,6455.819143199999,102.031,-1.093,213.241,1.0
12.0333,128.179882,37.934201,6455.5067232,102.317,-1.19,213.405,1.0
12.05,128.179855,37.934157,6455.1897312,102.6,-1.288,213.568,1.0
12.0666,128.179827,37.934113,6454.8678624,102.881,-1.386,213.732,1.0
12.0833,128.179799,37.934069,6454.540812,103.159,-1.485,213.894,1.0
12.1,128.179772,37.934025,6454.2088848,103.436,-1.585,214.057,1.0
12.1166,128.179744,37.933981,6453.8714712,103.71,-1.685,214.219,1.0
12.1333,128.179716,37.933938,6453.5291808,103.982,-1.786,214.38,1.0
12.15,128.179688,37.933894,6453.181708800001,104.252,-1.888,214.541,1.0
12.1666,128.179659,37.93385,6452.8284456,104.519,-1.99,214.702,1.0
12.1833,128.179631,37.933807,6452.470000800001,104.785,-2.093,214.862,1.0
12.2,128.179602,37.933763,6452.1060696,105.048,-2.196,215.021,1.0
12.2166,128.179573,37.93372,6451.7366520000005,105.31,-2.3,215.18,1.0
12.2333,128.179544,37.933676,6451.3614431999995,105.569,-2.404,215.339,1.0
12.25,128.179515,37.933633,6450.9804432,105.826,-2.509,215.497,1.0
12.2666,128.179486,37.93359,6450.5936520000005,106.08,-2.615,215.655,1.0
12.2833,128.179457,37.933546,6450.201069600001,106.333,-2.721,215.813,1.0
12.3,128.179427,37.933503,6449.802696000001,106.584,-2.827,215.97,1.0
12.3166,128.179397,37.93346,6449.3979216,106.833,-2.935,216.126,1.0
12.3333,128.179368,37.933417,6448.987356000001,107.079,-3.042,216.283,1.0
12.35,128.179338,37.933374,6448.5706944,107.324,-3.15,216.438,1.0
12.3666,128.179307,37.933331,6448.147632,107.566,-3.259,216.594,1.0
12.3833,128.179277,37.933288,6447.718473600001,107.806,-3.368,216.749,1.0
12.4,128.179247,37.933246,6447.282914400001,108.045,-3.478,216.903,1.0
12.4166,128.179216,37.933203,6446.840954400001,108.282,-3.588,217.057,1.0
12.4333,128.179186,37.93316,6446.3922888,108.516,-3.698,217.211,1.0
12.45,128.179155,37.933118,6445.937527200001,108.749,-3.809,217.364,1.0
12.4666,128.179124,37.933075,6445.4757552,108.979,-3.921,217.517,1.0
12.4833,128.179093,37.933033,6445.0075824000005,109.208,-4.032,217.67,1.0
12.5,128.179062,37.932991,6444.5323992,109.435,-4.145,217.822,1.0
12.5166,128.17903,37.932948,6444.050815200001,109.66,-4.258,217.973,1.0
12.5333,128.178999,37.932906,6443.5622207999995,109.883,-4.371,218.125,1.0
12.55,128.178967,37.932864,6443.066616,110.104,-4.484,218.276,1.0
12.5666,128.178935,37.932822,6442.564000800001,110.323,-4.598,218.426,1.0
12.5833,128.178904,37.93278,6442.054375199999,110.541,-4.713,218.576,1.0
12.6,128.178871,37.932738,6441.5377392,110.756,-4.827,218.726,1.0
12.6166,128.178839,37.932696,6441.014092800001,110.971,-4.943,218.876,1.0
12.6333,128.178807,37.932655,6440.483131200001,111.183,-5.058,219.025,1.0
12.65,128.178775,37.932613,6439.944854400001,111.393,-5.174,219.173,1.0
12.6666,128.178742,37.932571,6439.3992624,111.601,-5.291,219.322,1.0
12.6833,128.178709,37.93253,6438.8460504,111.807,-5.407,219.47,1.0
12.7,128.178676,37.932488,6438.285828000001,112.012,-5.524,219.617,1.0
12.7166,128.178644,37.932447,6437.7179856,112.216,-5.642,219.765,1.0
12.7333,128.17861,37.932406,6437.1425232,112.417,-5.759,219.912,1.0
12.75,128.178577,37.932365,6436.559440800001,112.617,-5.877,220.058,1.0
12.7666,128.178544,37.932323,6435.968738400001,112.815,-5.996,220.205,1.0
12.7833,128.17851,37.932282,6435.370111200001,113.011,-6.115,220.351,1.0
12.8,128.178477,37.932241,6434.7638640000005,113.205,-6.234,220.496,1.0
12.8166,128.178443,37.9322,6434.149996800001,113.399,-6.353,220.642,1.0
12.8333,128.178409,37.932159,6433.528204800001,113.59,-6.473,220.787,1.0
12.85,128.178375,37.932119,6432.898488000001,113.779,-6.593,220.931,1.0
12.8666,128.178341,37.932078,6432.260541600001,113.967,-6.713,221.076,1.0
12.8833,128.178307,37.932037,6431.614670400001,114.153,-6.834,221.22,1.0
12.9,128.178272,37.931997,6430.960874400001,114.338,-6.955,221.363,1.0
12.9166,128.178238,37.931956,6430.2991536,114.521,-7.076,221.507,1.0
12.9333,128.178203,37.931916,6429.6288984,114.703,-7.197,221.65,1.0
12.95,128.178168,37.931876,6428.9504136000005,114.883,-7.319,221.793,1.0
12.9666,128.178134,37.931835,6428.264004000001,115.061,-7.441,221.935,1.0
12.9833,128.178099,37.931795,6427.569060000001,115.237,-7.564,222.078,1.0
13.0,128.178063,37.931755,6426.8655816,115.413,-7.686,222.219,1.0
13.0166,128.178028,37.931715,6426.154178400001,115.586,-7.809,222.361,1.0
13.0333,128.177993,37.931675,6425.433936,115.759,-7.932,222.503,1.0
13.0499,128.177957,37.931635,6424.705159200001,115.929,-8.055,222.644,1.0
13.0666,128.177922,37.931596,6423.9681528,116.098,-8.179,222.785,1.0
13.0833,128.177886,37.931556,6423.2223072,116.265,-8.303,222.925,1.0
13.1,128.17785,37.931516,6422.4679272,116.431,-8.427,223.066,1.0
13.1166,128.177814,37.931477,6421.704708,116.596,-8.551,223.206,1.0
13.1333,128.177778,37.931437,6420.9329544,116.759,-8.676,223.345,1.0
13.15,128.177742,37.931398,6420.1523615999995,116.921,-8.801,223.485,1.0
13.1666,128.177706,37.931359,6419.3632344,117.081,-8.926,223.624,1.0
13.1833,128.177669,37.93132,6418.5649632,117.24,-9.051,223.764,1.0
13.2,128.177633,37.93128,6417.7578527999995,117.397,-9.176,223.902,1.0
13.2166,128.177596,37.931241,6416.9419032,117.553,-9.302,224.041,1.0
13.2333,128.177559,37.931202,6416.1168096,117.708,-9.428,224.179,1.0
13.25,128.177522,37.931164,6415.2828768,117.86,-9.554,224.317,1.0
13.2666,128.177485,37.931125,6414.4398,118.012,-9.68,224.455,1.0
13.2833,128.177448,37.931086,6413.587579200001,118.162,-9.807,224.593,1.0
13.3,128.177411,37.931047,6412.726214400001,118.311,-9.934,224.731,1.0
13.3166,128.177374,37.931009,6411.856010400001,118.459,-10.061,224.868,1.0
13.3333,128.177336,37.93097,6410.9763576,118.605,-10.188,225.005,1.0
13.35,128.177299,37.930932,6410.087256000001,118.75,-10.315,225.142,1.0
13.3666,128.177261,37.930894,6409.189315200001,118.893,-10.442,225.279,1.0
13.3833,128.177223,37.930855,6408.2816207999995,119.035,-10.57,225.415,1.0
13.4,128.177185,37.930817,6407.364782400001,119.176,-10.698,225.551,1.0
13.4166,128.177147,37.930779,6406.4388,119.315,-10.826,225.687,1.0
13.4333,128.177109,37.930741,6405.503064,119.454,-10.954,225.823,1.0
13.45,128.177071,37.930703,6404.557879200001,119.59,-11.082,225.959,1.0
13.4666,128.177032,37.930666,6403.6032456,119.726,-11.211,226.094,1.0
13.4833,128.176994,37.930628,6402.6391632,119.86,-11.34,226.23,1.0
13.5,128.176955,37.93059,6401.6653272,119.993,-11.468,226.365,1.0
13.5166,128.176917,37.930553,6400.682042400001,120.125,-11.598,226.5,1.0
13.5333,128.176878,37.930515,6399.689308800001,120.255,-11.727,226.635,1.0
13.55,128.176839,37.930478,6398.6865168,120.385,-11.856,226.769,1.0
13.5666,128.1768,37.930441,6397.674276,120.512,-11.985,226.904,1.0
13.5833,128.176761,37.930404,6396.652281600001,120.639,-12.115,227.038,1.0
13.6,128.176722,37.930366,6395.620533600001,120.765,-12.245,227.173,1.0
13.6166,128.176683,37.930329,6394.579032000001,120.889,-12.375,227.307,1.0
13.6333,128.176643,37.930293,6393.527472,121.012,-12.505,227.44,1.0
13.65,128.176604,37.930256,6392.4664632,121.134,-12.635,227.574,1.0
13.6666,128.176564,37.930219,6391.3950912,121.254,-12.765,227.708,1.0
13.6833,128.176525,37.930182,6390.314270400001,121.374,-12.896,227.841,1.0
13.7,128.176485,37.930146,6389.2230864,121.492,-13.026,227.975,1.0
13.7166,128.176445,37.930109,6388.1221488,121.609,-13.157,228.108,1.0
13.7333,128.176405,37.930073,6387.0111528,121.725,-13.288,228.241,1.0
13.75,128.176365,37.930037,6385.8900984,121.84,-13.419,228.374,1.0
13.7666,128.176325,37.93,6384.7592904,121.953,-13.55,228.507,1.0
13.7833,128.176284,37.929964,6383.6181192,122.066,-13.681,228.64,1.0
13.8,128.176244,37.929928,6382.4668896,122.177,-13.812,228.772,1.0
13.8166,128.176204,37.929892,6381.305296800001,122.287,-13.944,228.905,1.0
13.8333,128.176163,37.929856,6380.1336456,122.396,-14.075,229.037,1.0
13.85,128.176122,37.929821,6378.951936,122.504,-14.207,229.17,1.0
13.8666,128.176082,37.929785,6377.760168000001,122.611,-14.339,229.302,1.0
13.8833,128.176041,37.929749,6376.557732,122.717,-14.471,229.434,1.0
13.9,128.176,37.929714,6375.3452376000005,122.821,-14.603,229.566,1.0
13.9166,128.175959,37.929678,6374.12238,122.925,-14.735,229.698,1.0
13.9333,128.175918,37.929643,6372.889464000001,123.027,-14.867,229.83,1.0
13.95,128.175877,37.929608,6371.64588,123.128,-14.999,229.962,1.0
13.9666,128.175835,37.929573,6370.3919328,123.229,-15.131,230.093,1.0
13.9833,128.175794,37.929538,6369.1276224,123.328,-15.264,230.225,1.0
14.0,128.175752,37.929503,6367.8529488,123.426,-15.396,230.356,1.0
14.0166,128.175711,37.929468,6366.5679119999995,123.523,-15.529,230.488,1.0
14.0333,128.175669,37.929433,6365.272512,123.619,-15.662,230.619,1.0
14.05,128.175628,37.929399,6363.966444,123.714,-15.795,230.751,1.0
14.0666,128.175586,37.929364,6362.649708,123.807,-15.928,230.882,1.0
14.0833,128.175544,37.92933,6361.3226088,123.9,-16.061,231.013,1.0
14.1,128.175502,37.929295,6359.9848416,123.992,-16.194,231.144,1.0
14.1166,128.17546,37.929261,6358.636711200001,124.083,-16.327,231.275,1.0
14.1333,128.175418,37.929227,6357.2779128,124.173,-16.46,231.407,1.0
14.15,128.175375,37.929193,6355.908446400001,124.261,-16.594,231.538,1.0
14.1666,128.175333,37.929159,6354.528312,124.349,-16.727,231.669,1.0
14.1833,128.175291,37.929125,6353.1375096,124.435,-16.86,231.8,1.0
14.2,128.175248,37.929091,6351.7360392,124.521,-16.994,231.93,1.0
14.2166,128.175206,37.929057,6350.323900800001,124.606,-17.128,232.061,1.0
14.2333,128.175163,37.929023,6348.9010944,124.69,-17.261,232.192,1.0
14.25,128.17512,37.92899,6347.4673152000005,124.772,-17.395,232.323,1.0
14.2666,128.175077,37.928957,6346.0231728,124.854,-17.529,232.454,1.0
14.2833,128.175035,37.928923,6344.5680575999995,124.935,-17.663,232.585,1.0
14.3,128.174992,37.92889,6343.1019696,125.014,-17.797,232.715,1.0
14.3166,128.174949,37.928857,6341.6252136,125.093,-17.931,232.846,1.0
14.3333,128.174905,37.928824,6340.1377896,125.171,-18.065,232.977,1.0
14.35,128.174862,37.928791,6338.639392800001,125.248,-18.199,233.108,1.0
14.3666,128.174819,37.928758,6337.1300232,125.324,-18.333,233.238,1.0
14.3833,128.174776,37.928725,6335.6099856,125.399,-18.468,233.369,1.0
14.4,128.174732,37.928693,6334.078670400001,125.473,-18.602,233.5,1.0
14.4166,128.174689,37.92866,6332.5366872,125.546,-18.736,233.631,1.0
14.4333,128.174645,37.928628,6330.984036,125.618,-18.871,233.761,1.0
14.45,128.174601,37.928595,6329.4201072,125.689,-19.005,233.892,1.0
