Time,Longitude,Latitude,Altitude,Roll (deg),Pitch (deg),Yaw (deg),Health
0.0,128.181881,37.968463,7002.830292000001,0.0,-0.003,179.999,1.0
0.0166,128.181881,37.968418,7002.8116992000005,0.0,-0.012,180.0,1.0
0.0333,128.181881,37.968374,7002.792496800001,0.0,-0.026,180.0,1.0
0.05,128.181881,37.968329,7002.7720752,0.0,-0.042,179.999,1.0
0.0666,128.181881,37.968284,7002.751044,0.0,-0.06,179.999,1.0
0.0833,128.181881,37.968239,7002.7287936,0.0,-0.08,179.999,1.0
0.1,128.181881,37.968194,7002.705933600001,0.0,-0.1,179.999,1.0
0.1166,128.181881,37.968149,7002.682159200001,0.0,-0.12,179.999,1.0
0.1333,128.181881,37.968104,7002.657470400001,-0.001,-0.14,179.999,1.0
0.15,128.181881,37.968059,7002.6315624,-0.001,-0.161,179.999,1.0
0.1666,128.181881,37.968014,7002.6050448000005,-0.002,-0.181,179.999,1.0
0.1833,128.181881,37.967969,7002.577308,-0.002,-0.201,179.999,1.0
0.2,128.181881,37.967924,7002.548656800001,-0.002,-0.221,179.999,1.0
0.2166,128.181881,37.967879,7002.519091200001,-0.003,-0.24,179.999,1.0
0.2333,128.181881,37.967834,7002.488611200001,-0.003,-0.26,179.999,1.0
0.25,128.181881,37.967788,7002.456912,-0.004,-0.279,179.999,1.0
0.2666,128.181881,37.967743,7002.4242984,-0.004,-0.297,179.999,1.0
0.2833,128.181881,37.967698,7002.390770400001,-0.005,-0.316,179.999,1.0
0.3,128.181881,37.967653,7002.356023200001,-0.005,-0.334,180.0,1.0
0.3166,128.181881,37.967608,7002.3203616,-0.005,-0.352,180.0,1.0
0.3333,128.181881,37.967563,7002.283785600001,-0.006,-0.37,180.0,1.0
0.35,128.181881,37.967518,7002.245990400001,-0.006,-0.387,180.0,1.0
0.3666,128.181881,37.967473,7002.206976,-0.007,-0.405,180.0,1.0
0.3833,128.181881,37.967428,7002.1670472000005,-0.007,-0.422,180.0,1.0
0.4,128.181881,37.967382,7002.126204,-0.008,-0.439,180.0,1.0
0.4166,128.181881,37.967337,7002.0841416,-0.008,-0.455,180.0,1.0
0.4333,128.181881,37.967292,7002.041164800001,-0.009,-0.472,180.0,1.0
0.45,128.181881,37.967247,7001.9969688,-0.009,-0.488,180.0,1.0
0.4666,128.181881,37.967202,7001.9515536,-0.009,-0.505,180.0,1.0
0.4833,128.181881,37.967157,7001.905224000001,-0.01,-0.521,180.0,1.0
0.5,128.181881,37.967111,7001.85798,-0.01,-0.537,180.0,1.0
0.5166,128.181881,37.967066,7001.809212,-0.011,-0.552,180.0,1.0
0.5333,128.181881,37.967021,7001.7595296,-0.011,-0.568,180.0,1.0
0.55,128.181881,37.966976,7001.7089328,-0.011,-0.584,180.0,1.0
0.5666,128.181881,37.966931,7001.656812,-0.012,-0.599,180.0,1.0
0.5833,128.181881,37.966885,7001.6040816,-0.012,-0.614,180.0,1.0
0.6,128.181881,37.96684,7001.5498272,-0.012,-0.63,180.0,1.0
0.6166,128.181881,37.966795,7001.4946584,-0.013,-0.645,180.0,1.0
0.6333,128.181881,37.96675,7001.438270400001,-0.013,-0.66,180.0,1.0
0.65,128.181881,37.966704,7001.3806632000005,-0.014,-0.675,180.0,1.0
0.6666,128.181881,37.966659,7001.322141600001,-0.014,-0.69,180.0,1.0
0.6833,128.181881,37.966614,7001.2624008,-0.014,-0.704,180.0,1.0
0.7,128.181881,37.966568,7001.2014408000005,-0.015,-0.719,180.0,1.0
0.7166,128.181881,37.966523,7001.1395664,-0.015,-0.734,180.0,1.0
0.7333,128.181881,37.966478,7001.0764728,-0.015,-0.748,180.0,1.0
0.75,128.181881,37.966432,7001.01216,-0.016,-0.763,180.0,1.0
0.7666,128.181881,37.966387,7000.946628000001,-0.016,-0.777,180.0,1.0
0.7833,128.181881,37.966342,7000.8801816000005,-0.016,-0.791,180.0,1.0
0.8,128.181881,37.966296,7000.812516,-0.017,-0.805,180.0,1.0
0.8166,128.181881,37.966251,7000.7436312,-0.017,-0.82,180.0,1.0
0.8333,128.181881,37.966206,7000.6735272000005,-0.017,-0.834,180.0,1.0
0.85,128.181881,37.96616,7000.602508800001,-0.017,-0.848,180.0,1.0
0.8666,128.181881,37.966115,7000.5299663999995,-0.018,-0.862,180.0,1.0
0.8833,128.181881,37.966069,7000.456509600001,-0.018,-0.876,180.001,1.0
0.9,128.181881,37.966024,7000.382138400001,-0.018,-0.89,180.001,1.0
0.9166,128.181881,37.965979,7000.3062432,-0.019,-0.904,180.001,1.0
0.9333,128.181881,37.965933,7000.2294336,-0.019,-0.917,180.001,1.0
0.95,128.181881,37.965888,7000.151404800001,-0.019,-0.931,180.001,1.0
0.9666,128.181881,37.965842,7000.072156800001,-0.02,-0.945,180.001,1.0
0.9833,128.181881,37.965797,6999.9916896,-0.02,-0.959,180.001,1.0
1.0,128.181881,37.965751,6999.910308,-0.02,-0.972,180.001,1.0
1.0166,128.181881,37.965706,6999.8277072,-0.02,-0.986,180.001,1.0
1.0333,128.181881,37.96566,6999.7438872,-0.021,-1.0,180.001,1.0
1.05,128.181881,37.965615,6999.658848,-0.021,-1.013,180.001,1.0
1.0666,128.181881,37.965569,6999.5728944,-0.021,-1.027,180.001,1.0
1.0833,128.181881,37.965524,6999.4854168,-0.021,-1.04,180.001,1.0
1.1,128.181881,37.965478,6999.3970248000005,-0.022,-1.054,180.001,1.0
1.1166,128.181881,37.965433,6999.3074136000005,-0.022,-1.067,180.001,1.0
1.1333,128.181881,37.965387,6999.216583200001,-0.022,-1.081,180.001,1.0
1.15,128.181881,37.965342,6999.124838400001,-0.022,-1.094,180.001,1.0
1.1666,128.181881,37.965296,6999.031569600001,-0.023,-1.107,180.001,1.0
1.1833,128.181881,37.96525,6998.9373864,-0.023,-1.121,180.001,1.0
1.2,128.181881,37.965205,6998.841984000001,-0.023,-1.134,180.001,1.0
1.2166,128.181881,37.965159,6998.7456672,-0.023,-1.147,180.001,1.0
1.2333,128.181881,37.965114,6998.6478264,-0.024,-1.161,180.001,1.0
1.25,128.181881,37.965068,6998.5490712,-0.024,-1.174,180.001,1.0
1.2666,128.181881,37.965022,6998.449096800001,-0.024,-1.187,180.002,1.0
1.2833,128.181881,37.964977,6998.3479032000005,-0.024,-1.2,180.002,1.0
1.3,128.181881,37.964931,6998.245490400001,-0.025,-1.213,180.002,1.0
1.3166,128.181881,37.964885,6998.1418584,-0.025,-1.227,180.002,1.0
1.3333,128.181881,37.96484,6998.037312,-0.025,-1.24,180.002,1.0
1.35,128.181881,37.964794,6997.931546400001,-0.025,-1.253,180.002,1.0
1.3666,128.181881,37.964748,6997.8245615999995,-0.026,-1.266,180.002,1.0
1.3833,128.18188,37.964703,6997.7163576,-0.026,-1.279,180.002,1.0
1.4,128.18188,37.964657,6997.6069344,-0.026,-1.292,180.002,1.0
1.4166,128.18188,37.964611,6997.496596800001,-0.026,-1.305,180.002,1.0
1.4333,128.18188,37.964565,6997.38504,-0.026,-1.318,180.002,1.0
1.45,128.18188,37.96452,6997.272264,-0.027,-1.331,180.002,1.0
1.4666,128.18188,37.964474,6997.158268800001,-0.027,-1.344,180.002,1.0
1.4833,128.18188,37.964428,6997.0433592,-0.027,-1.357,180.002,1.0
1.5,128.18188,37.964382,6996.9269256,-0.027,-1.37,180.002,1.0
1.5166,128.18188,37.964337,6996.8095776,-0.028,-1.383,180.002,1.0
1.5333,128.18188,37.964291,6996.691010400001,-0.028,-1.396,180.002,1.0
1.55,128.18188,37.964245,6996.571224,-0.028,-1.409,180.002,1.0
1.5666,128.18188,37.964199,6996.4505232,-0.028,-1.422,180.002,1.0
1.5833,128.18188,37.964153,6996.3282984,-0.028,-1.435,180.003,1.0
1.6,128.18188,37.964108,6996.205159200001,-0.029,-1.448,180.003,1.0
1.6166,128.18188,37.964062,6996.0808008,-0.029,-1.461,180.003,1.0
1.6333,128.18188,37.964016,6995.955528,-0.029,-1.474,180.003,1.0
1.65,128.18188,37.96397,6995.8287312,-0.029,-1.487,180.003,1.0
1.6666,128.18188,37.963924,6995.70102,-0.029,-1.499,180.003,1.0
1.6833,128.18188,37.963878,6995.5720896,-0.03,-1.512,180.003,1.0
1.7,128.18188,37.963832,6995.44194,-0.03,-1.525,180.003,1.0
1.7166,128.18188,37.963787,6995.3105712,-0.03,-1.538,180.003,1.0
1.7333,128.18188,37.963741,6995.177983200001,-0.03,-1.551,180.003,1.0
1.75,128.18188,37.963695,6995.0444808,-0.03,-1.563,180.003,1.0
1.7666,128.18188,37.963649,6994.909759200001,-0.031,-1.576,180.003,1.0
1.7833,128.18188,37.963603,6994.7738184,-0.031,-1.589,180.003,1.0
1.8,128.18188,37.963557,6994.6369632000005,-0.031,-1.602,180.003,1.0
1.8166,128.18188,37.963511,6994.498584000001,-0.031,-1.614,180.003,1.0
1.8333,128.18188,37.963465,6994.359290400001,-0.031,-1.627,180.003,1.0
1.85,128.18188,37.963419,6994.2187776,-0.032,-1.64,180.003,1.0
1.8666,128.18188,37.963373,6994.0770456,-0.032,-1.652,180.003,1.0
1.8833,128.18188,37.963327,6993.9343992,-0.032,-1.665,180.003,1.0
1.9,128.18188,37.963281,6993.7902288000005,-0.032,-1.678,180.004,1.0
1.9166,128.18188,37.963235,6993.645144,-0.032,-1.691,180.004,1.0
1.9333,128.18188,37.963189,6993.49884,-0.033,-1.703,180.004,1.0
1.95,128.18188,37.963143,6993.3513168,-0.033,-1.716,180.004,1.0
1.9666,128.18188,37.963097,6993.202879200001,-0.033,-1.728,180.004,1.0
1.9833,128.18188,37.963051,6993.0532224,-0.033,-1.741,180.004,1.0
2.0,128.18188,37.963005,6992.9023464,-0.033,-1.754,180.004,1.0
2.0166,128.18188,37.962959,6992.750251200001,-0.033,-1.766,180.004,1.0
2.0333,128.18188,37.962913,6992.596936800001,-0.034,-1.779,180.004,1.0
2.05,128.18188,37.962867,6992.4427080000005,-0.034,-1.791,180.004,1.0
2.0666,128.18188,37.96282,6992.287260000001,-0.034,-1.804,180.004,1.0
2.0833,128.18188,37.962774,6992.130592800001,-0.034,-1.816,180.004,1.0
2.1,128.18188,37.962728,6991.973011200001,-0.034,-1.829,180.004,1.0
2.1166,128.18188,37.962682,6991.813905600001,-0.035,-1.842,180.004,1.0
2.1333,128.18188,37.962636,6991.6538856,-0.035,-1.854,180.004,1.0
2.15,128.18188,37.96259,6991.492646400001,-0.035,-1.867,180.004,1.0
2.1666,128.18188,37.962544,6991.330188000001,-0.035,-1.879,180.004,1.0
2.1833,128.18188,37.962497,6991.166815200001,-0.035,-1.892,180.004,1.0
2.2,128.18188,37.962451,6991.0022232,-0.035,-1.904,180.005,1.0
2.2166,128.18188,37.962405,6990.836412,-0.036,-1.916,180.005,1.0
2.2333,128.18188,37.962359,6990.669381600001,-0.036,-1.929,180.005,1.0
2.25,128.18188,37.962313,6990.501132,-0.036,-1.941,180.005,1.0
2.2666,128.18188,37.962266,6990.331968,-0.036,-1.954,180.005,1.0
2.2833,128.18188,37.96222,6990.1615848,-0.036,-1.966,180.005,1.0
2.3,128.18188,37.962174,6989.9899824,-0.037,-1.979,180.005,1.0
2.3166,128.18188,37.962128,6989.817465600001,-0.037,-1.991,180.005,1.0
2.3333,128.18188,37.962081,6989.6437295999995,-0.037,-2.003,180.005,1.0
2.35,128.18188,37.962035,6989.468774400001,-0.037,-2.016,180.005,1.0
2.3666,128.18188,37.961989,6989.292600000001,-0.037,-2.028,180.005,1.0
2.3833,128.18188,37.961942,6989.115206400001,-0.037,-2.04,180.005,1.0
2.4,128.18188,37.961896,6988.9368984,-0.038,-2.053,180.005,1.0
2.4166,128.18188,37.96185,6988.7573712,-0.038,-2.065,180.005,1.0
2.4333,128.18188,37.961803,6988.576624800001,-0.038,-2.077,180.005,1.0
2.45,128.18188,37.961757,6988.394964,-0.038,-2.09,180.005,1.0
2.4666,128.18188,37.961711,6988.212084000001,-0.038,-2.102,180.005,1.0
2.4833,128.18188,37.961664,6988.0279848,-0.039,-2.114,180.005,1.0
2.5,128.18188,37.961618,6987.8426664,-0.039,-2.127,180.006,1.0
2.5166,128.18188,37.961572,6987.656128800001,-0.039,-2.139,180.006,1.0
2.5333,128.18188,37.961525,6987.4686768,-0.039,-2.151,180.006,1.0
2.55,128.18188,37.961479,6987.280005600001,-0.039,-2.163,180.006,1.0
2.5666,128.18188,37.961432,6987.09042,-0.039,-2.175,180.006,1.0
2.5833,128.18188,37.961386,6986.899310400001,-0.04,-2.188,180.006,1.0
2.6,128.18188,37.961339,6986.7072864,-0.04,-2.2,180.006,1.0
2.6166,128.18188,37.961293,6986.5140432,-0.04,-2.212,180.006,1.0
2.6333,128.18188,37.961246,6986.3198856,-0.04,-2.224,180.006,1.0
2.65,128.18188,37.9612,6986.124204000001,-0.04,-2.236,180.006,1.0
2.6666,128.18188,37.961153,6985.927608,-0.04,-2.249,180.006,1.0
2.6833,128.18188,37.961107,6985.730097600001,-0.041,-2.261,180.006,1.0
2.7,128.18188,37.96106,6985.5310632,-0.041,-2.273,180.006,1.0
2.7166,128.18188,37.961014,6985.331114400001,-0.041,-2.285,180.006,1.0
2.7333,128.18188,37.960967,6985.1299464,-0.041,-2.297,180.006,1.0
2.75,128.18188,37.960921,6984.9275592,-0.041,-2.309,180.006,1.0
2.7666,128.18188,37.960874,6984.7242576,-0.042,-2.321,180.006,1.0
2.7833,128.18188,37.960828,6984.519736800001,-0.042,-2.333,180.007,1.0
2.8,128.18188,37.960781,6984.3139968000005,-0.042,-2.345,180.007,1.0
2.8166,128.18188,37.960735,6984.107037600001,-0.042,-2.357,180.007,1.0
2.8333,128.18188,37.960688,6983.899164,-0.042,-2.37,180.007,1.0
2.85,128.18188,37.960641,6983.6900712,-0.042,-2.382,180.007,1.0
2.8666,128.18188,37.960595,6983.480064,-0.043,-2.394,180.007,1.0
2.8833,128.18188,37.960548,6983.268532800001,-0.043,-2.406,180.007,1.0
2.9,128.18188,37.960501,6983.056087200001,-0.043,-2.418,180.007,1.0
2.9166,128.18188,37.960455,6982.8424224,-0.043,-2.43,180.007,1.0
2.9333,128.18188,37.960408,6982.6278432,-0.043,-2.442,180.007,1.0
2.95,128.18188,37.960362,6982.4120448,-0.044,-2.454,180.007,1.0
2.9666,128.18188,37.960315,6982.1950272,-0.044,-2.465,180.007,1.0
2.9833,128.18188,37.960268,6981.9767904,-0.044,-2.477,180.007,1.0
3.0,128.18188,37.960221,6981.7576392,-0.044,-2.489,180.007,1.0
3.0166,128.18188,37.960175,6981.537268800001,-0.044,-2.501,180.007,1.0
3.0333,128.18188,37.960128,6981.315679200001,-0.044,-2.513,180.007,1.0
3.05,128.18188,37.960081,6981.0931752,-0.045,-2.525,180.007,1.0
3.0666,128.18188,37.960034,6980.869452000001,-0.045,-2.537,180.008,1.0
3.0833,128.18188,37.959988,6980.644509600001,-0.045,-2.549,180.008,1.0
3.1,128.18188,37.959941,6980.4186528,-0.045,-2.561,180.008,1.0
3.1166,128.18188,37.959894,6980.191272,-0.045,-2.573,180.008,1.0
3.1333,128.181879,37.959847,6979.9632816,-0.046,-2.584,180.008,1.0
3.15,128.181879,37.959801,6979.7337672,-0.046,-2.596,180.008,1.0
3.1666,128.181879,37.959754,6979.503338400001,-0.046,-2.608,180.008,1.0
3.1833,128.181879,37.959707,6979.2716904,-0.046,-2.62,180.008,1.0
3.2,128.181879,37.95966,6979.0388232000005,-0.046,-2.632,180.008,1.0
3.2166,128.181879,37.959613,6978.805041600001,-0.046,-2.644,180.008,1.0
3.2333,128.181879,37.959566,6978.5700408,-0.047,-2.656,180.008,1.0
3.25,128.181879,37.959519,6978.3338208,-0.047,-2.668,180.008,1.0
3.2666,128.181879,37.959473,6978.0966864,-0.047,-2.679,180.008,1.0
3.2833,128.181879,37.959426,6977.8583328,-0.047,-2.691,180.008,1.0
3.3,128.181879,37.959379,6977.619064800001,-0.047,-2.703,180.008,1.0
3.3166,128.181879,37.959332,6977.378272800001,-0.048,-2.715,180.008,1.0
3.3333,128.181879,37.959285,6977.1365663999995,-0.048,-2.727,180.008,1.0
3.35,128.181879,37.959238,6976.893945600001,-0.048,-2.739,180.009,1.0
3.3666,128.181879,37.959191,6976.649800800001,-0.048,-2.751,180.009,1.0
3.3833,128.181879,37.959144,6976.4047416,-0.048,-2.763,180.009,1.0
3.4,128.181879,37.959097,6976.1584632,-0.049,-2.775,180.009,1.0
3.4166,128.181879,37.95905,6975.911270400001,-0.049,-2.787,180.009,1.0
3.4333,128.181879,37.959003,6975.6628584,-0.049,-2.798,180.009,1.0
3.45,128.181879,37.958956,6975.413227200001,-0.049,-2.81,180.009,1.0
3.4666,128.181879,37.958909,6975.162681600001,-0.049,-2.822,180.009,1.0
3.4833,128.181879,37.958862,6974.9109168,-0.05,-2.834,180.009,1.0
3.5,128.181879,37.958815,6974.657932800001,-0.05,-2.846,180.009,1.0
3.5166,128.181879,37.958768,6974.4040344,-0.05,-2.858,180.009,1.0
3.5333,128.181879,37.958721,6974.1489168,-0.05,-2.87,180.009,1.0
3.55,128.181879,37.958674,6973.89258,-0.05,-2.881,180.009,1.0
3.5666,128.181879,37.958627,6973.635024000001,-0.051,-2.893,180.009,1.0
3.5833,128.181879,37.95858,6973.3765536,-0.051,-2.905,180.009,1.0
3.6,128.181879,37.958532,6973.1171688,-0.051,-2.917,180.009,1.0
3.6166,128.181879,37.958485,6972.8562600000005,-0.051,-2.929,180.009,1.0
3.6333,128.181879,37.958438,6972.5944368,-0.051,-2.941,180.009,1.0
3.65,128.181879,37.958391,6972.3313944,-0.052,-2.953,180.01,1.0
3.6666,128.181879,37.958344,6972.067437600001,-0.052,-2.964,180.01,1.0
3.6833,128.181879,37.958297,6971.8022616,-0.052,-2.976,180.01,1.0
3.7,128.181879,37.95825,6971.5358664,-0.052,-2.988,180.01,1.0
3.7166,128.181879,37.958202,6971.268556800001,-0.052,-3.0,180.01,1.0
3.7333,128.181879,37.958155,6971.000028,-0.053,-3.012,180.01,1.0
3.75,128.181879,37.958108,6970.73028,-0.053,-3.023,180.01,1.0
3.7666,128.181879,37.958061,6970.459312800001,-0.053,-3.035,180.01,1.0
3.7833,128.181879,37.958013,6970.1874312,-0.053,-3.047,180.01,1.0
3.8,128.181879,37.957966,6969.9146352,-0.053,-3.059,180.01,1.0
3.8166,128.181879,37.957919,6969.640315200001,-0.054,-3.071,180.01,1.0
3.8333,128.181879,37.957872,6969.3650808,-0.054,-3.082,180.01,1.0
3.85,128.181879,37.957824,6969.088627200001,-0.054,-3.094,180.01,1.0
3.8666,128.181879,37.957777,6968.811259200001,-0.054,-3.106,180.01,1.0
3.8833,128.181879,37.95773,6968.532672,-0.054,-3.118,180.01,1.0
3.9,128.181879,37.957682,6968.2528656,-0.055,-3.129,180.01,1.0
3.9166,128.181879,37.957635,6967.9721448,-0.055,-3.141,180.01,1.0
3.9333,128.181879,37.957588,6967.6902048,-0.055,-3.153,180.01,1.0
3.95,128.181879,37.95754,6967.4070456,-0.055,-3.165,180.011,1.0
3.9666,128.181879,37.957493,6967.122972,-0.055,-3.176,180.011,1.0
3.9833,128.181879,37.957446,6966.837679200001,-0.056,-3.188,180.011,1.0
4.0,128.181879,37.957398,6966.5511672,-0.056,-3.2,180.011,1.0
4.0166,128.181879,37.957351,6966.2637408,-0.056,-3.211,180.011,1.0
4.0333,128.181879,37.957303,6965.9750952,-0.056,-3.223,180.011,1.0
4.05,128.181879,37.957256,6965.6852304,-0.057,-3.235,180.011,1.0
4.0666,128.181879,37.957209,6965.394451200001,-0.057,-3.247,180.011,1.0
4.0833,128.181879,37.957161,6965.1024528,-0.057,-3.258,180.011,1.0
4.1,128.181879,37.957114,6964.8092352,-0.057,-3.27,180.011,1.0
4.1166,128.181879,37.957066,6964.5151032,-0.057,-3.282,180.011,1.0
4.1333,128.181879,37.957019,6964.219752000001,-0.058,-3.293,180.011,1.0
4.15,128.181879,37.956971,6963.9231816,-0.058,-3.305,180.011,1.0
4.1666,128.181879,37.956924,6963.625696800001,-0.058,-3.317,180.011,1.0
4.1833,128.181879,37.956876,6963.326992800001,-0.058,-3.328,180.011,1.0
4.2,128.181879,37.956829,6963.027069600001,-0.059,-3.34,180.011,1.0
4.2166,128.181879,37.956781,6962.726232,-0.059,-3.351,180.011,1.0
4.2333,128.181879,37.956734,6962.4241752,-0.059,-3.363,180.011,1.0
4.25,128.181879,37.956686,6962.1208992,-0.059,-3.375,180.012,1.0
4.2666,128.181878,37.956638,6961.8167088,-0.059,-3.386,180.012,1.0
4.2833,128.181878,37.956591,6961.5112992,-0.06,-3.398,180.012,1.0
4.3,128.181878,37.956543,6961.2049752,-0.06,-3.409,180.012,1.0
4.3166,128.181878,37.956496,6960.897432000001,-0.06,-3.421,180.012,1.0
4.3333,128.181878,37.956448,6960.588669600001,-0.06,-3.433,180.012,1.0
4.35,128.181878,37.9564,6960.278688,-0.061,-3.444,180.012,1.0
4.3666,128.181878,37.956353,6959.967792,-0.061,-3.456,180.012,1.0
4.3833,128.181878,37.956305,6959.6556768,-0.061,-3.467,180.012,1.0
4.4,128.181878,37.956257,6959.342647200001,-0.061,-3.479,180.012,1.0
4.4166,128.181878,37.95621,6959.0280936,-0.061,-3.49,180.012,1.0
4.4333,128.181878,37.956162,6958.7129304,-0.062,-3.502,180.012,1.0
4.45,128.181878,37.956114,6958.3962432,-0.062,-3.513,180.012,1.0
4.4666,128.181878,37.956066,6958.0786416,-0.062,-3.525,180.012,1.0
4.4833,128.181878,37.956019,6957.7598208,-0.062,-3.536,180.012,1.0
4.5,128.181878,37.955971,6957.4400856,-0.063,-3.548,180.012,1.0
4.5166,128.181878,37.955923,6957.1191312,-0.063,-3.559,180.012,1.0
4.5333,128.181878,37.955875,6956.7969576,-0.063,-3.571,180.012,1.0
4.55,128.181878,37.955828,6956.4738696,-0.063,-3.582,180.013,1.0
4.5666,128.181878,37.95578,6956.1495624,-0.064,-3.594,180.013,1.0
4.5833,128.181878,37.955732,6955.824036,-0.064,-3.605,180.013,1.0
4.6,128.181878,37.955684,6955.4975952,-0.064,-3.617,180.013,1.0
4.6166,128.181878,37.955636,6955.1699352000005,-0.064,-3.628,180.013,1.0
4.6333,128.181878,37.955588,6954.841056000001,-0.065,-3.64,180.013,1.0
4.65,128.181878,37.955541,6954.5112624,-0.065,-3.651,180.013,1.0
4.6666,128.181878,37.955493,6954.1802496,-0.065,-3.663,180.013,1.0
4.6833,128.181878,37.955445,6953.8480176,-0.065,-3.674,180.013,1.0
4.7,128.181878,37.955397,6953.5148712,-0.066,-3.686,180.013,1.0
4.7166,128.181878,37.955349,6953.1805056,-0.066,-3.697,180.013,1.0
4.7333,128.181878,37.955301,6952.8449208,-0.066,-3.708,180.013,1.0
4.75,128.181878,37.955253,6952.5084216000005,-0.066,-3.72,180.013,1.0
4.7666,128.181878,37.955205,6952.1707032,-0.067,-3.731,180.013,1.0
4.7833,128.181878,37.955157,6951.831765600001,-0.067,-3.743,180.013,1.0
4.8,128.181878,37.955109,6951.491913600001,-0.067,-3.754,180.013,1.0
4.8166,128.181878,37.955061,6951.1508424,-0.067,-3.765,180.013,1.0
4.8333,128.181878,37.955013,6950.808856800001,-0.068,-3.777,180.013,1.0
4.85,128.181878,37.954965,6950.465652000001,-0.068,-3.788,180.013,1.0
4.8666,128.181878,37.954917,6950.121228000001,-0.068,-3.799,180.014,1.0
4.8833,128.181878,37.954869,6949.7755848,-0.068,-3.811,180.014,1.0
4.9,128.181878,37.954821,6949.429027200001,-0.069,-3.822,180.014,1.0
4.9166,128.181878,37.954773,6949.0815552,-0.069,-3.833,180.014,1.0
4.9333,128.181878,37.954725,6948.732559200001,-0.069,-3.845,180.014,1.0
4.95,128.181878,37.954677,6948.3826488,-0.069,-3.856,180.014,1.0
4.9666,128.181878,37.954629,6948.031519200001,-0.07,-3.867,180.014,1.0
4.9833,128.181878,37.954581,6947.6794752,-0.07,-3.879,180.014,1.0
5.0,128.181878,37.954533,6947.326212,-0.07,-3.89,180.014,1.0
5.0166,128.181878,37.954484,6946.9717296,-0.07,-3.901,180.014,1.0
5.0333,128.181878,37.954436,6946.6163328,-0.071,-3.912,180.014,1.0
5.05,128.181878,37.954388,6946.2597168,-0.071,-3.924,180.014,1.0
5.0666,128.181878,37.95434,6945.902186400001,-0.071,-3.935,180.014,1.0
5.0833,128.181878,37.954292,6945.543132000001,-0.071,-3.946,180.014,1.0
5.1,128.181878,37.954244,6945.1831632,-0.072,-3.957,180.014,1.0
5.1166,128.181878,37.954195,6944.82228,-0.072,-3.968,180.014,1.0
5.1333,128.181878,37.954147,6944.460177600001,-0.072,-3.98,180.014,1.0
5.15,128.181878,37.954099,6944.096856000001,-0.072,-3.991,180.014,1.0
5.1666,128.181878,37.954051,6943.732315200001,-0.073,-4.002,180.014,1.0
5.1833,128.181877,37.954002,6943.366860000001,-0.073,-4.013,180.015,1.0
5.2,128.181877,37.953954,6943.000490400001,-0.073,-4.024,180.015,1.0
5.2166,128.181877,37.953906,6942.632596800001,-0.074,-4.035,180.015,1.0
5.2333,128.181877,37.953857,6942.2637888,-0.074,-4.046,180.015,1.0
5.25,128.181877,37.953809,6941.8940664,-0.074,-4.057,180.015,1.0
5.2666,128.181877,37.953761,6941.522820000001,-0.074,-4.068,180.015,1.0
5.2833,128.181877,37.953712,6941.1506592000005,-0.075,-4.08,180.015,1.0
5.3,128.181877,37.953664,6940.777584000001,-0.075,-4.091,180.015,1.0
5.3166,128.181877,37.953616,6940.4032896,-0.075,-4.102,180.015,1.0
5.3333,128.181877,37.953567,6940.027776,-0.075,-4.113,180.015,1.0
5.35,128.181877,37.953519,6939.6510432,-0.076,-4.124,180.015,1.0
5.3666,128.181877,37.953471,6939.2733960000005,-0.076,-4.135,180.015,1.0
5.3833,128.181877,37.953422,6938.8948344,-0.076,-4.146,180.015,1.0
5.4,128.181877,37.953374,6938.5147488,-0.077,-4.157,180.015,1.0
5.4166,128.181877,37.953325,6938.1337488,-0.077,-4.168,180.015,1.0
5.4333,128.181877,37.953277,6937.7518344,-0.077,-4.178,180.015,1.0
5.45,128.181877,37.953228,6937.368700800001,-0.077,-4.189,180.015,1.0
5.4666,128.181877,37.95318,6936.984348,-0.078,-4.2,180.015,1.0
5.4833,128.181877,37.953131,6936.598776,-0.078,-4.211,180.015,1.0
5.5,128.181877,37.953083,6936.2122896,-0.078,-4.222,180.016,1.0
5.5166,128.181877,37.953034,6935.8248888,-0.078,-4.233,180.016,1.0
5.5333,128.181877,37.952986,6935.435964,-0.079,-4.244,180.016,1.0
5.55,128.181877,37.952937,6935.046124800001,-0.079,-4.255,180.016,1.0
5.5666,128.181877,37.952889,6934.6553711999995,-0.079,-4.266,180.016,1.0
5.5833,128.181877,37.95284,6934.2633984,-0.08,-4.277,180.016,1.0
5.6,128.181877,37.952792,6933.870206400001,-0.08,-4.287,180.016,1.0
5.6166,128.181877,37.952743,6933.476100000001,-0.08,-4.298,180.016,1.0
5.6333,128.181877,37.952694,6933.0807744,-0.08,-4.309,180.016,1.0
5.65,128.181877,37.952646,6932.6842295999995,-0.081,-4.32,180.016,1.0
5.6666,128.181877,37.952597,6932.286770400001,-0.081,-4.331,180.016,1.0
5.6833,128.181877,37.952549,6931.888092000001,-0.081,-4.341,180.016,1.0
5.7,128.181877,37.9525,6931.4884992,-0.082,-4.352,180.016,1.0
5.7166,128.181877,37.952451,6931.087687200001,-0.082,-4.363,180.016,1.0
5.7333,128.181877,37.952403,6930.685656000001,-0.082,-4.374,180.016,1.0
5.75,128.181877,37.952354,6930.282710400001,-0.083,-4.385,180.016,1.0
5.7666,128.181877,37.952305,6929.8785456000005,-0.083,-4.395,180.016,1.0
5.7833,128.181877,37.952257,6929.4734664,-0.083,-4.406,180.016,1.0
5.8,128.181877,37.952208,6929.0671680000005,-0.083,-4.417,180.016,1.0
5.8166,128.181877,37.952159,6928.659650400001,-0.084,-4.427,180.016,1.0
5.8333,128.181877,37.95211,6928.251218400001,-0.084,-4.438,180.017,1.0
5.85,128.181877,37.952062,6927.8415672,-0.084,-4.449,180.017,1.0
5.8666,128.181877,37.952013,6927.431001600001,-0.085,-4.459,180.017,1.0
5.8833,128.181877,37.951964,6927.0192168,-0.085,-4.47,180.017,1.0
5.9,128.181877,37.951915,6926.6062128,-0.085,-4.481,180.017,1.0
5.9166,128.181877,37.951866,6926.1922944,-0.086,-4.491,180.017,1.0
5.9333,128.181877,37.951818,6925.777156800001,-0.086,-4.502,180.017,1.0
5.95,128.181877,37.951769,6925.3611048,-0.086,-4.513,180.017,1.0
5.9666,128.181877,37.95172,6924.943833600001,-0.086,-4.523,180.017,1.0
5.9833,128.181877,37.951671,6924.525648,-0.087,-4.534,180.017,1.0
6.0,128.181876,37.951622,6924.1062432,-0.087,-4.545,180.017,1.0
6.0166,128.181876,37.951573,6923.6856192000005,-0.087,-4.555,180.017,1.0
6.0333,128.181876,37.951524,6923.2640808,-0.088,-4.566,180.017,1.0
6.05,128.181876,37.951475,6922.8413232,-0.088,-4.576,180.017,1.0
6.0666,128.181876,37.951427,6922.4176512,-0.088,-4.587,180.017,1.0
6.0833,128.181876,37.951378,6921.992760000001,-0.089,-4.597,180.017,1.0
6.1,128.181876,37.951329,6921.5666496,-0.089,-4.608,180.017,1.0
6.1166,128.181876,37.95128,6921.139624800001,-0.089,-4.619,180.017,1.0
6.1333,128.181876,37.951231,6920.7116856,-0.09,-4.629,180.017,1.0
6.15,128.181876,37.951182,6920.2822224,-0.09,-4.64,180.017,1.0
6.1666,128.181876,37.951133,6919.8521496,-0.09,-4.65,180.017,1.0
6.1833,128.181876,37.951084,6919.4205528,-0.091,-4.661,180.018,1.0
6.2,128.181876,37.951035,6918.9880416000005,-0.091,-4.671,180.018,1.0
6.2166,128.181876,37.950986,6918.554615999999,-0.091,-4.682,180.018,1.0
6.2333,128.181876,37.950937,6918.1199712,-0.091,-4.692,180.018,1.0
6.25,128.181876,37.950888,6917.6841072,-0.092,-4.703,180.018,1.0
6.2666,128.181876,37.950838,6917.247328800001,-0.092,-4.713,180.018,1.0
6.2833,128.181876,37.950789,6916.8093312,-0.092,-4.723,180.018,1.0
6.3,128.181876,37.95074,6916.3704192000005,-0.093,-4.734,180.018,1.0
6.3166,128.181876,37.950691,6915.9302880000005,-0.093,-4.744,180.018,1.0
6.3333,128.181876,37.950642,6915.489242400001,-0.093,-4.755,180.018,1.0
6.35,128.181876,37.950593,6915.0469776,-0.094,-4.765,180.018,1.0
6.3666,128.181876,37.950544,6914.6034936,-0.094,-4.776,180.018,1.0
6.3833,128.181876,37.950495,6914.159095200001,-0.094,-4.786,180.018,1.0
6.4,128.181876,37.950445,6913.7137824,-0.095,-4.796,180.018,1.0
6.4166,128.181876,37.950396,6913.2672504,-0.095,-4.807,180.018,1.0
6.4333,128.181876,37.950347,6912.8194992,-0.095,-4.817,180.018,1.0
6.45,128.181876,37.950298,6912.370833600001,-0.096,-4.827,180.018,1.0
6.4666,128.181876,37.950249,6911.9209488,-0.096,-4.838,180.018,1.0
6.4833,128.181876,37.950199,6911.470149600001,-0.096,-4.848,180.018,1.0
6.5,128.181876,37.95015,6911.0181312,-0.097,-4.858,180.018,1.0
6.5166,128.181876,37.950101,6910.5648936,-0.097,-4.869,180.018,1.0
6.5333,128.181876,37.950052,6910.1107416,-0.097,-4.879,180.019,1.0
6.55,128.181876,37.950002,6909.6556752,-0.098,-4.889,180.019,1.0
6.5666,128.181876,37.949953,6909.1993896,-0.098,-4.9,180.019,1.0
6.5833,128.181876,37.949904,6908.7418848,-0.098,-4.91,180.019,1.0
6.6,128.181876,37.949854,6908.2834656,-0.099,-4.92,180.019,1.0
6.6166,128.181876,37.949805,6907.824132000001,-0.099,-4.93,180.019,1.0
6.6333,128.181876,37.949756,6907.3635792000005,-0.099,-4.941,180.019,1.0
6.65,128.181876,37.949706,6906.9018072,-0.1,-4.951,180.019,1.0
6.6666,128.181876,37.949657,6906.4391208,-0.1,-4.961,180.019,1.0
6.6833,128.181876,37.949608,6905.975215200001,-0.1,-4.971,180.019,1.0
6.7,128.181876,37.949558,6905.5103952,-0.101,-4.982,180.019,1.0
6.7166,128.181875,37.949509,6905.044356,-0.101,-4.992,180.019,1.0
6.7333,128.181875,37.94946,6904.5774024,-0.101,-5.002,180.019,1.0
6.75,128.181875,37.94941,6904.1092296,-0.102,-5.012,180.019,1.0
6.7666,128.181875,37.949361,6903.6401424000005,-0.102,-5.022,180.019,1.0
6.7833,128.181875,37.949311,6903.169836,-0.103,-5.032,180.019,1.0
6.8,128.181875,37.949262,6902.698615200001,-0.103,-5.043,180.019,1.0
6.8166,128.181875,37.949212,6902.2261751999995,-0.103,-5.053,180.019,1.0
6.8333,128.181875,37.949163,6901.752516,-0.104,-5.063,180.019,1.0
6.85,128.181875,37.949113,6901.277942400001,-0.104,-5.073,180.019,1.0
6.8666,128.181875,37.949064,6900.8024544,-0.104,-5.083,180.019,1.0
6.8833,128.181875,37.949014,6900.3257472000005,-0.105,-5.093,180.019,1.0
6.9,128.181875,37.948965,6899.8481256,-0.105,-5.103,180.02,1.0
6.9166,128.181875,37.948915,6899.3692848,-0.105,-5.113,180.02,1.0
6.9333,128.181875,37.948866,6898.889224800001,-0.106,-5.124,180.02,1.0
6.95,128.181875,37.948816,6898.408555200001,-0.106,-5.134,180.02,1.0
6.9666,128.181875,37.948766,6897.9263616,-0.106,-5.144,180.02,1.0
6.9833,128.181875,37.948717,6897.4432536,-0.107,-5.154,180.02,1.0
7.0,128.181875,37.948667,6896.9592312,-0.107,-5.164,180.02,1.0
7.0166,128.181875,37.948618,6896.4739896,-0.108,-5.174,180.02,1.0
7.0333,128.181875,37.948568,6895.987833600001,-0.108,-5.184,180.02,1.0
7.05,128.181875,37.948518,6895.5004584,-0.108,-5.194,180.02,1.0
7.0666,128.181875,37.948469,6895.011864,-0.109,-5.204,180.02,1.0
7.0833,128.181875,37.948419,6894.522355200001,-0.109,-5.214,180.02,1.0
7.1,128.181875,37.948369,6894.031932000001,-0.109,-5.224,180.02,1.0
7.1166,128.181875,37.94832,6893.5402896,-0.11,-5.234,180.02,1.0
7.1333,128.181875,37.94827,6893.047732800001,-0.11,-5.244,180.02,1.0
7.15,128.181875,37.94822,6892.553956800001,-0.11,-5.254,180.02,1.0
7.1666,128.181875,37.948171,6892.0592664,-0.111,-5.264,180.02,1.0
7.1833,128.181875,37.948121,6891.563356800001,-0.111,-5.274,180.02,1.0
7.2,128.181875,37.948071,6891.0665328000005,-0.112,-5.284,180.02,1.0
7.2166,128.181875,37.948021,6890.5684896,-0.112,-5.294,180.02,1.0
7.2333,128.181875,37.947972,6890.069532,-0.112,-5.304,180.02,1.0
7.25,128.181875,37.947922,6889.5693552,-0.113,-5.313,180.02,1.0
7.2666,128.181875,37.947872,6889.068264,-0.113,-5.323,180.021,1.0
7.2833,128.181875,37.947822,6888.5659536,-0.113,-5.333,180.021,1.0
7.3,128.181875,37.947772,6888.0627288000005,-0.114,-5.343,180.021,1.0
7.3166,128.181875,37.947722,6887.5582848,-0.114,-5.353,180.021,1.0
7.3333,128.181875,37.947673,6887.0529264,-0.115,-5.363,180.021,1.0
7.35,128.181875,37.947623,6886.5466536,-0.115,-5.373,180.021,1.0
7.3666,128.181875,37.947573,6886.0391616,-0.115,-5.383,180.021,1.0
7.3833,128.181874,37.947523,6885.5304504000005,-0.116,-5.392,180.021,1.0
7.4,128.181874,37.947473,6885.020824800001,-0.116,-5.402,180.021,1.0
7.4166,128.181874,37.947423,6884.5102848,-0.116,-5.412,180.021,1.0
7.4333,128.181874,37.947373,6883.9985256,-0.117,-5.422,180.021,1.0
7.45,128.181874,37.947323,6883.485852000001,-0.117,-5.432,180.021,1.0
7.4666,128.181874,37.947273,6882.9719592,-0.118,-5.442,180.021,1.0
7.4833,128.181874,37.947223,6882.457152000001,-0.118,-5.451,180.021,1.0
7.5,128.181874,37.947173,6881.9411256,-0.118,-5.461,180.021,1.0
7.5166,128.181874,37.947124,6881.4241848,-0.119,-5.471,180.021,1.0
7.5333,128.181874,37.947074,6880.9060248000005,-0.119,-5.481,180.021,1.0
7.55,128.181874,37.947024,6880.3869504,-0.12,-5.49,180.021,1.0
7.5666,128.181874,37.946974,6879.8669616,-0.12,-5.5,180.021,1.0
7.5833,128.181874,37.946923,6879.3457536000005,-0.12,-5.51,180.021,1.0
7.6,128.181874,37.946873,6878.8233264,-0.121,-5.52,180.021,1.0
7.6166,128.181874,37.946823,6878.2999848,-0.121,-5.529,180.021,1.0
7.6333,128.181874,37.946773,6877.775728800001,-0.122,-5.539,180.021,1.0
7.65,128.181874,37.946723,6877.2502536,-0.122,-5.549,180.021,1.0
7.6666,128.181874,37.946673,6876.7238640000005,-0.122,-5.558,180.022,1.0
7.6833,128.181874,37.946623,6876.19656,-0.123,-5.568,180.022,1.0
7.7,128.181874,37.946573,6875.668036800001,-0.123,-5.578,180.022,1.0
7.7166,128.181874,37.946523,6875.1382944,-0.124,-5.587,180.022,1.0
7.7333,128.181874,37.946473,6874.607637600001,-0.124,-5.597,180.022,1.0
7.75,128.181874,37.946423,6874.0760664,-0.124,-5.607,180.022,1.0
7.7666,128.181874,37.946372,6873.543276,-0.125,-5.616,180.022,1.0
7.7833,128.181874,37.946322,6873.0095712,-0.125,-5.626,180.022,1.0
7.8,128.181874,37.946272,6872.474647200001,-0.126,-5.636,180.022,1.0
7.8166,128.181874,37.946222,6871.9388088000005,-0.126,-5.645,180.022,1.0
7.8333,128.181874,37.946172,6871.402056000001,-0.126,-5.655,180.022,1.0
7.85,128.181874,37.946121,6870.864084000001,-0.127,-5.664,180.022,1.0
7.8666,128.181874,37.946071,6870.324892800001,-0.127,-5.674,180.022,1.0
7.8833,128.181874,37.946021,6869.785092000001,-0.128,-5.684,180.022,1.0
7.9,128.181874,37.945971,6869.243767200001,-0.128,-5.693,180.022,1.0
7.9166,128.181874,37.94592,6868.7018328,-0.128,-5.703,180.022,1.0
7.9333,128.181874,37.94587,6868.158679200001,-0.129,-5.712,180.022,1.0
7.95,128.181874,37.94582,6867.614306400001,-0.129,-5.722,180.022,1.0
7.9666,128.181874,37.94577,6867.0690192,-0.13,-5.731,180.022,1.0
7.9833,128.181874,37.945719,6866.5228176,-0.13,-5.741,180.022,1.0
8.0,128.181874,37.945669,6865.9757016,-0.131,-5.75,180.022,1.0
8.0166,128.181873,37.945619,6865.427061599999,-0.131,-5.76,180.022,1.0
8.0333,128.181873,37.945568,6864.877812,-0.131,-5.769,180.022,1.0
8.05,128.181873,37.945518,6864.3273432,-0.132,-5.779,180.022,1.0
8.0666,128.181873,37.945468,6863.775960000001,-0.132,-5.788,180.022,1.0
8.0833,128.181873,37.945417,6863.2233576,-0.133,-5.798,180.023,1.0
8.1,128.181873,37.945367,6862.6698408,-0.133,-5.807,180.023,1.0
8.1166,128.181873,37.945316,6862.1151048,-0.133,-5.817,180.023,1.0
8.1333,128.181873,37.945266,6861.5594544000005,-0.134,-5.826,180.023,1.0
8.15,128.181873,37.945215,6861.0028896,-0.134,-5.836,180.023,1.0
8.1666,128.181873,37.945165,6860.445105600001,-0.135,-5.845,180.023,1.0
8.1833,128.181873,37.945115,6859.8864072,-0.135,-5.854,180.023,1.0
8.2,128.181873,37.945064,6859.3267944,-0.136,-5.864,180.023,1.0
8.2166,128.181873,37.945014,6858.7659624,-0.136,-5.873,180.023,1.0
8.2333,128.181873,37.944963,6858.204216,-0.136,-5.883,180.023,1.0
8.25,128.181873,37.944913,6857.6412504,-0.137,-5.892,180.023,1.0
8.2666,128.181873,37.944862,6857.077370400001,-0.137,-5.901,180.023,1.0
8.2833,128.181873,37.944812,6856.5122712,-0.138,-5.911,180.023,1.0
8.3,128.181873,37.944761,6855.9465624,-0.138,-5.92,180.023,1.0
8.3166,128.181873,37.944711,6855.379329599999,-0.139,-5.93,180.023,1.0
8.3333,128.181873,37.94466,6854.811487200001,-0.139,-5.939,180.023,1.0
8.35,128.181873,37.944609,6854.2424256,-0.14,-5.948,180.023,1.0
8.3666,128.181873,37.944559,6853.6721448,-0.14,-5.958,180.023,1.0
8.3833,128.181873,37.944508,6853.1012544000005,-0.14,-5.967,180.023,1.0
8.4,128.181873,37.944458,6852.52884,-0.141,-5.976,180.023,1.0
8.4166,128.181873,37.944407,6851.955816,-0.141,-5.985,180.023,1.0
8.4333,128.181873,37.944356,6851.3815728,-0.142,-5.995,180.023,1.0
8.45,128.181873,37.944306,6850.806415200001,-0.142,-6.004,180.023,1.0
8.4666,128.181873,37.944255,6850.230038400001,-0.143,-6.013,180.023,1.0
8.4833,128.181873,37.944204,6849.652747200001,-0.143,-6.023,180.023,1.0
8.5,128.181873,37.944154,6849.074541600001,-0.144,-6.032,180.023,1.0
8.5166,128.181873,37.944103,6848.4951168,-0.144,-6.041,180.024,1.0
8.5333,128.181873,37.944052,6847.9147776,-0.144,-6.05,180.024,1.0
8.55,128.181873,37.944002,6847.333524000001,-0.145,-6.06,180.024,1.0
8.5666,128.181873,37.943951,6846.751051200001,-0.145,-6.069,180.024,1.0
8.5833,128.181873,37.9439,6846.1676640000005,-0.146,-6.078,180.024,1.0
8.6,128.181873,37.943849,6845.5830576,-0.146,-6.087,180.024,1.0
8.6166,128.181873,37.943799,6844.9975368000005,-0.147,-6.096,180.024,1.0
8.6333,128.181872,37.943748,6844.411101600001,-0.147,-6.106,180.024,1.0
8.65,128.181872,37.943697,6843.823752000001,-0.148,-6.115,180.024,1.0
8.6666,128.181872,37.943646,6843.2351832,-0.148,-6.124,180.024,1.0
8.6833,128.181872,37.943596,6842.6453952,-0.149,-6.133,180.024,1.0
8.7,128.181872,37.943545,6842.054997600001,-0.149,-6.142,180.024,1.0
8.7166,128.181872,37.943494,6841.4633808,-0.149,-6.151,180.024,1.0
8.7333,128.181872,37.943443,6840.8705448,-0.15,-6.161,180.024,1.0
8.75,128.181872,37.943392,6840.2770992000005,-0.15,-6.17,180.024,1.0
8.7666,128.181872,37.943341,6839.6824344,-0.151,-6.179,180.024,1.0
8.7833,128.181872,37.94329,6839.0865504,-0.151,-6.188,180.024,1.0
8.8,128.181872,37.94324,6838.490056800001,-0.152,-6.197,180.024,1.0
8.8166,128.181872,37.943189,6837.892344,-0.152,-6.206,180.024,1.0
8.8333,128.181872,37.943138,6837.293412,-0.153,-6.215,180.024,1.0
8.85,128.181872,37.943087,6836.6935656000005,-0.153,-6.224,180.024,1.0
8.8666,128.181872,37.943036,6836.0928048000005,-0.154,-6.233,180.024,1.0
8.8833,128.181872,37.942985,6835.4911296,-0.154,-6.242,180.024,1.0
8.9,128.181872,37.942934,6834.8882352,-0.155,-6.252,180.024,1.0
8.9166,128.181872,37.942883,6834.2844264000005,-0.155,-6.261,180.024,1.0
8.9333,128.181872,37.942832,6833.6797032,-0.156,-6.27,180.024,1.0
8.95,128.181872,37.942781,6833.073760800001,-0.156,-6.279,180.024,1.0
8.9666,128.181872,37.94273,6832.466904,-0.156,-6.288,180.025,1.0
8.9833,128.181872,37.942679,6831.8591328,-0.157,-6.297,180.025,1.0
9.0,128.181872,37.942628,6831.250142400001,-0.157,-6.306,180.025,1.0
9.0166,128.181872,37.942577,6830.640237600001,-0.158,-6.315,180.025,1.0
9.0333,128.181872,37.942526,6830.0294184,-0.158,-6.324,180.025,1.0
9.05,128.181872,37.942475,6829.41738,-0.159,-6.333,180.025,1.0
9.0666,128.181872,37.942424,6828.804427200001,-0.159,-6.342,180.025,1.0
9.0833,128.181872,37.942373,6828.190560000001,-0.16,-6.351,180.025,1.0
9.1,128.181872,37.942322,6827.575473600001,-0.16,-6.36,180.025,1.0
9.1166,128.181872,37.94227,6826.9597776,-0.161,-6.368,180.025,1.0
9.1333,128.181872,37.942219,6826.3425576,-0.161,-6.377,180.025,1.0
9.15,128.181872,37.942168,6825.724728,-0.162,-6.386,180.025,1.0
9.1666,128.181872,37.942117,6825.105679200001,-0.162,-6.395,180.025,1.0
9.1833,128.181872,37.942066,6824.485716,-0.163,-6.404,180.025,1.0
9.2,128.181871,37.942015,6823.864838400001,-0.163,-6.413,180.025,1.0
9.2166,128.181871,37.941964,6823.242741600001,-0.164,-6.422,180.025,1.0
9.2333,128.181871,37.941912,6822.6197304,-0.164,-6.431,180.025,1.0
9.25,128.181871,37.941861,6821.995804800001,-0.165,-6.44,180.025,1.0
9.2666,128.181871,37.94181,6821.3706600000005,-0.165,-6.449,180.025,1.0
9.2833,128.181871,37.941759,6820.744600800001,-0.166,-6.458,180.025,1.0
9.3,128.181871,37.941708,6820.1176272,-0.166,-6.466,180.025,1.0
9.3166,128.181871,37.941656,6819.4894343999995,-0.167,-6.475,180.025,1.0
9.3333,128.181871,37.941605,6818.860632000001,-0.167,-6.484,180.025,1.0
9.35,128.181871,37.941554,6818.230305600001,-0.168,-6.493,180.025,1.0
9.3666,128.181871,37.941502,6817.5993696000005,-0.168,-6.502,180.025,1.0
9.3833,128.181871,37.941451,6816.967214400001,-0.169,-6.511,180.025,1.0
9.4,128.181871,37.9414,6816.3341448,-0.169,-6.519,180.025,1.0
9.4166,128.181871,37.941349,6815.700160800001,-0.17,-6.528,180.025,1.0
9.4333,128.181871,37.941297,6815.0652624,-0.17,-6.537,180.025,1.0
9.45,128.181871,37.941246,6814.4291448,-0.171,-6.546,180.025,1.0
9.4666,128.181871,37.941195,6813.7921128,-0.171,-6.554,180.026,1.0
9.4833,128.181871,37.941143,6813.1541664,-0.172,-6.563,180.026,1.0
9.5,128.181871,37.941092,6812.515000800001,-0.172,-6.572,180.026,1.0
9.5166,128.181871,37.94104,6811.8749208,-0.173,-6.581,180.026,1.0
9.5333,128.181871,37.940989,6811.2339264,-0.173,-6.59,180.026,1.0
9.55,128.181871,37.940938,6810.5917128,-0.174,-6.598,180.026,1.0
9.5666,128.181871,37.940886,6809.9488896,-0.174,-6.607,180.026,1.0
9.5833,128.181871,37.940835,6809.304847200001,-0.175,-6.616,180.026,1.0
9.6,128.181871,37.940783,6808.6595856,-0.175,-6.624,180.026,1.0
9.6166,128.181871,37.940732,6808.013714400001,-0.176,-6.633,180.026,1.0
9.6333,128.181871,37.94068,6807.366624,-0.176,-6.642,180.026,1.0
9.65,128.181871,37.940629,6806.718619200001,-0.177,-6.651,180.026,1.0
9.6666,128.181871,37.940578,6806.0697,-0.177,-6.659,180.026,1.0
9.6833,128.181871,37.940526,6805.4195616,-0.178,-6.668,180.026,1.0
9.7,128.181871,37.940475,6804.7685088,-0.178,-6.677,180.026,1.0
9.7166,128.181871,37.940423,6804.1165416,-0.179,-6.685,180.026,1.0
9.7333,128.181871,37.940371,6803.46366,-0.179,-6.694,180.026,1.0
9.75,128.181871,37.94032,6802.8095592,-0.18,-6.702,180.026,1.0
9.7666,128.18187,37.940268,6802.154544,-0.181,-6.711,180.026,1.0
9.7833,128.18187,37.940217,6801.4986144,-0.181,-6.72,180.026,1.0
9.8,128.18187,37.940165,6800.841770400001,-0.182,-6.728,180.026,1.0
9.8166,128.18187,37.940114,6800.1837072,-0.182,-6.737,180.026,1.0
9.8333,128.18187,37.940062,6799.5247296,-0.183,-6.746,180.026,1.0
9.85,128.18187,37.94001,6798.864837600001,-0.183,-6.754,180.026,1.0
9.8666,128.18187,37.939959,6798.2037264,-0.184,-6.763,180.026,1.0
9.8833,128.18187,37.939907,6797.5420056,-0.184,-6.771,180.026,1.0
9.9,128.18187,37.939856,6796.879065600001,-0.185,-6.78,180.026,1.0
9.9166,128.18187,37.939804,6796.215211200001,-0.185,-6.788,180.026,1.0
9.9333,128.18187,37.939752,6795.5501376,-0.186,-6.797,180.026,1.0
9.95,128.18187,37.939701,6794.8844544,-0.186,-6.806,180.026,1.0
9.9666,128.18187,37.939649,6794.217552000001,-0.187,-6.814,180.026,1.0
9.9833,128.18187,37.939597,6793.5497352,-0.187,-6.823,180.026,1.0
10.0,128.18187,37.939545,6792.8806992,-0.188,-6.831,180.027,1.0
10.0166,128.18187,37.939494,6792.2110536,-0.189,-6.84,180.027,1.0
10.0333,128.18187,37.939442,6791.5401888,-0.189,-6.848,180.027,1.0
10.05,128.18187,37.93939,6790.868409600001,-0.19,-6.857,180.027,1.0
10.0666,128.18187,37.939338,6790.195716,-0.19,-6.865,180.027,1.0
10.0833,128.18187,37.939287,6789.5218032,-0.191,-6.874,180.027,1.0
10.1,128.18187,37.939235,6788.846976,-0.191,-6.882,180.027,1.0
10.1166,128.18187,37.939183,6788.1715392,-0.192,-6.891,180.027,1.0
10.1333,128.18187,37.939131,6787.494578400001,-0.192,-6.899,180.027,1.0
10.15,128.18187,37.939079,6786.817008,-0.193,-6.908,180.027,1.0
10.1666,128.18187,37.939028,6786.1382184,-0.194,-6.916,180.027,1.0
10.1833,128.18187,37.938976,6785.4585144,-0.194,-6.924,180.027,1.0
10.2,128.18187,37.938924,6784.7778960000005,-0.195,-6.933,180.027,1.0
10.2166,128.18187,37.938872,6784.0963632,-0.195,-6.941,180.027,1.0
10.2333,128.18187,37.93882,6783.413611200001,-0.196,-6.95,180.027,1.0
10.25,128.18187,37.938768,6782.7302496,-0.196,-6.958,180.027,1.0
10.2666,128.18187,37.938716,6782.0456688,-0.197,-6.966,180.027,1.0
10.2833,128.18187,37.938664,6781.360173600001,-0.197,-6.975,180.027,1.0
10.3,128.18187,37.938613,6780.6734592,-0.198,-6.983,180.027,1.0
10.3166,128.181869,37.938561,6779.9861352,-0.199,-6.992,180.027,1.0
10.3333,128.181869,37.938509,6779.297592000001,-0.199,-7.0,180.027,1.0
10.35,128.181869,37.938457,6778.6081343999995,-0.2,-7.008,180.027,1.0
10.3666,128.181869,37.938405,6777.9177624,-0.2,-7.017,180.027,1.0
10.3833,128.181869,37.938353,6777.2261712,-0.201,-7.025,180.027,1.0
10.4,128.181869,37.938301,6776.533665600001,-0.201,-7.033,180.027,1.0
10.4166,128.181869,37.938249,6775.8405504,-0.202,-7.042,180.027,1.0
10.4333,128.181869,37.938197,6775.146216,-0.202,-7.05,180.027,1.0
10.45,128.181869,37.938145,6774.4506624,-0.203,-7.058,180.027,1.0
10.4666,128.181869,37.938093,6773.7544992,-0.204,-7.067,180.027,1.0
10.4833,128.181869,37.938041,6773.0571168,-0.204,-7.075,180.027,1.0
10.5,128.181869,37.937989,6772.35882,-0.205,-7.083,180.027,1.0
10.5166,128.181869,37.937937,6771.659608800001,-0.205,-7.091,180.027,1.0
10.5333,128.181869,37.937884,6770.9594832,-0.206,-7.1,180.027,1.0
10.55,128.181869,37.937832,6770.258443199999,-0.207,-7.108,180.027,1.0
10.5666,128.181869,37.93778,6769.556184000001,-0.207,-7.116,180.027,1.0
10.5833,128.181869,37.937728,6768.853010400001,-0.208,-7.124,180.027,1.0
10.6,128.181869,37.937676,6768.148922400001,-0.208,-7.133,180.028,1.0
10.6166,128.181869,37.937624,6767.443920000001,-0.209,-7.141,180.028,1.0
10.6333,128.181869,37.937572,6766.7380032,-0.209,-7.149,180.028,1.0
10.65,128.181869,37.93752,6766.0308672,-0.21,-7.157,180.028,1.0
10.6666,128.181869,37.937467,6765.3228168,-0.211,-7.166,180.028,1.0
10.6833,128.181869,37.937415,6764.614156800001,-0.211,-7.174,180.028,1.0
10.7,128.181869,37.937363,6763.903972800001,-0.212,-7.182,180.028,1.0
10.7166,128.181869,37.937311,6763.1931792000005,-0.212,-7.19,180.028,1.0
10.7333,128.181869,37.937259,6762.4814712,-0.213,-7.198,180.028,1.0
10.75,128.181869,37.937206,6761.768544,-0.214,-7.206,180.028,1.0
10.7666,128.181869,37.937154,6761.0547024,-0.214,-7.215,180.028,1.0
10.7833,128.181869,37.937102,6760.3399464,-0.215,-7.223,180.028,1.0
10.8,128.181869,37.93705,6759.6242760000005,-0.215,-7.231,180.028,1.0
10.8166,128.181869,37.936997,6758.9076912,-0.216,-7.239,180.028,1.0
10.8333,128.181869,37.936945,6758.1898872,-0.216,-7.247,180.028,1.0
10.85,128.181869,37.936893,6757.4714736000005,-0.217,-7.255,180.028,1.0
10.8666,128.181868,37.93684,6756.7518408000005,-0.218,-7.263,180.028,1.0
10.8833,128.181868,37.936788,6756.0312936,-0.218,-7.272,180.028,1.0
10.9,128.181868,37.936736,6755.309832000001,-0.219,-7.28,180.028,1.0
10.9166,128.181868,37.936683,6754.5871512,-0.219,-7.288,180.028,1.0
10.9333,128.181868,37.936631,6753.863860800001,-0.22,-7.296,180.028,1.0
10.95,128.181868,37.936579,6753.1393512,-0.221,-7.304,180.028,1.0
10.9666,128.181868,37.936526,6752.414232,-0.221,-7.312,180.028,1.0
10.9833,128.181868,37.936474,6751.6878936,-0.222,-7.32,180.028,1.0
11.0,128.181868,37.936422,6750.9606408,-0.223,-7.328,180.028,1.0
11.0166,128.181868,37.936369,6750.2321688,-0.223,-7.336,180.028,1.0
11.0333,128.181868,37.936317,6749.503087200001,-0.224,-7.344,180.028,1.0
11.05,128.181868,37.936264,6748.772786400001,-0.224,-7.352,180.028,1.0
11.0666,128.181868,37.936212,6748.041876,-0.225,-7.36,180.028,1.0
11.0833,128.181868,37.936159,6747.3097464,-0.226,-7.368,180.028,1.0
11.1,128.181868,37.936107,6746.5767024,-0.226,-7.376,180.028,1.0
11.1166,128.181868,37.936054,6745.842744,-0.227,-7.384,180.028,1.0
11.1333,128.181868,37.936002,6745.1075664,-0.227,-7.392,180.028,1.0
11.15,128.181868,37.935949,6744.371779200001,-0.228,-7.4,180.028,1.0
11.1666,128.181868,37.935897,6743.6347728,-0.229,-7.408,180.028,1.0
11.1833,128.181868,37.935844,6742.897156800001,-0.229,-7.416,180.028,1.0
11.2,128.181868,37.935792,6742.1583216,-0.23,-7.424,180.028,1.0
11.2166,128.181868,37.935739,6741.4185720000005,-0.23,-7.432,180.028,1.0
11.2333,128.181868,37.935687,6740.677908,-0.231,-7.44,180.028,1.0
11.25,128.181868,37.935634,6739.936024800001,-0.232,-7.448,180.028,1.0
11.2666,128.181868,37.935582,6739.193532,-0.232,-7.456,180.028,1.0
11.2833,128.181868,37.935529,6738.450124800001,-0.233,-7.464,180.028,1.0
11.3,128.181868,37.935476,6737.7054984,-0.234,-7.472,180.029,1.0
11.3166,128.181868,37.935424,6736.9599576,-0.234,-7.48,180.029,1.0
11.3333,128.181868,37.935371,6736.2135024,-0.235,-7.487,180.029,1.0
11.35,128.181868,37.935318,6735.4661328,-0.236,-7.495,180.029,1.0
11.3666,128.181868,37.935266,6734.7178488,-0.236,-7.503,180.029,1.0
11.3833,128.181868,37.935213,6733.9686504,-0.237,-7.511,180.029,1.0
11.4,128.181867,37.93516,6733.218232800001,-0.237,-7.519,180.029,1.0
11.4166,128.181867,37.935108,6732.467205600001,-0.238,-7.527,180.029,1.0
11.4333,128.181867,37.935055,6731.7149592000005,-0.239,-7.535,180.029,1.0
11.45,128.181867,37.935002,6730.9617984,-0.239,-7.542,180.029,1.0
11.4666,128.181867,37.93495,6730.208028000001,-0.24,-7.55,180.029,1.0
11.4833,128.181867,37.934897,6729.453038400001,-0.241,-7.558,180.029,1.0
11.5,128.181867,37.934844,6728.697134399999,-0.241,-7.566,180.029,1.0
11.5166,128.181867,37.934791,6727.940011200001,-0.242,-7.574,180.029,1.0
11.5333,128.181867,37.934739,6727.1822784000005,-0.243,-7.582,180.029,1.0
11.55,128.181867,37.934686,6726.4236312,-0.243,-7.589,180.029,1.0
11.5666,128.181867,37.934633,6725.6637648000005,-0.244,-7.597,180.029,1.0
11.5833,128.181867,37.93458,6724.902984000001,-0.244,-7.605,180.029,1.0
11.6,128.181867,37.934527,6724.1415936,-0.245,-7.613,180.029,1.0
11.6166,128.181867,37.934475,6723.378984000001,-0.246,-7.62,180.029,1.0
11.6333,128.181867,37.934422,6722.615460000001,-0.246,-7.628,180.029,1.0
11.65,128.181867,37.934369,6721.8510216,-0.247,-7.636,180.029,1.0
11.6666,128.181867,37.934316,6721.0856688,-0.248,-7.644,180.029,1.0
11.6833,128.181867,37.934263,6720.319096800001,-0.248,-7.651,180.029,1.0
11.7,128.181867,37.93421,6719.551915200001,-0.249,-7.659,180.029,1.0
11.7166,128.181867,37.934157,6718.783819200001,-0.25,-7.667,180.029,1.0
11.7333,128.181867,37.934104,6718.014504,-0.25,-7.675,180.029,1.0
11.75,128.181867,37.934052,6717.244579200001,-0.251,-7.682,180.029,1.0
11.7666,128.181867,37.933999,6716.4734352000005,-0.252,-7.69,180.029,1.0
11.7833,128.181867,37.933946,6715.701376800001,-0.252,-7.698,180.029,1.0
11.8,128.181867,37.933893,6714.928404,-0.253,-7.705,180.029,1.0
11.8166,128.181867,37.93384,6714.1545168,-0.254,-7.713,180.029,1.0
11.8333,128.181867,37.933787,6713.379715200001,-0.254,-7.721,180.029,1.0
11.85,128.181867,37.933734,6712.6039992000005,-0.255,-7.728,180.029,1.0
11.8666,128.181867,37.933681,6711.827368800001,-0.256,-7.736,180.029,1.0
11.8833,128.181867,37.933628,6711.049824000001,-0.256,-7.744,180.029,1.0
11.9,128.181867,37.933575,6710.271060000001,-0.257,-7.751,180.029,1.0
11.9166,128.181867,37.933522,6709.491686400001,-0.258,-7.759,180.029,1.0
11.9333,128.181866,37.933469,6708.7110936,-0.258,-7.766,180.029,1.0
11.95,128.181866,37.933416,6707.9298912,-0.259,-7.774,180.029,1.0
11.9666,128.181866,37.933363,6707.1474696000005,-0.26,-7.782,180.029,1.0
11.9833,128.181866,37.93331,6706.364133600001,-0.26,-7.789,180.029,1.0
12.0,128.181866,37.933256,6705.580188000001,-0.261,-7.797,180.029,1.0
12.0166,128.181866,37.933203,6704.7950232,-0.262,-7.804,180.029,1.0
12.0333,128.181866,37.93315,6704.008944,-0.262,-7.812,180.029,1.0
12.05,128.181866,37.933097,6703.2219504,-0.263,-7.82,180.029,1.0
12.0666,128.181866,37.933044,6702.434042400001,-0.264,-7.827,180.029,1.0
12.0833,128.181866,37.932991,6701.64522,-0.264,-7.835,180.029,1.0
12.1,128.181866,37.932938,6700.855178400001,-0.265,-7.842,180.029,1.0
12.1166,128.181866,37.932884,6700.0645272,-0.266,-7.85,180.029,1.0
12.1333,128.181866,37.932831,6699.2729616,-0.266,-7.857,180.029,1.0
12.15,128.181866,37.932778,6698.4804816000005,-0.267,-7.865,180.029,1.0
12.1666,128.181866,37.932725,6697.6867824,-0.268,-7.872,180.03,1.0
12.1833,128.181866,37.932672,6696.892473600001,-0.268,-7.88,180.03,1.0
12.2,128.181866,37.932618,6696.0969456,-0.269,-7.887,180.03,1.0
12.2166,128.181866,37.932565,6695.300808,-0.27,-7.895,180.03,1.0
12.2333,128.181866,37.932512,6694.5034512,-0.271,-7.902,180.03,1.0
12.25,128.181866,37.932459,6693.70518,-0.271,-7.91,180.03,1.0
12.2666,128.181866,37.932405,6692.9062992,-0.272,-7.917,180.03,1.0
12.2833,128.181866,37.932352,6692.1061992,-0.273,-7.925,180.03,1.0
12.3,128.181866,37.932299,6691.3051848,-0.273,-7.932,180.03,1.0
12.3166,128.181866,37.932246,6690.503256000001,-0.274,-7.94,180.03,1.0
12.3333,128.181866,37.932192,6689.7004128,-0.275,-7.947,180.03,1.0
12.35,128.181866,37.932139,6688.8966552,-0.275,-7.954,180.03,1.0
12.3666,128.181866,37.932086,6688.091983200001,-0.276,-7.962,180.03,1.0
12.3833,128.181866,37.932032,6687.286396800001,-0.277,-7.969,180.03,1.0
12.4,128.181866,37.931979,6686.479896000001,-0.277,-7.977,180.03,1.0
12.4166,128.181866,37.931925,6685.6724808,-0.278,-7.984,180.03,1.0
12.4333,128.181866,37.931872,6684.8641512,-0.279,-7.992,180.03,1.0
12.45,128.181866,37.931819,6684.054907199999,-0.28,-7.999,180.03,1.0
12.4666,128.181865,37.931765,6683.2447488,-0.28,-8.006,180.03,1.0
12.4833,128.181865,37.931712,6682.433676,-0.281,-8.014,180.03,1.0
12.5,128.181865,37.931658,6681.6216888,-0.282,-8.021,180.03,1.0
12.5166,128.181865,37.931605,6680.808482400001,-0.282,-8.028,180.03,1.0
12.5333,128.181865,37.931551,6679.9946664,-0.283,-8.036,180.03,1.0
12.55,128.181865,37.931498,6679.179936,-0.284,-8.043,180.03,1.0
12.5666,128.181865,37.931445,6678.3642912000005,-0.285,-8.05,180.03,1.0
12.5833,128.181865,37.931391,6677.5474272,-0.285,-8.058,180.03,1.0
12.6,128.181865,37.931338,6676.7299536,-0.286,-8.065,180.03,1.0
12.6166,128.181865,37.931284,6675.911565600001,-0.287,-8.072,180.03,1.0
12.6333,128.181865,37.931231,6675.0919584,-0.287,-8.08,180.03,1.0
12.65,128.181865,37.931177,6674.2717416000005,-0.288,-8.087,180.03,1.0
12.6666,128.181865,37.931123,6673.450610400001,-0.289,-8.094,180.03,1.0
12.6833,128.181865,37.93107,6672.62826,-0.29,-8.101,180.03,1.0
12.7,128.181865,37.931016,6671.8053,-0.29,-8.109,180.03,1.0
12.7166,128.181865,37.930963,6670.9814256,-0.291,-8.116,180.03,1.0
12.7333,128.181865,37.930909,6670.1563320000005,-0.292,-8.123,180.03,1.0
12.75,128.181865,37.930856,6669.3306288,-0.292,-8.131,180.03,1.0
12.7666,128.181865,37.930802,6668.503706400001,-0.293,-8.138,180.03,1.0
12.7833,128.181865,37.930748,6667.6761744000005,-0.294,-8.145,180.03,1.0
12.8,128.181865,37.930695,6666.847728000001,-0.295,-8.152,180.03,1.0
12.8166,128.181865,37.930641,6666.0180624,-0.295,-8.159,180.03,1.0
12.8333,128.181865,37.930587,6665.1877872000005,-0.296,-8.167,180.03,1.0
12.85,128.181865,37.930534,6664.356292800001,-0.297,-8.174,180.03,1.0
12.8666,128.181865,37.93048,6663.5241888,-0.298,-8.181,180.03,1.0
12.8833,128.181865,37.930426,6662.691170400001,-0.298,-8.188,180.03,1.0
12.9,128.181865,37.930373,6661.8569328,-0.299,-8.195,180.03,1.0
12.9166,128.181865,37.930319,6661.0220856000005,-0.3,-8.203,180.03,1.0
12.9333,128.181865,37.930265,6660.186324,-0.301,-8.21,180.03,1.0
12.95,128.181865,37.930211,6659.3493432,-0.301,-8.217,180.03,1.0
12.9666,128.181865,37.930158,6658.5117528,-0.302,-8.224,180.03,1.0
12.9833,128.181865,37.930104,6657.673248,-0.303,-8.231,180.03,1.0
13.0,128.181864,37.93005,6656.8338288,-0.303,-8.238,180.03,1.0
13.0166,128.181864,37.929996,6655.9931904000005,-0.304,-8.245,180.03,1.0
13.0333,128.181864,37.929942,6655.151942400001,-0.305,-8.253,180.03,1.0
13.0499,128.181864,37.929889,6654.30978,-0.306,-8.26,180.03,1.0
13.0666,128.181864,37.929835,6653.4667032,-0.306,-8.267,180.03,1.0
13.0833,128.181864,37.929781,6652.622712,-0.307,-8.274,180.03,1.0
13.1,128.181864,37.929727,6651.7778064,-0.308,-8.281,180.03,1.0
13.1166,128.181864,37.929673,6650.9316816,-0.309,-8.288,180.03,1.0
13.1333,128.181864,37.929619,6650.084947200001,-0.309,-8.295,180.03,1.0
13.15,128.181864,37.929566,6649.2372984,-0.31,-8.302,180.03,1.0
13.1666,128.181864,37.929512,6648.3887352,-0.311,-8.309,180.03,1.0
13.1833,128.181864,37.929458,6647.5392576,-0.312,-8.316,180.03,1.0
13.2,128.181864,37.929404,6646.689170400001,-0.312,-8.323,180.03,1.0
13.2166,128.181864,37.92935,6645.837864,-0.313,-8.33,180.03,1.0
13.2333,128.181864,37.929296,6644.9856432,-0.314,-8.338,180.03,1.0
13.25,128.181864,37.929242,6644.132508,-0.315,-8.345,180.03,1.0
13.2666,128.181864,37.929188,6643.2784584,-0.316,-8.352,180.03,1.0
13.2833,128.181864,37.929134,6642.4237992,-0.316,-8.359,180.03,1.0
13.3,128.181864,37.92908,6641.5679208,-0.317,-8.366,180.03,1.0
13.3166,128.181864,37.929026,6640.711128000001,-0.318,-8.373,180.03,1.0
13.3333,128.181864,37.928972,6639.8537256,-0.319,-8.38,180.03,1.0
13.35,128.181864,37.928918,6638.9951040000005,-0.319,-8.387,180.03,1.0
13.3666,128.181864,37.928864,6638.1358728000005,-0.32,-8.394,180.03,1.0
13.3833,128.181864,37.92881,6637.2757272,-0.321,-8.4,180.03,1.0
13.4,128.181864,37.928756,6636.4143624,-0.322,-8.407,180.03,1.0
13.4166,128.181864,37.928702,6635.552388000001,-0.322,-8.414,180.03,1.0
13.4333,128.181864,37.928648,6634.6894992,-0.323,-8.421,180.03,1.0
13.45,128.181864,37.928594,6633.825696000001,-0.324,-8.428,180.03,1.0
13.4666,128.181864,37.92854,6632.9606736000005,-0.325,-8.435,180.03,1.0
13.4833,128.181864,37.928486,6632.0950416000005,-0.325,-8.442,180.03,1.0
13.5,128.181864,37.928431,6631.2284952,-0.326,-8.449,180.03,1.0
13.5166,128.181864,37.928377,6630.3613392,-0.327,-8.456,180.03,1.0
13.5333,128.181864,37.928323,6629.492964,-0.328,-8.463,180.03,1.0
13.55,128.181863,37.928269,6628.623674400001,-0.329,-8.47,180.03,1.0
13.5666,128.181863,37.928215,6627.753470400001,-0.329,-8.477,180.03,1.0
13.5833,128.181863,37.928161,6626.882656800001,-0.33,-8.484,180.03,1.0
13.6,128.181863,37.928106,6626.0106240000005,-0.331,-8.49,180.03,1.0
13.6166,128.181863,37.928052,6625.1379816,-0.332,-8.497,180.03,1.0
13.6333,128.181863,37.927998,6624.264120000001,-0.333,-8.504,180.03,1.0
13.65,128.181863,37.927944,6623.3896488,-0.333,-8.511,180.03,1.0
13.6666,128.181863,37.92789,6622.514263200001,-0.334,-8.518,180.03,1.0
13.6833,128.181863,37.927835,6621.6379632,-0.335,-8.525,180.03,1.0
13.7,128.181863,37.927781,6620.760444,-0.336,-8.531,180.03,1.0
13.7166,128.181863,37.927727,6619.882620000001,-0.336,-8.538,180.031,1.0
13.7333,128.181863,37.927673,6619.0035768,-0.337,-8.545,180.031,1.0
13.75,128.181863,37.927618,6618.123619200001,-0.338,-8.552,180.031,1.0
13.7666,128.181863,37.927564,6617.242747200001,-0.339,-8.559,180.031,1.0
13.7833,128.181863,37.92751,6616.360960800001,-0.34,-8.566,180.031,1.0
13.8,128.181863,37.927455,6615.478564800001,-0.34,-8.572,180.031,1.0
13.8166,128.181863,37.927401,6614.5949496,-0.341,-8.579,180.031,1.0
13.8333,128.181863,37.927347,6613.710724800001,-0.342,-8.586,180.031,1.0
13.85,128.181863,37.927292,6612.8255856000005,-0.343,-8.593,180.031,1.0
13.8666,128.181863,37.927238,6611.939532,-0.344,-8.599,180.031,1.0
13.8833,128.181863,37.927183,6611.0525640000005,-0.344,-8.606,180.031,1.0
13.9,128.181863,37.927129,6610.1646816,-0.345,-8.613,180.031,1.0
13.9166,128.181863,37.927075,6609.2758848,-0.346,-8.62,180.031,1.0
13.9333,128.181863,37.92702,6608.386173600001,-0.347,-8.626,180.031,1.0
13.95,128.181863,37.926966,6607.4958528,-0.348,-8.633,180.031,1.0
13.9666,128.181863,37.926911,6606.6043128,-0.348,-8.64,180.031,1.0
13.9833,128.181863,37.926857,6605.7121632,-0.349,-8.646,180.031,1.0
14.0,128.181863,37.926802,6604.8187944,-0.35,-8.653,180.031,1.0
14.0166,128.181863,37.926748,6603.924816,-0.351,-8.66,180.031,1.0
14.0333,128.181863,37.926694,6603.029923200001,-0.352,-8.667,180.031,1.0
14.05,128.181863,37.926639,6602.134116,-0.352,-8.673,180.031,1.0
14.0666,128.181863,37.926585,6601.2373944,-0.353,-8.68,180.031,1.0
14.0833,128.181863,37.92653,6600.3400632,-0.354,-8.687,180.031,1.0
14.1,128.181863,37.926475,6599.4415128,-0.355,-8.693,180.031,1.0
14.1166,128.181862,37.926421,6598.542048,-0.356,-8.7,180.031,1.0
14.1333,128.181862,37.926366,6597.641973600001,-0.357,-8.706,180.031,1.0
14.15,128.181862,37.926312,6596.7409848,-0.357,-8.713,180.031,1.0
14.1666,128.181862,37.926257,6595.8390816,-0.358,-8.72,180.031,1.0
14.1833,128.181862,37.926203,6594.936264000001,-0.359,-8.726,180.031,1.0
14.2,128.181862,37.926148,6594.032532,-0.36,-8.733,180.031,1.0
14.2166,128.181862,37.926093,6593.1278856,-0.361,-8.74,180.031,1.0
14.2333,128.181862,37.926039,6592.2226296,-0.362,-8.746,180.031,1.0
14.25,128.181862,37.925984,6591.3161544,-0.362,-8.753,180.031,1.0
14.2666,128.181862,37.92593,6590.4090696,-0.363,-8.759,180.031,1.0
14.2833,128.181862,37.925875,6589.501070400001,-0.364,-8.766,180.031,1.0
14.3,128.181862,37.92582,6588.592156800001,-0.365,-8.773,180.031,1.0
14.3166,128.181862,37.925765,6587.6823288000005,-0.366,-8.779,180.031,1.0
14.3333,128.181862,37.925711,6586.7715864,-0.366,-8.786,180.031,1.0
14.35,128.181862,37.925656,6585.8599296,-0.367,-8.792,180.031,1.0
14.3666,128.181862,37.925601,6584.9476632000005,-0.368,-8.799,180.031,1.0
14.3833,128.181862,37.925547,6584.0344824,-0.369,-8.805,180.031,1.0
14.4,128.181862,37.925492,6583.120082400001,-0.37,-8.812,180.031,1.0
14.4166,128.181862,37.925437,6582.2050728,-0.371,-8.818,180.031,1.0
14.4333,128.181862,37.925382,6581.2894536,-0.371,-8.825,180.031,1.0
14.45,128.181862,37.925328,6580.372615200001,-0.372,-8.831,180.031,1.0
14.4666,128.181862,37.925273,6579.4548624,-0.373,-8.838,180.031,1.0
14.4833,128.181862,37.925218,6578.5365,-0.374,-8.844,180.031,1.0
14.5,128.181862,37.925163,6577.617223200001,-0.375,-8.851,180.031,1.0
14.5166,128.181862,37.925108,6576.697032,-0.376,-8.857,180.031,1.0
14.5333,128.181862,37.925054,6575.775926400001,-0.377,-8.864,180.031,1.0
14.55,128.181862,37.924999,6574.853906400001,-0.377,-8.87,180.031,1.0
14.5666,128.181862,37.924944,6573.930972,-0.378,-8.877,180.031,1.0
14.5833,128.181862,37.924889,6573.007428000001,-0.379,-8.883,180.031,1.0
14.6,128.181862,37.924834,6572.082969600001,-0.38,-8.89,180.031,1.0
14.6166,128.181862,37.924779,6571.157292000001,-0.381,-8.896,180.031,1.0
14.6333,128.181862,37.924724,6570.231309600001,-0.382,-8.902,180.031,1.0
14.65,128.181862,37.924669,6569.304108,-0.382,-8.909,180.031,1.0
14.6666,128.181862,37.924615,6568.375992,-0.383,-8.915,180.031,1.0
14.6833,128.181862,37.92456,6567.4472663999995,-0.384,-8.922,180.031,1.0
14.7,128.181861,37.924505,6566.5176264,-0.385,-8.928,180.031,1.0
