Time,Longitude,Latitude,Altitude,Roll (deg),Pitch (deg),Yaw (deg),Health
0.0,128.181881,37.968463,7002.830292000001,0.0,-0.003,179.999,1.0
0.0166,128.181881,37.968418,7002.8116992000005,0.0,-0.012,180.0,1.0
0.0333,128.181881,37.968374,7002.7912776,0.087,-0.026,180.011,1.0
0.05,128.181881,37.968329,7002.771160800001,0.084,-0.042,180.011,1.0
0.0666,128.181881,37.968284,7002.7504344,0.0,-0.06,179.995,1.0
0.0833,128.181881,37.968239,7002.7281840000005,0.004,-0.08,179.992,1.0
0.1,128.181881,37.968194,7002.7041048,0.088,-0.1,180.005,1.0
0.1166,128.181881,37.968149,7002.6803304000005,0.082,-0.12,180.007,1.0
0.1333,128.181881,37.968104,7002.656251200001,-0.004,-0.141,179.993,1.0
0.15,128.181881,37.968059,7002.630038400001,-0.001,-0.161,179.991,1.0
0.1666,128.181881,37.968014,7002.602301600001,0.082,-0.181,180.005,1.0
0.1833,128.181881,37.967969,7002.574869600001,0.075,-0.202,180.007,1.0
0.2,128.181881,37.967924,7002.5468280000005,-0.011,-0.221,179.993,1.0
0.2166,128.181881,37.967879,7002.5166528,-0.007,-0.241,179.991,1.0
0.2333,128.181881,37.967834,7002.4852584,0.076,-0.26,180.005,1.0
0.25,128.181881,37.967788,7002.4535592,0.07,-0.279,180.007,1.0
0.2666,128.181881,37.967743,7002.42186,-0.016,-0.298,179.993,1.0
0.2833,128.181881,37.967698,7002.387722400001,-0.012,-0.316,179.991,1.0
0.3,128.181881,37.967653,7002.352060800001,0.072,-0.334,180.005,1.0
0.3166,128.181881,37.967608,7002.3163992,0.066,-0.353,180.007,1.0
0.3333,128.181881,37.967563,7002.2804328,-0.02,-0.37,179.993,1.0
0.35,128.181881,37.967518,7002.2423328,-0.016,-0.388,179.991,1.0
0.3666,128.181881,37.967473,7002.202404000001,0.068,-0.405,180.005,1.0
0.3833,128.181881,37.967428,7002.1624752,0.062,-0.422,180.007,1.0
0.4,128.181881,37.967382,7002.122241600001,-0.023,-0.439,179.994,1.0
0.4166,128.181881,37.967337,7002.0798744,-0.018,-0.456,179.991,1.0
0.4333,128.181881,37.967292,7002.0356784000005,0.066,-0.473,180.005,1.0
0.45,128.181881,37.967247,7001.991482400001,0.06,-0.489,180.008,1.0
0.4666,128.181881,37.967202,7001.9469816,-0.025,-0.505,179.994,1.0
0.4833,128.181881,37.967157,7001.9003472,-0.02,-0.521,179.992,1.0
0.5,128.181881,37.967111,7001.851884000001,0.064,-0.537,180.006,1.0
0.5166,128.181881,37.967066,7001.8034208,0.059,-0.553,180.008,1.0
0.5333,128.181881,37.967021,7001.7543479999995,-0.026,-0.569,179.994,1.0
0.55,128.181881,37.966976,7001.703141600001,-0.021,-0.584,179.992,1.0
0.5666,128.181881,37.966931,7001.6501064,0.064,-0.6,180.006,1.0
0.5833,128.181881,37.966885,7001.597376,0.058,-0.615,180.008,1.0
0.6,128.181881,37.96684,7001.5437312,-0.027,-0.63,179.994,1.0
0.6166,128.181881,37.966795,7001.4882576,-0.022,-0.645,179.992,1.0
0.6333,128.181881,37.96675,7001.4330887999995,-0.112,-0.66,179.983,1.0
0.65,128.181881,37.966704,7001.3754816,-0.111,-0.675,179.986,1.0
0.6666,128.181881,37.966659,7001.318484000001,-0.204,-0.69,179.98,1.0
0.6833,128.181881,37.966614,7001.2608768,-0.379,-0.704,179.962,1.0
0.7,128.181881,37.966568,7001.203879200001,-0.641,-0.718,179.935,1.0
0.7166,128.181881,37.966523,7001.1453576,-0.814,-0.731,179.927,1.0
0.7333,128.181881,37.966478,7001.0859216,-0.904,-0.744,179.938,1.0
0.75,128.181881,37.966432,7001.0249616,-0.905,-0.757,179.964,1.0
0.7666,128.181881,37.966387,7000.961868,-0.81,-0.771,179.996,1.0
0.7833,128.181881,37.966342,7000.896640800001,-0.617,-0.784,180.033,1.0
0.8,128.181881,37.966296,7000.828670400001,-0.325,-0.798,180.07,1.0
0.8166,128.181881,37.966251,7000.757652000001,0.062,-0.812,180.106,1.0
0.8333,128.181881,37.966206,7000.6835856,0.543,-0.827,180.142,1.0
0.85,128.181881,37.96616,7000.6058616,1.113,-0.842,180.177,1.0
0.8666,128.181881,37.966115,7000.5241752,1.768,-0.858,180.21,1.0
0.8833,128.181881,37.966069,7000.4379168,2.504,-0.876,180.243,1.0
0.9,128.181881,37.966024,7000.347391200001,3.319,-0.895,180.273,1.0
0.9166,128.181881,37.965978,7000.2529032,4.207,-0.915,180.303,1.0
0.9333,128.181881,37.965933,7000.154148,5.167,-0.936,180.332,1.0
0.95,128.181881,37.965887,7000.0514304,6.194,-0.959,180.359,1.0
0.9666,128.181881,37.965842,6999.9444456,7.286,-0.983,180.385,1.0
0.9833,128.181881,37.965796,6999.8334984,8.441,-1.009,180.409,1.0
1.0,128.181881,37.965751,6999.718588799999,9.654,-1.036,180.433,1.0
1.0166,128.181881,37.965705,6999.6000216,10.924,-1.065,180.455,1.0
1.0333,128.181881,37.96566,6999.4771872,12.249,-1.095,180.475,1.0
1.05,128.181881,37.965614,6999.350695200001,13.626,-1.127,180.494,1.0
1.0666,128.181881,37.965568,6999.2205456,15.052,-1.161,180.512,1.0
1.0833,128.181881,37.965523,6999.0864336,16.527,-1.195,180.528,1.0
1.1,128.181881,37.965477,6998.948359200001,18.047,-1.232,180.542,1.0
1.1166,128.181881,37.965432,6998.806932,19.612,-1.269,180.555,1.0
1.1333,128.181881,37.965386,6998.661847200001,21.219,-1.308,180.567,1.0
1.15,128.181881,37.96534,6998.5128,22.866,-1.348,180.576,1.0
1.1666,128.181881,37.965295,6998.3604000000005,24.553,-1.388,180.584,1.0
1.1833,128.181881,37.965249,6998.204647200001,26.277,-1.43,180.59,1.0
1.2,128.181881,37.965203,6998.045236800001,28.038,-1.473,180.594,1.0
1.2166,128.181881,37.965157,6997.882168800001,29.833,-1.517,180.597,1.0
1.2333,128.181881,37.965112,6997.715748,31.662,-1.561,180.597,1.0
1.25,128.181881,37.965066,6997.545974400001,33.524,-1.606,180.596,1.0
1.2666,128.181881,37.96502,6997.3725432,35.417,-1.651,180.593,1.0
1.2833,128.181881,37.964974,6997.196064000001,37.341,-1.697,180.588,1.0
1.3,128.181881,37.964928,6997.016232,39.294,-1.743,180.582,1.0
1.3166,128.181882,37.964882,6996.833047200001,41.275,-1.789,180.573,1.0
1.3333,128.181882,37.964837,6996.6465096,43.284,-1.835,180.563,1.0
1.35,128.181882,37.964791,6996.4566192,45.32,-1.882,180.55,1.0
1.3666,128.181882,37.964745,6996.2636808,47.382,-1.928,180.536,1.0
1.3833,128.181882,37.964699,6996.0673896,49.469,-1.973,180.521,1.0
1.4,128.181882,37.964653,6995.8680504,51.58,-2.019,180.503,1.0
1.4166,128.181882,37.964607,6995.6656632,53.715,-2.064,180.484,1.0
1.4333,128.181882,37.964561,6995.4599232,55.873,-2.108,180.463,1.0
1.45,128.181882,37.964515,6995.2511352,58.054,-2.151,180.441,1.0
1.4666,128.181882,37.964469,6995.0392992,60.257,-2.194,180.417,1.0
1.4833,128.181883,37.964423,6994.824415200001,62.481,-2.236,180.392,1.0
1.5,128.181883,37.964377,6994.606483200001,64.726,-2.277,180.365,1.0
1.5166,128.181883,37.964331,6994.385808,66.991,-2.317,180.338,1.0
1.5333,128.181883,37.964285,6994.1620848,69.276,-2.356,180.309,1.0
1.55,128.181883,37.964239,6993.9353136,71.58,-2.394,180.278,1.0
1.5666,128.181883,37.964193,6993.7054944,73.904,-2.43,180.247,1.0
1.5833,128.181884,37.964147,6993.472932000001,76.245,-2.465,180.215,1.0
1.6,128.181884,37.964101,6993.2376264,78.605,-2.499,180.182,1.0
1.6166,128.181884,37.964055,6992.9995776000005,80.982,-2.531,180.149,1.0
1.6333,128.181884,37.964009,6992.7584808,83.376,-2.562,180.115,1.0
1.65,128.181884,37.963962,6992.514945600001,85.787,-2.592,180.08,1.0
1.6666,128.181885,37.963916,6992.2686672,88.214,-2.62,180.045,1.0
1.6833,128.181885,37.96387,6992.0196456,90.656,-2.647,180.009,1.0
1.7,128.181885,37.963824,6991.7681856,93.115,-2.672,179.974,1.0
1.7166,128.181885,37.963778,6991.513982400001,95.588,-2.696,179.938,1.0
1.7333,128.181886,37.963731,6991.257340800001,98.075,-2.718,179.902,1.0
1.75,128.181886,37.963685,6990.997956000001,100.577,-2.739,179.866,1.0
1.7666,128.181886,37.963639,6990.7364376000005,103.092,-2.758,179.83,1.0
1.7833,128.181887,37.963593,6990.4724808,105.621,-2.776,179.795,1.0
1.8,128.181887,37.963546,6990.206390400001,108.162,-2.793,179.76,1.0
1.8166,128.181887,37.9635,6989.937861599999,110.716,-2.808,179.725,1.0
1.8333,128.181887,37.963454,6989.6668944,113.282,-2.822,179.69,1.0
1.85,128.181888,37.963407,6989.3940984,115.859,-2.835,179.656,1.0
1.8666,128.181888,37.963361,6989.119168800001,118.447,-2.847,179.623,1.0
1.8833,128.181889,37.963315,6988.842105600001,121.046,-2.857,179.59,1.0
1.9,128.181889,37.963268,6988.5629088000005,123.656,-2.867,179.558,1.0
1.9166,128.181889,37.963222,6988.282188000001,126.275,-2.875,179.526,1.0
1.9333,128.18189,37.963176,6987.999333600001,128.904,-2.882,179.495,1.0
1.95,128.18189,37.963129,6987.7143456,131.542,-2.889,179.464,1.0
1.9666,128.181891,37.963083,6987.4281384000005,134.19,-2.894,179.435,1.0
1.9833,128.181891,37.963036,6987.139797600001,136.846,-2.899,179.405,1.0
2.0,128.181891,37.96299,6986.849932800001,139.51,-2.902,179.377,1.0
2.0166,128.181892,37.962943,6986.558544,142.182,-2.905,179.349,1.0
2.0333,128.181892,37.962897,6986.2653264,144.862,-2.907,179.322,1.0
2.05,128.181893,37.96285,6985.9708896,147.549,-2.909,179.296,1.0
2.0666,128.181893,37.962804,6985.674624,150.242,-2.909,179.27,1.0
2.0833,128.181894,37.962757,6985.3771392,152.942,-2.909,179.245,1.0
2.1,128.181894,37.96271,6985.0781304,155.648,-2.908,179.221,1.0
2.1166,128.181895,37.962664,6984.777597600001,158.359,-2.907,179.198,1.0
2.1333,128.181895,37.962617,6984.4758456,161.074,-2.905,179.175,1.0
2.15,128.181896,37.962571,6984.172874400001,163.795,-2.902,179.153,1.0
2.1666,128.181896,37.962524,6983.868379200001,166.519,-2.898,179.132,1.0
2.1833,128.181897,37.962477,6983.562664800001,169.246,-2.894,179.112,1.0
2.2,128.181897,37.962431,6983.2554264,171.977,-2.889,179.092,1.0
2.2166,128.181898,37.962384,6982.947273600001,174.709,-2.883,179.073,1.0
2.2333,128.181898,37.962337,6982.637596800001,177.444,-2.877,179.056,1.0
2.25,128.181899,37.962291,6982.326396,-179.819,-2.87,179.039,1.0
2.2666,128.181899,37.962244,6982.0142808,-177.082,-2.863,179.023,1.0
2.2833,128.1819,37.962197,6981.7006416,-174.345,-2.854,179.007,1.0
2.3,128.1819,37.96215,6981.3854784000005,-171.608,-2.845,178.993,1.0
2.3166,128.1819,37.962103,6981.069096,-168.872,-2.835,178.98,1.0
2.3333,128.181901,37.962057,6980.7514944,-166.137,-2.825,178.968,1.0
2.35,128.181901,37.96201,6980.4323688,-163.404,-2.813,178.957,1.0
2.3666,128.181902,37.961963,6980.1117192,-160.672,-2.801,178.947,1.0
2.3833,128.181902,37.961916,6979.789545600001,-157.944,-2.789,178.938,1.0
2.4,128.181903,37.961869,6979.465848,-155.218,-2.775,178.93,1.0
2.4166,128.181903,37.961822,6979.1406264,-152.495,-2.761,178.924,1.0
2.4333,128.181904,37.961775,6978.8135760000005,-149.97,-2.757,178.939,1.0
2.45,128.181904,37.961728,6978.484392,-147.635,-2.765,178.973,1.0
2.4666,128.181905,37.961682,6978.1524648,-145.497,-2.78,179.019,1.0
2.4833,128.181905,37.961635,6977.8171848,-143.559,-2.798,179.071,1.0
2.5,128.181906,37.961588,6977.478856800001,-141.819,-2.82,179.123,1.0
2.5166,128.181906,37.961541,6977.1368712,-140.273,-2.842,179.175,1.0
2.5333,128.181907,37.961494,6976.791228000001,-138.915,-2.866,179.225,1.0
2.55,128.181907,37.961447,6976.4419272000005,-137.737,-2.891,179.272,1.0
2.5666,128.181908,37.9614,6976.0880544,-136.731,-2.917,179.316,1.0
2.5833,128.181908,37.961353,6975.730219200001,-135.891,-2.945,179.357,1.0
2.6,128.181909,37.961306,6975.3678119999995,-135.21,-2.974,179.395,1.0
2.6166,128.181909,37.961259,6975.0008328,-134.681,-3.005,179.431,1.0
2.6333,128.18191,37.961212,6974.628976800001,-134.299,-3.037,179.464,1.0
2.65,128.181911,37.961165,6974.2525488,-134.056,-3.071,179.495,1.0
2.6666,128.181911,37.961118,6973.8706344,-133.948,-3.106,179.522,1.0
2.6833,128.181912,37.961071,6973.4838432,-133.969,-3.142,179.548,1.0
2.7,128.181913,37.961024,6973.091565600001,-134.114,-3.179,179.571,1.0
2.7166,128.181913,37.960977,6972.6934968000005,-134.378,-3.217,179.591,1.0
2.7333,128.181914,37.96093,6972.290551200001,-134.756,-3.257,179.609,1.0
2.75,128.181915,37.960882,6971.8821192000005,-135.243,-3.297,179.625,1.0
2.7666,128.181916,37.960835,6971.468200800001,-135.836,-3.338,179.64,1.0
2.7833,128.181917,37.960788,6971.049405600001,-136.53,-3.38,179.652,1.0
2.8,128.181918,37.960741,6970.625124000001,-137.321,-3.423,179.663,1.0
2.8166,128.181918,37.960694,6970.195965600001,-138.204,-3.466,179.673,1.0
2.8333,128.181919,37.960647,6969.7613208,-139.176,-3.51,179.681,1.0
2.85,128.18192,37.9606,6969.3214944,-140.233,-3.554,179.688,1.0
2.8666,128.181921,37.960553,6968.876181600001,-141.371,-3.6,179.694,1.0
2.8833,128.181922,37.960506,6968.425992,-142.587,-3.645,179.7,1.0
2.9,128.181924,37.960459,6967.970316,-143.877,-3.691,179.704,1.0
2.9166,128.181925,37.960412,6967.5094584,-145.239,-3.738,179.708,1.0
2.9333,128.181926,37.960365,6967.0431144,-146.668,-3.784,179.712,1.0
2.95,128.181927,37.960318,6966.5715887999995,-148.161,-3.831,179.716,1.0
2.9666,128.181928,37.960271,6966.0948816,-149.716,-3.878,179.719,1.0
2.9833,128.181929,37.960224,6965.612688000001,-151.329,-3.925,179.722,1.0
3.0,128.18193,37.960177,6965.1247032,-152.998,-3.973,179.726,1.0
3.0166,128.181932,37.96013,6964.6315368000005,-154.719,-4.02,179.729,1.0
3.0333,128.181933,37.960083,6964.132884000001,-156.49,-4.067,179.733,1.0
3.05,128.181934,37.960036,6963.6287448,-158.309,-4.115,179.737,1.0
3.0666,128.181935,37.959989,6963.119119200001,-160.171,-4.162,179.742,1.0
3.0833,128.181936,37.959942,6962.6037024,-162.076,-4.208,179.747,1.0
3.1,128.181938,37.959895,6962.0827992,-164.02,-4.255,179.752,1.0
3.1166,128.181939,37.959848,6961.556104800001,-166.001,-4.301,179.758,1.0
3.1333,128.18194,37.9598,6961.023924000001,-168.017,-4.346,179.765,1.0
3.15,128.181942,37.959753,6960.485952000001,-170.065,-4.391,179.772,1.0
3.1666,128.181943,37.959706,6959.941884000001,-172.144,-4.435,179.78,1.0
3.1833,128.181944,37.959659,6959.392329599999,-174.25,-4.479,179.789,1.0
3.2,128.181946,37.959612,6958.8369840000005,-176.383,-4.521,179.798,1.0
3.2166,128.181947,37.959565,6958.275542400001,-178.539,-4.563,179.808,1.0
3.2333,128.181948,37.959518,6957.7086144,179.281,-4.604,179.819,1.0
3.25,128.181949,37.959471,6957.1352856,177.082,-4.643,179.83,1.0
3.2666,128.181951,37.959424,6956.556470400001,174.865,-4.682,179.842,1.0
3.2833,128.181952,37.959377,6955.9715592,172.63,-4.719,179.854,1.0
3.3,128.181953,37.95933,6955.3805520000005,170.381,-4.756,179.866,1.0
3.3166,128.181955,37.959283,6954.7837536,168.119,-4.79,179.879,1.0
3.3333,128.181956,37.959236,6954.1811640000005,165.844,-4.824,179.892,1.0
3.35,128.181957,37.959189,6953.5721736000005,163.56,-4.856,179.906,1.0
3.3666,128.181958,37.959142,6952.957696800001,161.266,-4.887,179.919,1.0
3.3833,128.18196,37.959095,6952.337124000001,158.964,-4.916,179.933,1.0
3.4,128.181961,37.959048,6951.7104552,156.656,-4.944,179.947,1.0
3.4166,128.181962,37.959001,6951.0783,154.343,-4.97,179.96,1.0
3.4333,128.181963,37.958954,6950.4400488,152.026,-4.995,179.973,1.0
3.45,128.181964,37.958907,6949.796006400001,149.706,-5.019,179.986,1.0
3.4666,128.181965,37.95886,6949.1461728,147.384,-5.041,179.999,1.0
3.4833,128.181967,37.958812,6948.4923768,145.26,-5.075,179.99,1.0
3.5,128.181968,37.958765,6947.8340088,143.328,-5.121,179.962,1.0
3.5166,128.181969,37.958718,6947.170764,141.595,-5.175,179.921,1.0
3.5333,128.18197,37.958671,6946.503556800001,140.065,-5.232,179.876,1.0
3.55,128.181971,37.958624,6945.8320824,138.738,-5.289,179.829,1.0
3.5666,128.181972,37.958577,6945.156950400001,137.609,-5.346,179.784,1.0
3.5833,128.181973,37.95853,6944.478160800001,136.672,-5.402,179.74,1.0
3.6,128.181974,37.958483,6943.7960184,135.917,-5.457,179.699,1.0
3.6166,128.181975,37.958436,6943.111132800001,135.338,-5.512,179.66,1.0
3.6333,128.181976,37.958389,6942.4231992,134.927,-5.565,179.623,1.0
3.65,128.181976,37.958342,6941.7328272,134.676,-5.619,179.588,1.0
3.6666,128.181977,37.958294,6941.0403216,134.578,-5.672,179.554,1.0
3.6833,128.181978,37.958247,6940.345377600001,134.628,-5.724,179.522,1.0
3.7,128.181979,37.9582,6939.6489096000005,134.818,-5.775,179.49,1.0
3.7166,128.18198,37.958153,6938.9506128,135.143,-5.826,179.46,1.0
3.7333,128.181981,37.958106,6938.251096800001,135.596,-5.876,179.43,1.0
3.75,128.181982,37.958058,6937.5503616,136.173,-5.924,179.401,1.0
3.7666,128.181983,37.958011,6936.848712,136.867,-5.972,179.373,1.0
3.7833,128.181984,37.957964,6936.145538400001,137.674,-6.018,179.345,1.0
3.8,128.181986,37.957917,6935.4417552,138.588,-6.063,179.317,1.0
3.8166,128.181987,37.957869,6934.736448,139.604,-6.107,179.289,1.0
3.8333,128.181988,37.957822,6934.0302264,140.719,-6.15,179.262,1.0
3.85,128.181989,37.957775,6933.3230904,141.927,-6.192,179.235,1.0
3.8666,128.18199,37.957727,6932.61504,143.224,-6.233,179.208,1.0
3.8833,128.181991,37.95768,6931.905770400001,144.606,-6.272,179.181,1.0
3.9,128.181992,37.957632,6931.1955864,146.069,-6.31,179.154,1.0
3.9166,128.181993,37.957585,6930.484488000001,147.609,-6.347,179.127,1.0
3.9333,128.181994,37.957538,6929.7724751999995,149.223,-6.383,179.1,1.0
3.95,128.181996,37.95749,6929.059548,150.907,-6.417,179.073,1.0
3.9666,128.181997,37.957443,6928.346011200001,152.657,-6.45,179.046,1.0
3.9833,128.181998,37.957395,6927.631560000001,154.47,-6.482,179.019,1.0
4.0,128.181999,37.957348,6926.9161944,156.343,-6.513,178.992,1.0
4.0166,128.182,37.9573,6926.200219200001,158.273,-6.542,178.965,1.0
4.0333,128.182002,37.957252,6925.4833296,160.257,-6.57,178.938,1.0
4.05,128.182003,37.957205,6924.7658304,162.293,-6.597,178.912,1.0
4.0666,128.182004,37.957157,6924.0477216,164.376,-6.622,178.885,1.0
4.0833,128.182005,37.95711,6923.3290032,166.505,-6.646,178.858,1.0
4.1,128.182006,37.957062,6922.6093704,168.677,-6.669,178.831,1.0
4.1166,128.182008,37.957014,6921.889128000001,170.89,-6.69,178.805,1.0
4.1333,128.182009,37.956967,6921.1679712,173.14,-6.71,178.778,1.0
4.15,128.18201,37.956919,6920.4465096,175.427,-6.728,178.752,1.0
4.1666,128.182011,37.956871,6919.724133600001,177.746,-6.744,178.726,1.0
4.1833,128.182013,37.956824,6919.0008431999995,-179.901,-6.759,178.701,1.0
4.2,128.182014,37.956776,6918.2769432,-177.521,-6.772,178.675,1.0
4.2166,128.182015,37.956728,6917.5515192,-175.322,-6.786,178.676,1.0
4.2333,128.182016,37.95668,6916.8242664,-173.3,-6.801,178.702,1.0
4.25,128.182018,37.956632,6916.0945752,-171.463,-6.817,178.743,1.0
4.2666,128.182019,37.956585,6915.362750400001,-169.816,-6.834,178.79,1.0
4.2833,128.18202,37.956537,6914.627877600001,-168.361,-6.851,178.837,1.0
4.3,128.182021,37.956489,6913.889956800001,-167.092,-6.869,178.883,1.0
4.3166,128.182023,37.956441,6913.1483784,-166.003,-6.889,178.926,1.0
4.3333,128.182024,37.956393,6912.4031424,-165.087,-6.91,178.966,1.0
4.35,128.182025,37.956345,6911.653944,-164.335,-6.932,179.005,1.0
4.3666,128.182026,37.956297,6910.900173600001,-163.741,-6.957,179.041,1.0
4.3833,128.182028,37.95625,6910.1418312000005,-163.297,-6.983,179.076,1.0
4.4,128.182029,37.956202,6909.3786119999995,-162.998,-7.011,179.109,1.0
4.4166,128.18203,37.956154,6908.610211200001,-162.837,-7.041,179.141,1.0
4.4333,128.182031,37.956106,6907.836628800001,-162.809,-7.072,179.171,1.0
4.45,128.182033,37.956058,6907.0569504000005,-162.908,-7.104,179.199,1.0
4.4666,128.182034,37.95601,6906.2714808,-163.129,-7.138,179.227,1.0
4.4833,128.182035,37.955962,6905.479610400001,-163.467,-7.174,179.253,1.0
4.5,128.182037,37.955914,6904.6810344,-163.916,-7.21,179.278,1.0
4.5166,128.182038,37.955866,6903.876972,-164.472,-7.248,179.301,1.0
4.5333,128.182039,37.955819,6903.066204000001,-165.131,-7.287,179.324,1.0
4.55,128.182041,37.955771,6902.2496448,-165.887,-7.326,179.346,1.0
4.5666,128.182042,37.955723,6901.4269896,-166.737,-7.367,179.367,1.0
4.5833,128.182043,37.955675,6900.598238400001,-167.676,-7.408,179.388,1.0
4.6,128.182045,37.955627,6899.7633912,-168.7,-7.449,179.408,1.0
4.6166,128.182046,37.955579,6898.922448,-169.805,-7.491,179.428,1.0
4.6333,128.182047,37.955531,6898.0757136,-170.988,-7.533,179.447,1.0
4.65,128.182049,37.955483,6897.222883200001,-172.245,-7.576,179.466,1.0
4.6666,128.18205,37.955435,6896.363956800001,-173.571,-7.618,179.485,1.0
4.6833,128.182052,37.955388,6895.4992392,-174.964,-7.661,179.504,1.0
4.7,128.182053,37.95534,6894.6281208,-176.421,-7.703,179.523,1.0
4.7166,128.182054,37.955292,6893.7521256,-177.722,-7.744,179.515,1.0
4.7333,128.182056,37.955244,6892.8712536,-178.874,-7.783,179.48,1.0
4.75,128.182057,37.955196,6891.985504800001,-179.863,-7.822,179.431,1.0
4.7666,128.182058,37.955148,6891.0954888,179.314,-7.86,179.376,1.0
4.7833,128.18206,37.9551,6890.201510400001,178.663,-7.898,179.32,1.0
4.8,128.182061,37.955052,6889.304179200001,178.178,-7.937,179.268,1.0
4.8166,128.182063,37.955004,6888.4031904,177.852,-7.975,179.218,1.0
4.8333,128.182064,37.954957,6887.499458400001,177.679,-8.014,179.17,1.0
4.85,128.182065,37.954909,6886.592983200001,177.652,-8.053,179.125,1.0
4.8666,128.182067,37.954861,6885.684069600001,177.763,-8.092,179.081,1.0
4.8833,128.182068,37.954813,6884.7733272000005,178.007,-8.131,179.038,1.0
4.9,128.182069,37.954765,6883.860756000001,178.377,-8.17,178.996,1.0
4.9166,128.182071,37.954717,6882.946965600001,178.867,-8.207,178.956,1.0
4.9333,128.182072,37.954669,6882.031956000001,179.472,-8.244,178.916,1.0
4.95,128.182074,37.954621,6881.116336800001,-179.812,-8.279,178.877,1.0
4.9666,128.182075,37.954573,6880.200108,-178.993,-8.313,178.839,1.0
4.9833,128.182076,37.954525,6879.283879200001,-178.075,-8.346,178.802,1.0
5.0,128.182078,37.954476,6878.3679552,-177.062,-8.377,178.766,1.0
5.0166,128.182079,37.954428,6877.4511168,-175.959,-8.406,178.73,1.0
5.0333,128.18208,37.95438,6876.5342784,-174.77,-8.433,178.696,1.0
5.05,128.182082,37.954332,6875.6168304,-173.501,-8.458,178.661,1.0
5.0666,128.182083,37.954284,6874.6990776,-172.155,-8.482,178.628,1.0
5.0833,128.182084,37.954236,6873.78102,-170.736,-8.503,178.595,1.0
5.1,128.182086,37.954187,6872.8623528,-169.248,-8.523,178.563,1.0
5.1166,128.182087,37.954139,6871.9430760000005,-167.696,-8.54,178.532,1.0
5.1333,128.182089,37.954091,6871.0231896000005,-166.081,-8.556,178.502,1.0
5.15,128.18209,37.954043,6870.1026936,-164.408,-8.569,178.473,1.0
5.1666,128.182091,37.953994,6869.1812832000005,-162.681,-8.581,178.444,1.0
5.1833,128.182093,37.953946,6868.2592632000005,-160.901,-8.59,178.417,1.0
5.2,128.182094,37.953898,6867.336328800001,-159.073,-8.598,178.391,1.0
5.2166,128.182095,37.953849,6866.4121752,-157.199,-8.603,178.366,1.0
5.2333,128.182096,37.953801,6865.4874119999995,-155.282,-8.607,178.342,1.0
5.25,128.182098,37.953752,6864.561429599999,-153.325,-8.609,178.32,1.0
5.2666,128.182099,37.953704,6863.634228000001,-151.329,-8.609,178.299,1.0
5.2833,128.1821,37.953656,6862.7058072,-149.298,-8.607,178.28,1.0
5.3,128.182102,37.953607,6861.7761672,-147.233,-8.604,178.262,1.0
5.3166,128.182103,37.953559,6860.845308,-145.357,-8.614,178.269,1.0
5.3333,128.182104,37.95351,6859.912315200001,-143.662,-8.639,178.298,1.0
5.35,128.182105,37.953462,6858.976884000001,-142.159,-8.672,178.342,1.0
5.3666,128.182107,37.953413,6858.0384048000005,-140.853,-8.708,178.39,1.0
5.3833,128.182108,37.953364,6857.0965728,-139.744,-8.744,178.439,1.0
5.4,128.182109,37.953316,6856.1510832,-138.828,-8.779,178.485,1.0
5.4166,128.182111,37.953267,6855.2022408,-138.097,-8.814,178.529,1.0
5.4333,128.182112,37.953219,6854.249436,-137.541,-8.849,178.57,1.0
5.45,128.182113,37.95317,6853.292668800001,-137.153,-8.884,178.609,1.0
5.4666,128.182115,37.953122,6852.3313296,-136.924,-8.919,178.645,1.0
5.4833,128.182116,37.953073,6851.365418400001,-136.849,-8.955,178.679,1.0
5.5,128.182117,37.953024,6850.39524,-136.919,-8.992,178.711,1.0
5.5166,128.182119,37.952976,6849.4198799999995,-137.129,-9.029,178.741,1.0
5.5333,128.18212,37.952927,6848.4393384,-137.473,-9.067,178.769,1.0
5.55,128.182122,37.952878,6847.453310400001,-137.945,-9.106,178.796,1.0
5.5666,128.182123,37.95283,6846.4621008,-138.54,-9.146,178.82,1.0
5.5833,128.182125,37.952781,6845.4651,-139.251,-9.186,178.843,1.0
5.6,128.182126,37.952733,6844.4616984,-140.075,-9.228,178.864,1.0
5.6166,128.182128,37.952684,6843.453115200001,-141.006,-9.27,178.883,1.0
5.6333,128.182129,37.952635,6842.4387408,-142.04,-9.312,178.901,1.0
5.65,128.182131,37.952587,6841.41888,-143.171,-9.355,178.917,1.0
5.6666,128.182133,37.952538,6840.3929232,-144.397,-9.399,178.933,1.0
5.6833,128.182134,37.95249,6839.3617848,-145.711,-9.443,178.947,1.0
5.7,128.182136,37.952441,6838.324550400001,-147.111,-9.488,178.961,1.0
5.7166,128.182138,37.952392,6837.282134399999,-148.591,-9.534,178.974,1.0
5.7333,128.18214,37.952344,6836.2336224,-150.149,-9.58,178.986,1.0
5.75,128.182141,37.952295,6835.179624,-151.781,-9.626,178.998,1.0
5.7666,128.182143,37.952247,6834.1201392,-153.482,-9.672,179.009,1.0
5.7833,128.182145,37.952198,6833.0545584,-155.249,-9.719,179.02,1.0
5.8,128.182147,37.95215,6831.983491200001,-157.079,-9.766,179.032,1.0
5.8166,128.182149,37.952101,6830.906632800001,-158.968,-9.812,179.043,1.0
5.8333,128.182151,37.952053,6829.823983200001,-160.686,-9.849,179.027,1.0
5.85,128.182152,37.952004,6828.7367616,-162.237,-9.876,178.984,1.0
5.8666,128.182154,37.951956,6827.6449680000005,-163.61,-9.898,178.926,1.0
5.8833,128.182156,37.951907,6826.5489072,-164.797,-9.919,178.864,1.0
5.9,128.182158,37.951858,6825.4491888,-165.795,-9.941,178.802,1.0
5.9166,128.18216,37.95181,6824.3458128,-166.611,-9.964,178.744,1.0
5.9333,128.182162,37.951761,6823.2396936,-167.251,-9.989,178.689,1.0
5.95,128.182164,37.951713,6822.1305264,-167.724,-10.016,178.637,1.0
5.9666,128.182166,37.951664,6821.0189208,-168.038,-10.044,178.586,1.0
5.9833,128.182168,37.951616,6819.9048768,-168.201,-10.072,178.537,1.0
6.0,128.182169,37.951567,6818.7893088,-168.22,-10.101,178.49,1.0
6.0166,128.182171,37.951519,6817.6722168,-168.101,-10.13,178.443,1.0
6.0333,128.182173,37.95147,6816.553905600001,-167.851,-10.159,178.398,1.0
6.05,128.182175,37.951421,6815.4343751999995,-167.476,-10.187,178.353,1.0
6.0666,128.182177,37.951373,6814.31454,-166.981,-10.215,178.31,1.0
6.0833,128.182179,37.951324,6813.1944,-166.373,-10.241,178.269,1.0
6.1,128.182181,37.951275,6812.0739552000005,-165.656,-10.266,178.228,1.0
6.1166,128.182183,37.951227,6810.954120000001,-164.837,-10.29,178.189,1.0
6.1333,128.182184,37.951178,6809.833370400001,-163.92,-10.312,178.15,1.0
6.15,128.182186,37.951129,6808.7129256,-162.91,-10.332,178.113,1.0
6.1666,128.182188,37.951081,6807.5918712,-161.812,-10.35,178.077,1.0
6.1833,128.18219,37.951032,6806.470512,-160.631,-10.367,178.042,1.0
6.2,128.182192,37.950983,6805.3485432,-159.371,-10.382,178.009,1.0
6.2166,128.182194,37.950934,6804.226269600001,-158.035,-10.395,177.977,1.0
6.2333,128.182195,37.950885,6803.1033864,-156.629,-10.406,177.946,1.0
6.25,128.182197,37.950837,6801.9795888,-155.386,-10.427,177.943,1.0
6.2666,128.182199,37.950788,6800.8542672,-154.299,-10.459,177.968,1.0
6.2833,128.182201,37.950739,6799.7271168,-153.382,-10.497,178.008,1.0
6.3,128.182203,37.95069,6798.5972232,-152.642,-10.536,178.053,1.0
6.3166,128.182204,37.950641,6797.4645864,-152.08,-10.574,178.098,1.0
6.3333,128.182206,37.950593,6796.328901600001,-151.692,-10.611,178.14,1.0
6.35,128.182208,37.950544,6795.189864000001,-151.47,-10.647,178.18,1.0
6.3666,128.18221,37.950495,6794.046864000001,-151.406,-10.682,178.216,1.0
6.3833,128.182212,37.950446,6792.900206400001,-151.491,-10.717,178.251,1.0
6.4,128.182214,37.950397,6791.7495864,-151.719,-10.753,178.284,1.0
6.4166,128.182215,37.950348,6790.5940896,-152.082,-10.789,178.316,1.0
6.4333,128.182217,37.950299,6789.4340208,-152.575,-10.825,178.347,1.0
6.45,128.182219,37.950251,6788.2690752,-153.192,-10.862,178.377,1.0
6.4666,128.182221,37.950202,6787.0986432,-153.926,-10.9,178.405,1.0
6.4833,128.182223,37.950153,6785.922724800001,-154.774,-10.938,178.432,1.0
6.5,128.182225,37.950104,6784.7407104,-155.729,-10.977,178.458,1.0
6.5166,128.182227,37.950055,6783.552904800001,-156.788,-11.016,178.483,1.0
6.5333,128.182229,37.950007,6782.3583935999995,-157.944,-11.056,178.507,1.0
6.55,128.182231,37.949958,6781.158091200001,-159.193,-11.097,178.531,1.0
6.5666,128.182233,37.949909,6779.951692800001,-160.531,-11.138,178.553,1.0
6.5833,128.182235,37.94986,6778.7391984,-161.954,-11.179,178.575,1.0
6.6,128.182237,37.949812,6777.520912800001,-163.457,-11.221,178.597,1.0
6.6166,128.182239,37.949763,6776.296531200001,-165.037,-11.263,178.618,1.0
6.6333,128.182241,37.949714,6775.0657488,-166.689,-11.309,178.639,1.0
6.65,128.182243,37.949665,6773.8291752,-168.409,-11.36,178.658,1.0
6.6666,128.182245,37.949617,6772.5865056,-170.194,-11.418,178.675,1.0
6.6833,128.182247,37.949568,6771.3374352,-172.039,-11.485,178.692,1.0
6.7,128.182249,37.949519,6770.081964000001,-173.942,-11.561,178.708,1.0
6.7166,128.182252,37.949471,6768.820092000001,-175.898,-11.646,178.724,1.0
6.7333,128.182254,37.949422,6767.551819200001,-177.905,-11.741,178.741,1.0
6.75,128.182256,37.949374,6766.2771456,-179.959,-11.846,178.759,1.0
6.7666,128.182258,37.949325,6764.9954615999995,177.943,-11.961,178.779,1.0
6.7833,128.18226,37.949276,6763.7067672,175.806,-12.086,178.803,1.0
6.8,128.182262,37.949228,6762.4113672,173.632,-12.221,178.831,1.0
6.8166,128.182264,37.949179,6761.108347200001,171.424,-12.366,178.863,1.0
6.8333,128.182266,37.949131,6759.798012,169.186,-12.52,178.902,1.0
6.85,128.182268,37.949082,6758.480056800001,166.919,-12.684,178.947,1.0
6.8666,128.18227,37.949034,6757.1544816000005,164.626,-12.857,179.001,1.0
6.8833,128.182272,37.948985,6755.8206768,162.311,-13.039,179.063,1.0
6.9,128.182274,37.948937,6754.4786424,159.976,-13.229,179.135,1.0
6.9166,128.182276,37.948888,6753.128378400001,157.622,-13.426,179.217,1.0
6.9333,128.182278,37.94884,6751.7692752,155.253,-13.631,179.312,1.0
6.95,128.18228,37.948792,6750.401332800001,152.869,-13.843,179.419,1.0
6.9666,128.182282,37.948743,6749.024551200001,150.472,-14.061,179.539,1.0
6.9833,128.182284,37.948695,6747.6386256,148.064,-14.283,179.674,1.0
7.0,128.182286,37.948646,6746.243556,145.644,-14.506,179.822,1.0
7.0166,128.182287,37.948598,6744.839037600001,143.212,-14.729,179.984,1.0
7.0333,128.182289,37.94855,6743.425070400001,140.77,-14.95,180.159,1.0
7.05,128.182291,37.948502,6742.001959200001,138.318,-15.168,180.348,1.0
7.0666,128.182292,37.948453,6740.569399200001,135.854,-15.382,180.549,1.0
7.0833,128.182294,37.948405,6739.1273904,133.38,-15.59,180.764,1.0
7.1,128.182295,37.948357,6737.675932800001,130.895,-15.791,180.993,1.0
7.1166,128.182296,37.948309,6736.215636,128.397,-15.986,181.235,1.0
7.1333,128.182297,37.948261,6734.7458904000005,125.888,-16.173,181.49,1.0
7.15,128.182298,37.948212,6733.2673056,123.366,-16.351,181.758,1.0
7.1666,128.182299,37.948164,6731.7798816,120.831,-16.52,182.039,1.0
7.1833,128.1823,37.948116,6730.283923200001,118.282,-16.678,182.333,1.0
7.2,128.182301,37.948068,6728.7794304,115.719,-16.825,182.639,1.0
7.2166,128.182301,37.94802,6727.2673176,113.142,-16.96,182.957,1.0
7.2333,128.182302,37.947972,6725.7475848,110.549,-17.081,183.287,1.0
7.25,128.182302,37.947924,6724.220232000001,107.942,-17.189,183.628,1.0
7.2666,128.182302,37.947876,6722.686478400001,105.319,-17.282,183.98,1.0
7.2833,128.182302,37.947829,6721.146628800001,102.712,-17.362,184.341,1.0
7.3,128.182302,37.947781,6719.6028168,100.309,-17.447,184.687,1.0
7.3166,128.182302,37.947733,6718.0535184,98.112,-17.531,184.998,1.0
7.3333,128.182302,37.947685,6716.499038400001,96.137,-17.602,185.258,1.0
7.35,128.182301,37.947637,6714.9396816,94.391,-17.649,185.448,1.0
7.3666,128.1823,37.947589,6713.375448,92.653,-17.656,185.551,1.0
7.3833,128.1823,37.947542,6711.807556800001,90.922,-17.631,185.546,1.0
7.4,128.182299,37.947494,6710.2363128,89.177,-17.587,185.456,1.0
7.4166,128.182298,37.947446,6708.6623256,87.398,-17.538,185.302,1.0
7.4333,128.182297,37.947398,6707.086204800001,85.571,-17.489,185.105,1.0
7.45,128.182295,37.947351,6705.5079504000005,83.686,-17.445,184.889,1.0
7.4666,128.182294,37.947303,6703.9284768,81.735,-17.405,184.676,1.0
7.4833,128.182292,37.947255,6702.3477840000005,79.71,-17.368,184.486,1.0
7.5,128.182291,37.947208,6700.7661768,77.608,-17.329,184.341,1.0
7.5166,128.182289,37.94716,6699.184569600001,75.424,-17.284,184.256,1.0
7.5333,128.182287,37.947112,6697.6026576,73.156,-17.224,184.246,1.0
7.55,128.182285,37.947065,6696.021050400001,70.812,-17.149,184.301,1.0
7.5666,128.182283,37.947017,6694.439748,68.398,-17.058,184.406,1.0
7.5833,128.182281,37.946969,6692.8590552000005,65.925,-16.953,184.545,1.0
7.6,128.182278,37.946922,6691.279581600001,63.402,-16.839,184.698,1.0
7.6166,128.182276,37.946874,6689.7010224000005,60.839,-16.717,184.853,1.0
7.6333,128.182273,37.946827,6688.1245968,58.24,-16.591,185.004,1.0
7.65,128.182271,37.946779,6686.5496952,55.611,-16.459,185.148,1.0
7.6666,128.182268,37.946731,6684.977232,52.956,-16.332,185.269,1.0
7.6833,128.182265,37.946684,6683.4072072,50.282,-16.221,185.355,1.0
7.7,128.182262,37.946636,6681.839316,47.593,-16.14,185.392,1.0
7.7166,128.182259,37.946589,6680.274472800001,44.89,-16.094,185.381,1.0
7.7333,128.182256,37.946541,6678.712372800001,42.169,-16.076,185.335,1.0
7.75,128.182253,37.946494,6677.1536256,39.424,-16.075,185.269,1.0
7.7666,128.18225,37.946446,6675.5979264,36.653,-16.084,185.193,1.0
7.7833,128.182247,37.946399,6674.04558,33.85,-16.097,185.115,1.0
7.8,128.182244,37.946351,6672.4968912,31.016,-16.113,185.037,1.0
7.8166,128.18224,37.946304,6670.9515552,28.36,-16.144,184.986,1.0
7.8333,128.182237,37.946256,6669.4083528,25.876,-16.189,184.964,1.0
7.85,128.182234,37.946208,6667.866979200001,23.577,-16.243,184.958,1.0
7.8666,128.18223,37.946161,6666.327129599999,21.472,-16.299,184.961,1.0
7.8833,128.182227,37.946113,6664.7878896,19.566,-16.356,184.966,1.0
7.9,128.182223,37.946066,6663.2489544,17.852,-16.408,184.973,1.0
7.9166,128.18222,37.946018,6661.710019200001,16.324,-16.456,184.981,1.0
7.9333,128.182216,37.945971,6660.170779200001,14.972,-16.497,184.991,1.0
7.95,128.182213,37.945923,6658.630320000001,13.79,-16.534,185.002,1.0
7.9666,128.182209,37.945876,6657.0883368,12.768,-16.566,185.014,1.0
7.9833,128.182206,37.945828,6655.5448295999995,11.9,-16.593,185.027,1.0
8.0,128.182202,37.945781,6653.9988840000005,11.179,-16.618,185.041,1.0
8.0166,128.182199,37.945733,6652.4501952,10.599,-16.64,185.055,1.0
8.0333,128.182195,37.945686,6650.8984584,10.155,-16.659,185.069,1.0
8.05,128.182192,37.945638,6649.3439784,9.839,-16.66,185.087,1.0
8.0666,128.182188,37.945591,6647.7861456,9.646,-16.626,185.11,1.0
8.0833,128.182185,37.945543,6646.225874400001,9.569,-16.541,185.142,1.0
8.1,128.182181,37.945496,6644.66286,9.602,-16.389,185.185,1.0
8.1166,128.182177,37.945448,6643.0986264,9.74,-16.16,185.241,1.0
8.1333,128.182174,37.945401,6641.5337832000005,9.978,-15.845,185.312,1.0
8.15,128.18217,37.945353,6639.9683304,10.312,-15.453,185.398,1.0
8.1666,128.182167,37.945305,6638.4031824,10.738,-15.0,185.496,1.0
8.1833,128.182163,37.945258,6636.8389488,11.253,-14.507,185.603,1.0
8.2,128.182159,37.94521,6635.2759344,11.853,-13.997,185.717,1.0
8.2166,128.182156,37.945163,6633.7150536,12.535,-13.49,185.834,1.0
8.2333,128.182152,37.945115,6632.156306400001,13.296,-13.01,185.95,1.0
8.25,128.182148,37.945068,6630.6003024,14.133,-12.577,186.059,1.0
8.2666,128.182145,37.94502,6629.047346400001,15.041,-12.208,186.159,1.0
8.2833,128.182141,37.944973,6627.4989624,16.011,-11.896,186.249,1.0
8.3,128.182137,37.944925,6625.9551504,17.032,-11.626,186.333,1.0
8.3166,128.182133,37.944877,6624.4168248000005,18.096,-11.388,186.413,1.0
8.3333,128.182129,37.94483,6622.8839856,19.195,-11.173,186.49,1.0
8.35,128.182126,37.944782,6621.3572424,20.321,-10.977,186.568,1.0
8.3666,128.182122,37.944734,6619.8369,21.468,-10.794,186.645,1.0
8.3833,128.182118,37.944687,6618.3232632,22.63,-10.622,186.723,1.0
8.4,128.182114,37.944639,6616.8166368,23.801,-10.46,186.802,1.0
8.4166,128.182109,37.944591,6615.3173256,24.977,-10.304,186.884,1.0
8.4333,128.182105,37.944544,6613.8256344,26.152,-10.154,186.967,1.0
8.45,128.182101,37.944496,6612.3412584,27.322,-10.009,187.054,1.0
8.4666,128.182097,37.944448,6610.8648072,28.483,-9.867,187.144,1.0
8.4833,128.182092,37.944401,6609.3962808,29.63,-9.727,187.238,1.0
8.5,128.182088,37.944353,6607.935984000001,30.76,-9.589,187.336,1.0
8.5166,128.182084,37.944305,6606.483612,31.87,-9.452,187.439,1.0
8.5333,128.182079,37.944257,6605.0394696,32.956,-9.315,187.546,1.0
8.55,128.182074,37.94421,6603.6038616,34.016,-9.177,187.659,1.0
8.5666,128.18207,37.944162,6602.176788000001,35.047,-9.04,187.778,1.0
8.5833,128.182065,37.944114,6600.7582488,36.047,-8.901,187.902,1.0
8.6,128.18206,37.944066,6599.348244,37.014,-8.762,188.032,1.0
8.6166,128.182055,37.944018,6597.946773600001,37.947,-8.623,188.168,1.0
8.6333,128.18205,37.943971,6596.5541424,38.845,-8.484,188.309,1.0
8.65,128.182045,37.943923,6595.1697408,39.707,-8.346,188.454,1.0
8.6666,128.182039,37.943875,6593.7941784,40.533,-8.211,188.601,1.0
8.6833,128.182034,37.943827,6592.427150400001,41.322,-8.081,188.75,1.0
8.7,128.182028,37.943779,6591.068656800001,42.076,-7.956,188.9,1.0
8.7166,128.182023,37.943732,6589.718697600001,42.794,-7.836,189.05,1.0
8.7333,128.182017,37.943684,6588.3772728,43.476,-7.721,189.2,1.0
8.75,128.182011,37.943636,6587.0440776000005,44.125,-7.611,189.351,1.0
8.7666,128.182005,37.943588,6585.7194168,44.74,-7.505,189.502,1.0
8.7833,128.181999,37.94354,6584.4026808,45.323,-7.403,189.653,1.0
8.8,128.181993,37.943493,6583.094479200001,45.875,-7.304,189.804,1.0
8.8166,128.181986,37.943445,6581.794202399999,46.398,-7.209,189.956,1.0
8.8333,128.18198,37.943397,6580.502155200001,46.892,-7.118,190.108,1.0
8.85,128.181973,37.943349,6579.2177280000005,47.438,-7.034,190.264,1.0
8.8666,128.181967,37.943301,6577.940311200001,48.028,-6.957,190.423,1.0
8.8833,128.18196,37.943253,6576.6689904,48.526,-6.879,190.557,1.0
8.9,128.181953,37.943206,6575.4055944,48.938,-6.805,190.657,1.0
8.9166,128.181946,37.943158,6574.1498184,49.254,-6.737,190.733,1.0
8.9333,128.181939,37.94311,6572.902272,49.466,-6.675,190.794,1.0
8.95,128.181931,37.943062,6571.6629552,49.573,-6.619,190.846,1.0
8.9666,128.181924,37.943014,6570.4321728,49.574,-6.568,190.895,1.0
8.9833,128.181916,37.942967,6569.2099248,49.474,-6.52,190.943,1.0
9.0,128.181908,37.942919,6567.996211200001,49.275,-6.474,190.991,1.0
9.0166,128.1819,37.942871,6566.791946400001,48.982,-6.428,191.04,1.0
9.0333,128.181892,37.942823,6565.596216,48.6,-6.381,191.089,1.0
9.05,128.181884,37.942775,6564.4096296,48.131,-6.333,191.14,1.0
9.0666,128.181876,37.942728,6563.2318824,47.58,-6.283,191.192,1.0
9.0833,128.181867,37.94268,6562.062974400001,46.95,-6.23,191.246,1.0
9.1,128.181859,37.942632,6560.902905600001,46.243,-6.174,191.301,1.0
9.1166,128.18185,37.942584,6559.7522856000005,45.462,-6.113,191.359,1.0
9.1333,128.181841,37.942537,6558.610809600001,44.609,-6.049,191.418,1.0
9.15,128.181832,37.942489,6557.478477600001,43.688,-5.98,191.48,1.0
9.1666,128.181823,37.942441,6556.3555944,42.7,-5.905,191.543,1.0
9.1833,128.181814,37.942393,6555.242464800001,41.647,-5.825,191.609,1.0
9.2,128.181804,37.942346,6554.1390888,40.532,-5.739,191.676,1.0
9.2166,128.181795,37.942298,6553.0457712,39.356,-5.645,191.745,1.0
9.2333,128.181785,37.94225,6551.9628168,38.122,-5.543,191.816,1.0
9.25,128.181776,37.942202,6550.8905304,37.029,-5.441,191.914,1.0
9.2666,128.181766,37.942155,6549.8283024,36.073,-5.343,192.034,1.0
9.2833,128.181756,37.942107,6548.7752184,35.262,-5.25,192.165,1.0
9.3,128.181746,37.942059,6547.7312784000005,34.6,-5.164,192.297,1.0
9.3166,128.181736,37.942011,6546.6958728,34.091,-5.084,192.423,1.0
9.3333,128.181726,37.941963,6545.669306400001,33.732,-5.01,192.541,1.0
9.35,128.181715,37.941916,6544.6509696,33.517,-4.942,192.651,1.0
9.3666,128.181705,37.941868,6543.6405576,33.44,-4.879,192.753,1.0
9.3833,128.181695,37.94182,6542.6377656,33.493,-4.821,192.849,1.0
9.4,128.181684,37.941772,6541.6422888,33.671,-4.767,192.94,1.0
9.4166,128.181674,37.941725,6540.6535176,33.967,-4.716,193.029,1.0
9.4333,128.181663,37.941677,6539.6714520000005,34.375,-4.667,193.115,1.0
9.45,128.181652,37.941629,6538.6954824,34.892,-4.62,193.201,1.0
9.4666,128.181641,37.941581,6537.7253040000005,35.513,-4.574,193.286,1.0
9.4833,128.18163,37.941533,6536.760612,36.232,-4.529,193.372,1.0
9.5,128.181619,37.941485,6535.800796800001,37.047,-4.484,193.46,1.0
9.5166,128.181608,37.941438,6534.8455536,37.954,-4.438,193.549,1.0
9.5333,128.181597,37.94139,6533.894882400001,38.949,-4.392,193.642,1.0
9.55,128.181586,37.941342,6532.9487832,40.028,-4.346,193.739,1.0
9.5666,128.181575,37.941294,6532.008170400001,41.182,-4.297,193.839,1.0
9.5833,128.181564,37.941246,6531.0724344,42.393,-4.247,193.943,1.0
9.6,128.181552,37.941198,6530.1421848,43.644,-4.193,194.052,1.0
9.6166,128.181541,37.94115,6529.2174216,44.921,-4.136,194.166,1.0
9.6333,128.181529,37.941102,6528.298754400001,46.211,-4.075,194.285,1.0
9.65,128.181518,37.941055,6527.3858784,47.502,-4.011,194.41,1.0
9.6666,128.181506,37.941007,6526.4787936,48.784,-3.944,194.543,1.0
9.6833,128.181494,37.940959,6525.5781096,50.049,-3.874,194.683,1.0
9.7,128.181482,37.940911,6524.6832168,51.29,-3.801,194.832,1.0
9.7166,128.18147,37.940863,6523.7941152,52.502,-3.726,194.99,1.0
9.7333,128.181458,37.940815,6522.911109600001,53.682,-3.65,195.157,1.0
9.75,128.181445,37.940767,6522.0338952,54.825,-3.571,195.333,1.0
9.7666,128.181433,37.94072,6521.162472,55.93,-3.492,195.518,1.0
9.7833,128.18142,37.940672,6520.2965352,56.995,-3.412,195.712,1.0
9.8,128.181407,37.940624,6519.4363896,58.02,-3.333,195.914,1.0
9.8166,128.181394,37.940576,6518.5817304,59.005,-3.254,196.123,1.0
9.8333,128.181381,37.940528,6517.731948,59.951,-3.179,196.336,1.0
9.85,128.181368,37.94048,6516.887652000001,60.857,-3.108,196.552,1.0
9.8666,128.181355,37.940433,6516.048232800001,61.726,-3.043,196.767,1.0
9.8833,128.181342,37.940385,6515.213995200001,62.558,-2.982,196.982,1.0
9.9,128.181328,37.940337,6514.3843296,63.356,-2.927,197.197,1.0
9.9166,128.181314,37.940289,6513.559236,64.121,-2.878,197.41,1.0
9.9333,128.181301,37.940242,6512.7387144,64.856,-2.833,197.622,1.0
9.95,128.181287,37.940194,6511.922460000001,65.561,-2.793,197.834,1.0
9.9666,128.181272,37.940146,6511.1104728,66.24,-2.758,198.044,1.0
9.9833,128.181258,37.940099,6510.3024479999995,66.893,-2.727,198.253,1.0
10.0,128.181244,37.940051,6509.4986904,67.524,-2.7,198.462,1.0
10.0166,128.181229,37.940004,6508.6982856,68.134,-2.676,198.669,1.0
10.0333,128.181214,37.939956,6507.901843199999,68.724,-2.657,198.875,1.0
10.05,128.181199,37.939908,6507.1090584,69.296,-2.64,199.081,1.0
10.0666,128.181184,37.939861,6506.3196264,69.852,-2.627,199.285,1.0
10.0833,128.181169,37.939813,6505.533547200001,70.393,-2.617,199.489,1.0
10.1,128.181154,37.939766,6504.750516,70.921,-2.61,199.691,1.0
10.1166,128.181138,37.939718,6503.970532800001,71.435,-2.606,199.893,1.0
10.1333,128.181123,37.939671,6503.1935976,71.938,-2.605,200.094,1.0
10.15,128.181107,37.939624,6502.4197104,72.43,-2.605,200.294,1.0
10.1666,128.181091,37.939576,6501.648261599999,72.913,-2.609,200.493,1.0
10.1833,128.181075,37.939529,6500.879556000001,73.466,-2.62,200.693,1.0
10.2,128.181059,37.939482,6500.1132888,74.089,-2.64,200.893,1.0
10.2166,128.181042,37.939434,6499.348545600001,74.771,-2.665,201.094,1.0
10.2333,128.181026,37.939387,6498.5853264,75.504,-2.692,201.293,1.0
10.25,128.181009,37.93934,6497.8236312,76.278,-2.721,201.49,1.0
10.2666,128.180992,37.939293,6497.06346,77.08,-2.751,201.687,1.0
10.2833,128.180975,37.939245,6496.3048128,77.901,-2.781,201.882,1.0
10.3,128.180958,37.939198,6495.5473848,78.729,-2.812,202.077,1.0
10.3166,128.180941,37.939151,6494.791176,79.557,-2.845,202.27,1.0
10.3333,128.180924,37.939104,6494.036186400001,80.376,-2.88,202.464,1.0
10.35,128.180906,37.939057,6493.281806400001,81.182,-2.917,202.657,1.0
10.3666,128.180888,37.93901,6492.528036000001,81.97,-2.956,202.851,1.0
10.3833,128.18087,37.938963,6491.77518,82.736,-2.997,203.045,1.0
10.4,128.180852,37.938916,6491.0223240000005,83.478,-3.04,203.239,1.0
10.4166,128.180834,37.938869,6490.2697728,84.194,-3.086,203.435,1.0
10.4333,128.180816,37.938822,6489.5175264,84.885,-3.135,203.63,1.0
10.45,128.180797,37.938775,6488.764670400001,85.55,-3.186,203.827,1.0
10.4666,128.180778,37.938729,6488.011814400001,86.189,-3.24,204.024,1.0
10.4833,128.18076,37.938682,6487.2586536,86.804,-3.297,204.221,1.0
10.5,128.180741,37.938635,6486.5045784,87.394,-3.356,204.419,1.0
10.5166,128.180721,37.938588,6485.7498936,87.963,-3.417,204.617,1.0
10.5333,128.180702,37.938542,6484.9942944,88.51,-3.481,204.815,1.0
10.55,128.180682,37.938495,6484.237476,89.037,-3.547,205.013,1.0
10.5666,128.180663,37.938449,6483.479438400001,89.546,-3.615,205.211,1.0
10.5833,128.180643,37.938402,6482.7198768,90.04,-3.684,205.408,1.0
10.6,128.180623,37.938356,6481.9590960000005,90.521,-3.753,205.604,1.0
10.6166,128.180603,37.938309,6481.1964864,90.989,-3.823,205.8,1.0
10.6333,128.180582,37.938263,6480.4323527999995,91.444,-3.894,205.996,1.0
10.65,128.180562,37.938217,6479.6660856,91.886,-3.967,206.19,1.0
10.6666,128.180541,37.938171,6478.8979896,92.316,-4.041,206.384,1.0
10.6833,128.18052,37.938124,6478.1280648,92.736,-4.117,206.577,1.0
10.7,128.180499,37.938078,6477.3557016,93.145,-4.194,206.769,1.0
10.7166,128.180478,37.938032,6476.5809,93.544,-4.273,206.96,1.0
10.7333,128.180457,37.937986,6475.8039648,93.935,-4.353,207.15,1.0
10.75,128.180436,37.93794,6475.0242864,94.319,-4.435,207.34,1.0
10.7666,128.180414,37.937894,6474.2418648,94.695,-4.518,207.528,1.0
10.7833,128.180392,37.937848,6473.4570048000005,95.064,-4.602,207.716,1.0
10.8,128.18037,37.937802,6472.6690968,95.427,-4.687,207.902,1.0
10.8166,128.180348,37.937757,6471.8784456,95.785,-4.773,208.088,1.0
10.8333,128.180326,37.937711,6471.084746400001,96.137,-4.86,208.273,1.0
10.85,128.180303,37.937665,6470.2876944,96.484,-4.949,208.457,1.0
10.8666,128.180281,37.937619,6469.4875944000005,96.827,-5.038,208.64,1.0
10.8833,128.180258,37.937574,6468.684141600001,97.165,-5.128,208.822,1.0
10.9,128.180235,37.937528,6467.8773360000005,97.499,-5.219,209.004,1.0
10.9166,128.180212,37.937483,6467.0668728,97.83,-5.311,209.184,1.0
10.9333,128.180189,37.937437,6466.252752000001,98.156,-5.404,209.364,1.0
10.95,128.180166,37.937392,6465.4349736,98.479,-5.497,209.543,1.0
10.9666,128.180142,37.937347,6464.6135376,98.799,-5.592,209.721,1.0
10.9833,128.180118,37.937301,6463.7881392,99.116,-5.687,209.899,1.0
11.0,128.180094,37.937256,6462.9587784000005,99.429,-5.783,210.075,1.0
11.0166,128.18007,37.937211,6462.1254552,99.739,-5.88,210.251,1.0
11.0333,128.180046,37.937166,6461.2878648000005,100.046,-5.977,210.426,1.0
11.05,128.180022,37.937121,6460.4460072,100.351,-6.075,210.601,1.0
11.0666,128.179998,37.937076,6459.599882400001,100.652,-6.174,210.774,1.0
11.0833,128.179973,37.937031,6458.7491856,100.951,-6.273,210.947,1.0
11.1,128.179948,37.936986,6457.8942216000005,101.247,-6.374,211.12,1.0
11.1166,128.179923,37.936941,6457.034685600001,101.54,-6.474,211.291,1.0
11.1333,128.179898,37.936897,6456.1702728,101.831,-6.576,211.462,1.0
11.15,128.179873,37.936852,6455.301288000001,102.119,-6.678,211.633,1.0
11.1666,128.179848,37.936807,6454.4274264000005,102.404,-6.781,211.803,1.0
11.1833,128.179822,37.936763,6453.548688000001,102.687,-6.884,211.972,1.0
11.2,128.179796,37.936718,6452.6650728,102.967,-6.988,212.14,1.0
11.2166,128.179771,37.936674,6451.776276,103.245,-7.092,212.309,1.0
11.2333,128.179745,37.936629,6450.882297600001,103.521,-7.197,212.476,1.0
11.25,128.179718,37.936585,6449.9831376,103.794,-7.303,212.643,1.0
11.2666,128.179692,37.936541,6449.078796000001,104.064,-7.409,212.81,1.0
11.2833,128.179666,37.936497,6448.168968,104.332,-7.516,212.976,1.0
11.3,128.179639,37.936453,6447.2536536,104.598,-7.623,213.141,1.0
11.3166,128.179612,37.936409,6446.3328528,104.862,-7.731,213.306,1.0
11.3333,128.179585,37.936365,6445.406565600001,105.123,-7.839,213.47,1.0
11.35,128.179558,37.936321,6444.4744872,105.381,-7.948,213.634,1.0
11.3666,128.179531,37.936277,6443.5366176,105.638,-8.057,213.798,1.0
11.3833,128.179504,37.936233,6442.5932616,105.892,-8.167,213.961,1.0
11.4,128.179476,37.936189,6441.6435048,106.143,-8.277,214.123,1.0
11.4166,128.179449,37.936146,6440.6882616,106.393,-8.388,214.285,1.0
11.4333,128.179421,37.936102,6439.7266176,106.64,-8.499,214.447,1.0
11.45,128.179393,37.936059,6438.7591824,106.885,-8.611,214.608,1.0
11.4666,128.179365,37.936015,6437.785346400001,107.127,-8.723,214.769,1.0
11.4833,128.179337,37.935972,6436.805414400001,107.368,-8.835,214.929,1.0
11.5,128.179308,37.935928,6435.819081600001,107.606,-8.948,215.089,1.0
11.5166,128.17928,37.935885,6434.826348,107.842,-9.062,215.248,1.0
11.5333,128.179251,37.935842,6433.8272136000005,108.076,-9.176,215.407,1.0
11.55,128.179223,37.935799,6432.821678400001,108.307,-9.29,215.566,1.0
11.5666,128.179194,37.935756,6431.809437600001,108.537,-9.404,215.724,1.0
11.5833,128.179165,37.935713,6430.790796,108.764,-9.519,215.882,1.0
11.6,128.179135,37.93567,6429.765144,108.989,-9.635,216.039,1.0
11.6166,128.179106,37.935627,6428.733091200001,109.212,-9.751,216.196,1.0
11.6333,128.179077,37.935584,6427.694028000001,109.433,-9.867,216.353,1.0
11.65,128.179047,37.935542,6426.6479544,109.652,-9.983,216.509,1.0
11.6666,128.179017,37.935499,6425.5951752,109.868,-10.1,216.665,1.0
11.6833,128.178987,37.935457,6424.5350808,110.083,-10.218,216.821,1.0
11.7,128.178957,37.935414,6423.4682808,110.296,-10.335,216.976,1.0
11.7166,128.178927,37.935372,6422.394165600001,110.506,-10.453,217.131,1.0
11.7333,128.178897,37.935329,6421.3127352,110.714,-10.571,217.285,1.0
11.75,128.178866,37.935287,6420.2242944,110.921,-10.69,217.439,1.0
11.7666,128.178836,37.935245,6419.128538400001,111.125,-10.809,217.593,1.0
11.7833,128.178805,37.935203,6418.0251624,111.328,-10.928,217.746,1.0
11.8,128.178774,37.935161,6416.914776,111.528,-11.048,217.899,1.0
11.8166,128.178743,37.935119,6415.796464800001,111.727,-11.168,218.052,1.0
11.8333,128.178712,37.935077,6414.6711432,111.923,-11.288,218.204,1.0
11.85,128.178681,37.935035,6413.5378968,112.118,-11.408,218.356,1.0
11.8666,128.178649,37.934994,6412.3970304,112.311,-11.529,218.508,1.0
11.8833,128.178618,37.934952,6411.248544,112.501,-11.65,218.66,1.0
11.9,128.178586,37.93491,6410.0924376,112.69,-11.771,218.811,1.0
11.9166,128.178554,37.934869,6408.928406400001,112.877,-11.893,218.962,1.0
11.9333,128.178522,37.934828,6407.7564504,113.062,-12.015,219.112,1.0
11.95,128.17849,37.934786,6406.576874400001,113.245,-12.137,219.262,1.0
11.9666,128.178458,37.934745,6405.3890688,113.427,-12.259,219.412,1.0
11.9833,128.178426,37.934704,6404.1936432,113.606,-12.382,219.562,1.0
12.0,128.178393,37.934663,6402.9896832,113.784,-12.504,219.711,1.0
12.0166,128.178361,37.934622,6401.7781032,113.96,-12.627,219.86,1.0
12.0333,128.178328,37.934581,6400.5579888,114.134,-12.751,220.009,1.0
12.05,128.178295,37.93454,6399.3299496,114.307,-12.874,220.158,1.0
12.0666,128.178262,37.934499,6398.0936808,114.477,-12.998,220.306,1.0
12.0833,128.178229,37.934459,6396.8491824,114.646,-13.122,220.454,1.0
12.1,128.178196,37.934418,6395.5961496,114.813,-13.246,220.602,1.0
12.1166,128.178163,37.934378,6394.334887200001,114.979,-13.37,220.75,1.0
12.1333,128.178129,37.934337,6393.0650904,115.142,-13.495,220.897,1.0
12.15,128.178096,37.934297,6391.787064,115.304,-13.62,221.044,1.0
12.1666,128.178062,37.934257,6390.5001984,115.464,-13.745,221.191,1.0
12.1833,128.178028,37.934216,6389.2051032,115.623,-13.87,221.338,1.0
12.2,128.177994,37.934176,6387.9011688,115.78,-13.995,221.484,1.0
12.2166,128.17796,37.934136,6386.5887,115.935,-14.121,221.63,1.0
12.2333,128.177926,37.934096,6385.2676968000005,116.089,-14.246,221.776,1.0
12.25,128.177892,37.934056,6383.9378544,116.241,-14.372,221.922,1.0
12.2666,128.177858,37.934017,6382.599477600001,116.391,-14.498,222.068,1.0
12.2833,128.177823,37.933977,6381.251956800001,116.54,-14.625,222.213,1.0
12.3,128.177788,37.933937,6379.895901600001,116.687,-14.751,222.358,1.0
12.3166,128.177754,37.933898,6378.530702399999,116.832,-14.878,222.503,1.0
12.3333,128.177719,37.933859,6377.156664,116.976,-15.004,222.648,1.0
12.35,128.177684,37.933819,6375.7737864,117.119,-15.131,222.793,1.0
12.3666,128.177649,37.93378,6374.3817648,117.259,-15.258,222.937,1.0
12.3833,128.177613,37.933741,6372.980904,117.399,-15.385,223.082,1.0
12.4,128.177578,37.933702,6371.5708992,117.536,-15.513,223.226,1.0
12.4166,128.177543,37.933663,6370.1517504,117.673,-15.64,223.37,1.0
12.4333,128.177507,37.933624,6368.7237624,117.807,-15.768,223.514,1.0
12.45,128.177471,37.933585,6367.2863256,117.941,-15.895,223.657,1.0
12.4666,128.177436,37.933546,6365.8397448000005,118.072,-16.023,223.801,1.0
12.4833,128.1774,37.933508,6364.383715200001,118.202,-16.151,223.944,1.0
12.5,128.177364,37.933469,6362.918846400001,118.331,-16.279,224.087,1.0
12.5166,128.177328,37.933431,6361.444224000001,118.458,-16.407,224.23,1.0
12.5333,128.177291,37.933392,6359.9604576,118.584,-16.536,224.373,1.0
12.55,128.177255,37.933354,6358.467547200001,118.709,-16.664,224.516,1.0
12.5666,128.177218,37.933316,6356.9648832,118.832,-16.793,224.659,1.0
12.5833,128.177182,37.933278,6355.4530752,118.953,-16.922,224.802,1.0
12.6,128.177145,37.93324,6353.9315136000005,119.073,-17.05,224.944,1.0
12.6166,128.177108,37.933202,6352.400808,119.192,-17.179,225.087,1.0
12.6333,128.177072,37.933164,6350.8603488,119.309,-17.308,225.229,1.0
12.65,128.177035,37.933126,6349.310136,119.425,-17.437,225.371,1.0
12.6666,128.176998,37.933089,6347.750474400001,119.54,-17.567,225.513,1.0
12.6833,128.17696,37.933051,6346.181364,119.653,-17.696,225.655,1.0
12.7,128.176923,37.933014,6344.6025,119.765,-17.825,225.797,1.0
12.7166,128.176886,37.932976,6343.0138824000005,119.875,-17.955,225.939,1.0
12.7333,128.176848,37.932939,6341.415816,119.984,-18.084,226.081,1.0
12.75,128.176811,37.932902,6339.807691200001,120.092,-18.214,226.222,1.0
12.7666,128.176773,37.932865,6338.1901176,120.198,-18.344,226.364,1.0
12.7833,128.176735,37.932828,6336.5624856,120.303,-18.473,226.505,1.0
12.8,128.176697,37.932791,6334.9254048,120.407,-18.603,226.647,1.0
12.8166,128.176659,37.932754,6333.278265600001,120.51,-18.733,226.788,1.0
12.8333,128.176621,37.932717,6331.621068,120.611,-18.863,226.93,1.0
12.85,128.176583,37.932681,6329.9541168,120.711,-18.994,227.071,1.0
12.8666,128.176544,37.932644,6328.277412,120.81,-19.124,227.212,1.0
12.8833,128.176506,37.932608,6326.5906488,120.907,-19.254,227.353,1.0
12.9,128.176468,37.932572,6324.8938272000005,121.003,-19.384,227.495,1.0
12.9166,128.176429,37.932535,6323.187252000001,121.098,-19.515,227.636,1.0
12.9333,128.17639,37.932499,6321.470618400001,121.192,-19.645,227.777,1.0
12.95,128.176352,37.932463,6319.7439264,121.284,-19.776,227.918,1.0
12.9666,128.176313,37.932427,6318.0068712,121.375,-19.906,228.059,1.0
12.9833,128.176274,37.932391,6316.2600624,121.465,-20.037,228.2,1.0
13.0,128.176235,37.932356,6314.5031952,121.554,-20.167,228.341,1.0
13.0166,128.176195,37.93232,6312.735964800001,121.641,-20.298,228.482,1.0
13.0333,128.176156,37.932285,6310.9589808,121.728,-20.429,228.623,1.0
13.0499,128.176117,37.932249,6309.171328800001,121.813,-20.56,228.764,1.0
13.0666,128.176077,37.932214,6307.373923200001,121.897,-20.691,228.905,1.0
13.0833,128.176038,37.932178,6305.5661544,121.98,-20.822,229.046,1.0
13.1,128.175998,37.932143,6303.7480224,122.061,-20.953,229.187,1.0
13.1166,128.175959,37.932108,6301.9198320000005,122.141,-21.084,229.328,1.0
13.1333,128.175919,37.932073,6300.081278400001,122.221,-21.215,229.469,1.0
13.15,128.175879,37.932039,6298.2326664,122.299,-21.346,229.61,1.0
13.1666,128.175839,37.932004,6296.3733864000005,122.376,-21.477,229.751,1.0
13.1833,128.175799,37.931969,6294.504048,122.451,-21.608,229.892,1.0
13.2,128.175759,37.931935,6292.624346400001,122.526,-21.739,230.033,1.0
13.2166,128.175719,37.9319,6290.7342816,122.6,-21.87,230.175,1.0
13.2333,128.175678,37.931866,6288.8335488,122.672,-22.002,230.316,1.0
13.25,128.175638,37.931832,6286.9227576,122.743,-22.133,230.457,1.0
13.2666,128.175597,37.931797,6285.0016032,122.813,-22.264,230.598,1.0
13.2833,128.175557,37.931763,6283.0697808,122.882,-22.395,230.74,1.0
13.3,128.175516,37.931729,6281.1279,122.95,-22.527,230.881,1.0
13.3166,128.175476,37.931696,6279.175046400001,123.017,-22.658,231.023,1.0
13.3333,128.175435,37.931662,6277.2121344,123.083,-22.79,231.164,1.0
13.35,128.175394,37.931628,6275.2385544,123.147,-22.921,231.306,1.0
13.3666,128.175353,37.931595,6273.254611200001,123.211,-23.052,231.447,1.0
13.3833,128.175312,37.931561,6271.26,123.273,-23.184,231.589,1.0
13.4,128.175271,37.931528,6269.2550255999995,123.335,-23.315,231.731,1.0
13.4166,128.17523,37.931495,6267.239383200001,123.395,-23.447,231.873,1.0
13.4333,128.175188,37.931462,6265.2133776,123.454,-23.578,232.015,1.0
13.45,128.175147,37.931429,6263.176399200001,123.513,-23.71,232.157,1.0
13.4666,128.175105,37.931396,6261.1293624,123.57,-23.841,232.299,1.0
13.4833,128.175064,37.931363,6259.0713528,123.626,-23.973,232.441,1.0
13.5,128.175022,37.93133,6257.00298,123.681,-24.104,232.583,1.0
13.5166,128.174981,37.931298,6254.9236344,123.735,-24.236,232.726,1.0
13.5333,128.174939,37.931265,6252.8339256,123.788,-24.367,232.868,1.0
13.55,128.174897,37.931233,6250.7335488,123.84,-24.499,233.011,1.0
13.5666,128.174855,37.9312,6248.622504,123.891,-24.63,233.154,1.0
13.5833,128.174813,37.931168,6246.5007912,123.941,-24.762,233.296,1.0
13.6,128.174771,37.931136,6244.3684104,123.99,-24.893,233.439,1.0
13.6166,128.174729,37.931104,6242.2253616,124.038,-25.025,233.582,1.0
13.6333,128.174687,37.931072,6240.0716448,124.084,-25.156,233.726,1.0
13.65,128.174645,37.931041,6237.907260000001,124.13,-25.288,233.869,1.0
13.6666,128.174603,37.931009,6235.7322072,124.175,-25.419,234.012,1.0
13.6833,128.17456,37.930978,6233.546181600001,124.219,-25.551,234.156,1.0
13.7,128.174518,37.930946,6231.349792800001,124.262,-25.682,234.3,1.0
13.7166,128.174475,37.930915,6229.1424312,124.304,-25.814,234.444,1.0
13.7333,128.174433,37.930884,6226.9240968,124.345,-25.945,234.588,1.0
13.75,128.17439,37.930853,6224.6953992,124.384,-26.076,234.732,1.0
13.7666,128.174347,37.930822,6222.4557288000005,124.423,-26.208,234.876,1.0
13.7833,128.174305,37.930791,6220.2053904,124.461,-26.339,235.021,1.0
13.8,128.174262,37.93076,6217.9440792000005,124.498,-26.471,235.165,1.0
13.8166,128.174219,37.930729,6215.672100000001,124.534,-26.602,235.31,1.0
13.8333,128.174176,37.930699,6213.3894528,124.569,-26.733,235.455,1.0
13.85,128.174133,37.930668,6211.095832800001,124.603,-26.865,235.6,1.0
13.8666,128.17409,37.930638,6208.7915448,124.636,-26.996,235.745,1.0
13.8833,128.174047,37.930608,6206.476284000001,124.669,-27.127,235.891,1.0
13.9,128.174004,37.930578,6204.1503552,124.7,-27.258,236.036,1.0
13.9166,128.17396,37.930548,6201.8134536,124.73,-27.39,236.182,1.0
13.9333,128.173917,37.930518,6199.465884000001,124.759,-27.521,236.328,1.0
13.95,128.173874,37.930488,6197.107341600001,124.788,-27.652,236.475,1.0
13.9666,128.17383,37.930459,6194.7381312,124.815,-27.783,236.621,1.0
13.9833,128.173787,37.930429,6192.357948,124.842,-27.914,236.768,1.0
14.0,128.173743,37.9304,6189.967096800001,124.867,-28.045,236.914,1.0
14.0166,128.1737,37.93037,6187.564968000001,124.892,-28.176,237.061,1.0
14.0333,128.173656,37.930341,6185.152476,124.915,-28.307,237.209,1.0
14.05,128.173612,37.930312,6182.728706400001,124.938,-28.438,237.356,1.0
14.0666,128.173568,37.930283,6180.2942688,124.96,-28.569,237.504,1.0
14.0833,128.173525,37.930254,6177.8491632000005,124.981,-28.7,237.652,1.0
14.1,128.173481,37.930226,6175.39278,125.001,-28.831,237.8,1.0
14.1166,128.173437,37.930197,6172.925728800001,125.02,-28.961,237.948,1.0
14.1333,128.173393,37.930168,6170.447704800001,125.038,-29.092,238.097,1.0
14.15,128.173349,37.93014,6167.9590128,125.055,-29.223,238.246,1.0
14.1666,128.173305,37.930112,6165.459347999999,125.071,-29.353,238.395,1.0
14.1833,128.173261,37.930084,6162.948710400001,125.087,-29.484,238.544,1.0
14.2,128.173216,37.930056,6160.427404800001,125.101,-29.615,238.693,1.0
14.2166,128.173172,37.930028,6157.8948216,125.115,-29.745,238.843,1.0
14.2333,128.173128,37.93,6155.3518752,125.127,-29.875,238.993,1.0
14.25,128.173083,37.929972,6152.7976512000005,125.139,-30.006,239.143,1.0
14.2666,128.173039,37.929944,6150.2327592,125.15,-30.136,239.294,1.0
14.2833,128.172995,37.929917,6147.6565896,125.16,-30.266,239.445,1.0
14.3,128.17295,37.92989,6145.070056800001,125.169,-30.397,239.596,1.0
14.3166,128.172906,37.929862,6142.472246400001,125.177,-30.527,239.747,1.0
14.3333,128.172861,37.929835,6139.863768,125.184,-30.657,239.899,1.0
14.35,128.172816,37.929808,6137.2443168,125.19,-30.787,240.051,1.0
14.3666,128.172772,37.929781,6134.613892800001,125.196,-30.917,240.203,1.0
14.3833,128.172727,37.929755,6131.9728008,125.2,-31.047,240.355,1.0
14.4,128.172682,37.929728,6129.320736000001,125.204,-31.177,240.508,1.0
14.4166,128.172638,37.929702,6126.6576984,125.207,-31.306,240.661,1.0
