Time,Longitude,Latitude,Altitude,Roll (deg),Pitch (deg),Yaw (deg),Health
0.0,128.181881,37.923646,7000.146528,0.0,-0.003,0.0,1.0
0.0166,128.181881,37.923691,7000.1605488000005,0.0,-0.012,0.0,1.0
0.0333,128.181881,37.923736,7000.172740800001,0.012,-0.029,0.0,1.0
0.05,128.181881,37.923781,7000.1840184,0.033,-0.052,0.001,1.0
0.0666,128.181881,37.923825,7000.1943816,0.06,-0.078,0.001,1.0
0.0833,128.181881,37.92387,7000.2032208,0.093,-0.107,0.001,1.0
0.1,128.181881,37.923915,7000.2114504,0.131,-0.136,0.0,1.0
0.1166,128.181881,37.92396,7000.218156000001,0.172,-0.166,359.999,1.0
0.1333,128.181881,37.924005,7000.223947200001,0.216,-0.196,359.998,1.0
0.15,128.181881,37.92405,7000.228519200001,0.263,-0.226,359.996,1.0
0.1666,128.181881,37.924095,7000.2324816,0.308,-0.257,359.994,1.0
0.1833,128.181881,37.92414,7000.234920000001,0.353,-0.288,359.992,1.0
0.2,128.181881,37.924185,7000.236444,0.397,-0.32,359.989,1.0
0.2166,128.181881,37.92423,7000.2367488,0.439,-0.351,359.986,1.0
0.2333,128.181881,37.924275,7000.2361392,0.48,-0.382,359.982,1.0
0.25,128.181881,37.924319,7000.2340056,0.52,-0.413,359.979,1.0
0.2666,128.181881,37.924364,7000.2309576,0.559,-0.443,359.976,1.0
0.2833,128.181881,37.924409,7000.2263856,0.597,-0.473,359.973,1.0
0.3,128.181881,37.924454,7000.2208992000005,0.634,-0.502,359.97,1.0
0.3166,128.181881,37.924499,7000.2138888,0.671,-0.53,359.967,1.0
0.3333,128.181881,37.924544,7000.205659200001,0.708,-0.558,359.964,1.0
0.35,128.181881,37.924589,7000.1962104,0.744,-0.586,359.961,1.0
0.3666,128.181881,37.924634,7000.1855424000005,0.78,-0.613,359.958,1.0
0.3833,128.181881,37.924678,7000.1733504,0.816,-0.639,359.955,1.0
0.4,128.181881,37.924723,7000.1596344,0.852,-0.665,359.952,1.0
0.4166,128.181881,37.924768,7000.145004,0.888,-0.691,359.95,1.0
0.4333,128.181881,37.924813,7000.1285448,0.924,-0.716,359.947,1.0
0.45,128.181881,37.924858,7000.1111712,0.961,-0.741,359.944,1.0
0.4666,128.181881,37.924902,7000.0919688,0.997,-0.765,359.942,1.0
0.4833,128.181881,37.924947,7000.071547200001,1.033,-0.789,359.939,1.0
0.5,128.181881,37.924992,7000.0499064000005,1.07,-0.813,359.936,1.0
0.5166,128.181881,37.925037,7000.026436800001,1.106,-0.836,359.934,1.0
0.5333,128.181881,37.925082,7000.001748,1.143,-0.86,359.931,1.0
0.55,128.181881,37.925126,6999.97584,1.18,-0.882,359.929,1.0
0.5666,128.181881,37.925171,6999.9481032,1.217,-0.905,359.926,1.0
0.5833,128.181881,37.925216,6999.919147200001,1.254,-0.927,359.923,1.0
0.6,128.181881,37.925261,6999.8886672,1.292,-0.949,359.921,1.0
0.6166,128.181881,37.925305,6999.856968,1.33,-0.971,359.918,1.0
0.6333,128.181881,37.92535,6999.82344,1.367,-0.993,359.916,1.0
0.65,128.181881,37.925395,6999.788692800001,1.405,-1.015,359.914,1.0
0.6666,128.181881,37.925439,6999.7524216,1.444,-1.036,359.911,1.0
0.6833,128.181881,37.925484,6999.7146264,1.482,-1.057,359.909,1.0
0.7,128.181881,37.925529,6999.6753072,1.521,-1.078,359.906,1.0
0.7166,128.181881,37.925573,6999.634464000001,1.559,-1.099,359.904,1.0
0.7333,128.181881,37.925618,6999.592096800001,1.598,-1.12,359.902,1.0
0.75,128.181881,37.925663,6999.548510400001,1.637,-1.14,359.899,1.0
0.7666,128.181881,37.925707,6999.503095200001,1.677,-1.161,359.897,1.0
0.7833,128.181881,37.925752,6999.456460800001,1.716,-1.181,359.895,1.0
0.8,128.181881,37.925797,6999.407997600001,1.756,-1.201,359.892,1.0
0.8166,128.181881,37.925841,6999.358315200001,1.796,-1.222,359.89,1.0
0.8333,128.181881,37.925886,6999.307108800001,1.836,-1.242,359.888,1.0
0.85,128.181881,37.92593,6999.254378400001,1.876,-1.262,359.886,1.0
0.8666,128.181881,37.925975,6999.199819200001,1.916,-1.282,359.883,1.0
0.8833,128.181881,37.92602,6999.144040800001,1.957,-1.301,359.881,1.0
0.9,128.181881,37.926064,6999.086738400001,1.998,-1.321,359.879,1.0
0.9166,128.181881,37.926109,6999.027912,2.038,-1.341,359.877,1.0
0.9333,128.181881,37.926153,6998.9675615999995,2.079,-1.361,359.875,1.0
0.95,128.181881,37.926198,6998.9053824,2.121,-1.38,359.872,1.0
0.9666,128.181881,37.926242,6998.841984000001,2.162,-1.4,359.87,1.0
0.9833,128.181881,37.926287,6998.7770616,2.204,-1.419,359.868,1.0
1.0,128.181881,37.926331,6998.710615200001,2.245,-1.439,359.866,1.0
1.0166,128.181881,37.926376,6998.6426448,2.287,-1.458,359.864,1.0
1.0333,128.181881,37.92642,6998.572845600001,2.329,-1.477,359.862,1.0
1.05,128.181881,37.926465,6998.501827200001,2.372,-1.497,359.86,1.0
1.0666,128.181881,37.926509,6998.4292848,2.414,-1.516,359.857,1.0
1.0833,128.181881,37.926554,6998.3549136,2.456,-1.535,359.855,1.0
1.1,128.181881,37.926598,6998.2793232,2.499,-1.554,359.853,1.0
1.1166,128.181881,37.926643,6998.2019040000005,2.542,-1.574,359.851,1.0
1.1333,128.181881,37.926687,6998.123265600001,2.585,-1.593,359.849,1.0
1.15,128.181881,37.926732,6998.0427984,2.628,-1.612,359.847,1.0
1.1666,128.181881,37.926776,6997.9608072,2.671,-1.631,359.845,1.0
1.1833,128.181881,37.92682,6997.877596800001,2.715,-1.65,359.843,1.0
1.2,128.181881,37.926865,6997.7925576,2.758,-1.669,359.841,1.0
1.2166,128.181881,37.926909,6997.7059944,2.802,-1.689,359.839,1.0
1.2333,128.181881,37.926953,6997.6179071999995,2.846,-1.708,359.837,1.0
1.25,128.181881,37.926998,6997.528296,2.89,-1.727,359.835,1.0
1.2666,128.181881,37.927042,6997.437160800001,2.934,-1.746,359.833,1.0
1.2833,128.181881,37.927087,6997.3445016000005,2.979,-1.765,359.831,1.0
1.3,128.181881,37.927131,6997.250013600001,3.023,-1.784,359.829,1.0
1.3166,128.181881,37.927175,6997.154306400001,3.068,-1.803,359.827,1.0
1.3333,128.181881,37.92722,6997.057075199999,3.113,-1.822,359.825,1.0
1.35,128.181881,37.927264,6996.958015200001,3.158,-1.841,359.823,1.0
1.3666,128.181881,37.927308,6996.8574312,3.203,-1.86,359.821,1.0
1.3833,128.181881,37.927352,6996.755628000001,3.248,-1.879,359.819,1.0
1.4,128.181881,37.927397,6996.6519960000005,3.293,-1.898,359.818,1.0
1.4166,128.181881,37.927441,6996.54684,3.339,-1.917,359.816,1.0
1.4333,128.181881,37.927485,6996.440160000001,3.384,-1.936,359.814,1.0
1.45,128.181882,37.927529,6996.331956000001,3.43,-1.955,359.812,1.0
1.4666,128.181882,37.927574,6996.2222280000005,3.476,-1.974,359.81,1.0
1.4833,128.181882,37.927618,6996.1106712,3.522,-1.993,359.808,1.0
1.5,128.181882,37.927662,6995.9978952,3.569,-2.012,359.806,1.0
1.5166,128.181882,37.927706,6995.8832904,3.615,-2.031,359.804,1.0
1.5333,128.181882,37.927751,6995.7674664,3.661,-2.05,359.802,1.0
1.55,128.181882,37.927795,6995.6498136,3.708,-2.069,359.801,1.0
1.5666,128.181882,37.927839,6995.5306368,3.755,-2.088,359.799,1.0
1.5833,128.181882,37.927883,6995.409936,3.802,-2.107,359.797,1.0
1.6,128.181882,37.927927,6995.287711200001,3.849,-2.125,359.795,1.0
1.6166,128.181882,37.927972,6995.1639624,3.896,-2.144,359.793,1.0
1.6333,128.181882,37.928016,6995.0383848,3.943,-2.163,359.791,1.0
1.65,128.181882,37.92806,6994.911588000001,3.991,-2.182,359.79,1.0
1.6666,128.181882,37.928104,6994.7829624,4.038,-2.201,359.788,1.0
1.6833,128.181882,37.928148,6994.6528128,4.086,-2.22,359.786,1.0
1.7,128.181882,37.928192,6994.521444,4.134,-2.239,359.784,1.0
1.7166,128.181882,37.928236,6994.388246400001,4.182,-2.258,359.782,1.0
1.7333,128.181882,37.92828,6994.253524800001,4.23,-2.277,359.781,1.0
1.75,128.181882,37.928324,6994.116974400001,4.279,-2.296,359.779,1.0
1.7666,128.181882,37.928369,6993.979204800001,4.327,-2.315,359.777,1.0
1.7833,128.181882,37.928413,6993.839606400001,4.376,-2.334,359.775,1.0
1.8,128.181882,37.928457,6993.698788799999,4.424,-2.353,359.774,1.0
1.8166,128.181882,37.928501,6993.556142400001,4.473,-2.372,359.772,1.0
1.8333,128.181882,37.928545,6993.411972,4.522,-2.391,359.77,1.0
1.85,128.181882,37.928589,6993.266277600001,4.571,-2.41,359.768,1.0
1.8666,128.181882,37.928633,6993.1190592,4.621,-2.429,359.767,1.0
1.8833,128.181882,37.928677,6992.9703168,4.67,-2.448,359.765,1.0
1.9,128.181882,37.928721,6992.819745600001,4.72,-2.467,359.763,1.0
1.9166,128.181882,37.928765,6992.6679552000005,4.769,-2.486,359.761,1.0
1.9333,128.181882,37.928809,6992.514336,4.819,-2.505,359.76,1.0
1.95,128.181882,37.928853,6992.3591928000005,4.869,-2.524,359.758,1.0
1.9666,128.181882,37.928897,6992.2025256,4.919,-2.543,359.756,1.0
1.9833,128.181882,37.928941,6992.0443344,4.97,-2.562,359.754,1.0
2.0,128.181882,37.928985,6991.884619200001,5.02,-2.581,359.753,1.0
2.0166,128.181882,37.929029,6991.7230752,5.071,-2.6,359.751,1.0
2.0333,128.181882,37.929073,6991.560312,5.121,-2.619,359.749,1.0
2.05,128.181882,37.929117,6991.39572,5.172,-2.638,359.748,1.0
2.0666,128.181883,37.929161,6991.229604,5.223,-2.657,359.746,1.0
2.0833,128.181883,37.929204,6991.061964,5.274,-2.676,359.744,1.0
2.1,128.181883,37.929248,6990.8928000000005,5.325,-2.696,359.743,1.0
2.1166,128.181883,37.929292,6990.722112,5.376,-2.715,359.741,1.0
2.1333,128.181883,37.929336,6990.5495952,5.428,-2.734,359.739,1.0
2.15,128.181883,37.92938,6990.3755544000005,5.479,-2.753,359.738,1.0
2.1666,128.181883,37.929424,6990.2002944000005,5.531,-2.772,359.736,1.0
2.1833,128.181883,37.929468,6990.0232056,5.583,-2.791,359.734,1.0
2.2,128.181883,37.929512,6989.844592800001,5.635,-2.81,359.733,1.0
2.2166,128.181883,37.929556,6989.664151200001,5.687,-2.829,359.731,1.0
2.2333,128.181883,37.929599,6989.482490400001,5.739,-2.848,359.729,1.0
2.25,128.181883,37.929643,6989.299000800001,5.792,-2.867,359.728,1.0
2.2666,128.181883,37.929687,6989.114292,5.844,-2.886,359.726,1.0
2.2833,128.181883,37.929731,6988.927754400001,5.897,-2.905,359.724,1.0
2.3,128.181883,37.929775,6988.739692800001,5.95,-2.925,359.723,1.0
2.3166,128.181883,37.929818,6988.5498024,6.003,-2.944,359.721,1.0
2.3333,128.181883,37.929862,6988.3586928,6.056,-2.963,359.719,1.0
2.35,128.181883,37.929906,6988.1657544,6.109,-2.982,359.718,1.0
2.3666,128.181883,37.92995,6987.971596800001,6.162,-3.001,359.716,1.0
2.3833,128.181883,37.929994,6987.775610400001,6.216,-3.02,359.715,1.0
2.4,128.181883,37.930037,6987.578100000001,6.269,-3.039,359.713,1.0
2.4166,128.181883,37.930081,6987.379065600001,6.323,-3.058,359.711,1.0
2.4333,128.181884,37.930125,6987.1782023999995,6.377,-3.078,359.71,1.0
2.45,128.181884,37.930169,6986.976120000001,6.431,-3.097,359.708,1.0
2.4666,128.181884,37.930212,6986.7722088,6.485,-3.116,359.707,1.0
2.4833,128.181884,37.930256,6986.5667736000005,6.539,-3.135,359.705,1.0
2.5,128.181884,37.9303,6986.359814400001,6.594,-3.154,359.703,1.0
2.5166,128.181884,37.930343,6986.151331200001,6.648,-3.173,359.702,1.0
2.5333,128.181884,37.930387,6985.9410192000005,6.703,-3.193,359.7,1.0
2.55,128.181884,37.930431,6985.729488000001,6.758,-3.212,359.699,1.0
2.5666,128.181884,37.930475,6985.516128,6.813,-3.231,359.697,1.0
2.5833,128.181884,37.930518,6985.301244,6.868,-3.25,359.695,1.0
2.6,128.181884,37.930562,6985.084836,6.923,-3.269,359.694,1.0
2.6166,128.181884,37.930606,6984.866904,6.979,-3.288,359.692,1.0
2.6333,128.181884,37.930649,6984.6471432,7.034,-3.308,359.691,1.0
2.65,128.181884,37.930693,6984.4258584,7.09,-3.327,359.689,1.0
2.6666,128.181884,37.930736,6984.2033544000005,7.146,-3.346,359.688,1.0
2.6833,128.181884,37.93078,6983.9790216,7.202,-3.365,359.686,1.0
2.7,128.181884,37.930824,6983.7528600000005,7.258,-3.384,359.685,1.0
2.7166,128.181885,37.930867,6983.5254792000005,7.314,-3.404,359.683,1.0
2.7333,128.181885,37.930911,6983.2962696,7.37,-3.423,359.681,1.0
2.75,128.181885,37.930955,6983.0658408,7.427,-3.442,359.68,1.0
2.7666,128.181885,37.930998,6982.8335832,7.484,-3.461,359.678,1.0
2.7833,128.181885,37.931042,6982.5994968,7.54,-3.481,359.677,1.0
2.8,128.181885,37.931085,6982.3641912,7.597,-3.5,359.675,1.0
2.8166,128.181885,37.931129,6982.1273616,7.654,-3.519,359.674,1.0
2.8333,128.181885,37.931172,6981.8887032,7.712,-3.538,359.672,1.0
2.85,128.181885,37.931216,6981.6485207999995,7.769,-3.558,359.671,1.0
2.8666,128.181885,37.93126,6981.4068144,7.827,-3.577,359.669,1.0
2.8833,128.181885,37.931303,6981.163584000001,7.884,-3.596,359.668,1.0
2.9,128.181885,37.931347,6980.918524800001,7.942,-3.615,359.666,1.0
2.9166,128.181885,37.93139,6980.6719416000005,8.0,-3.635,359.665,1.0
2.9333,128.181885,37.931434,6980.4241392,8.058,-3.654,359.663,1.0
2.95,128.181886,37.931477,6980.174508,8.116,-3.673,359.662,1.0
2.9666,128.181886,37.931521,6979.923048,8.175,-3.692,359.66,1.0
2.9833,128.181886,37.931564,6979.670368800001,8.233,-3.712,359.659,1.0
3.0,128.181886,37.931608,6979.415860800001,8.292,-3.731,359.657,1.0
3.0166,128.181886,37.931651,6979.1598288000005,8.351,-3.75,359.656,1.0
3.0333,128.181886,37.931695,6978.9022728,8.41,-3.77,359.654,1.0
3.05,128.181886,37.931738,6978.643192800001,8.469,-3.789,359.653,1.0
3.0666,128.181886,37.931781,6978.382284000001,8.528,-3.808,359.651,1.0
3.0833,128.181886,37.931825,6978.120156000001,8.588,-3.827,359.65,1.0
3.1,128.181886,37.931868,6977.8561992,8.647,-3.847,359.648,1.0
3.1166,128.181886,37.931912,6977.590718400001,8.707,-3.866,359.647,1.0
3.1333,128.181886,37.931955,6977.3234088,8.767,-3.885,359.645,1.0
3.15,128.181887,37.931999,6977.05488,8.827,-3.905,359.644,1.0
3.1666,128.181887,37.932042,6976.7845224,8.887,-3.924,359.642,1.0
3.1833,128.181887,37.932085,6976.512640800001,8.948,-3.943,359.641,1.0
3.2,128.181887,37.932129,6976.2392352,9.008,-3.963,359.639,1.0
3.2166,128.181887,37.932172,6975.9643056,9.069,-3.982,359.638,1.0
3.2333,128.181887,37.932216,6975.687547200001,9.129,-4.001,359.636,1.0
3.25,128.181887,37.932259,6975.4092648000005,9.19,-4.021,359.635,1.0
3.2666,128.181887,37.932302,6975.1297632000005,9.251,-4.04,359.633,1.0
3.2833,128.181887,37.932346,6974.8481280000005,9.313,-4.059,359.632,1.0
3.3,128.181887,37.932389,6974.5652736,9.374,-4.079,359.631,1.0
3.3166,128.181887,37.932432,6974.280590400001,9.436,-4.098,359.629,1.0
3.3333,128.181888,37.932476,6973.994383200001,9.497,-4.117,359.628,1.0
3.35,128.181888,37.932519,6973.706652000001,9.559,-4.137,359.626,1.0
3.3666,128.181888,37.932562,6973.4173968000005,9.621,-4.156,359.625,1.0
3.3833,128.181888,37.932606,6973.1266176,9.683,-4.175,359.623,1.0
3.4,128.181888,37.932649,6972.8340096,9.745,-4.195,359.622,1.0
3.4166,128.181888,37.932692,6972.5398776,9.808,-4.214,359.62,1.0
3.4333,128.181888,37.932736,6972.2442216,9.87,-4.233,359.619,1.0
3.45,128.181888,37.932779,6971.9467368000005,9.933,-4.253,359.618,1.0
3.4666,128.181888,37.932822,6971.648032800001,9.995,-4.272,359.616,1.0
3.4833,128.181889,37.932866,6971.347500000001,10.058,-4.291,359.615,1.0
3.5,128.181889,37.932909,6971.0454432,10.121,-4.31,359.613,1.0
3.5166,128.181889,37.932952,6970.7418624,10.183,-4.33,359.612,1.0
3.5333,128.181889,37.932995,6970.4364528,10.246,-4.349,359.611,1.0
3.55,128.181889,37.933039,6970.129824000001,10.309,-4.368,359.609,1.0
3.5666,128.181889,37.933082,6969.8213663999995,10.372,-4.387,359.608,1.0
3.5833,128.181889,37.933125,6969.5113848,10.435,-4.406,359.607,1.0
3.6,128.181889,37.933168,6969.1998792,10.499,-4.425,359.605,1.0
3.6166,128.18189,37.933212,6968.886544800001,10.562,-4.444,359.604,1.0
3.6333,128.18189,37.933255,6968.5719912,10.625,-4.463,359.602,1.0
3.65,128.18189,37.933298,6968.2556088,10.688,-4.483,359.601,1.0
3.6666,128.18189,37.933341,6967.9377024,10.752,-4.502,359.6,1.0
3.6833,128.18189,37.933384,6967.6179672,10.815,-4.521,359.599,1.0
3.7,128.18189,37.933428,6967.2970128,10.879,-4.54,359.597,1.0
3.7166,128.18189,37.933471,6966.9742295999995,10.943,-4.558,359.596,1.0
3.7333,128.18189,37.933514,6966.6499224,11.006,-4.577,359.595,1.0
3.75,128.181891,37.933557,6966.3240912,11.07,-4.596,359.593,1.0
3.7666,128.181891,37.9336,6965.996736,11.134,-4.615,359.592,1.0
3.7833,128.181891,37.933643,6965.667552000001,11.198,-4.634,359.591,1.0
3.8,128.181891,37.933687,6965.3371488,11.261,-4.653,359.59,1.0
3.8166,128.181891,37.93373,6965.0049168,11.325,-4.671,359.588,1.0
3.8333,128.181891,37.933773,6964.6711608000005,11.389,-4.69,359.587,1.0
3.85,128.181891,37.933816,6964.335576,11.453,-4.709,359.586,1.0
3.8666,128.181892,37.933859,6963.998772,11.518,-4.727,359.585,1.0
3.8833,128.181892,37.933902,6963.6601392,11.582,-4.746,359.584,1.0
3.9,128.181892,37.933945,6963.3199824,11.646,-4.765,359.582,1.0
3.9166,128.181892,37.933988,6962.978301600001,11.71,-4.783,359.581,1.0
3.9333,128.181892,37.934032,6962.635096800001,11.775,-4.802,359.58,1.0
3.95,128.181892,37.934075,6962.290368,11.839,-4.82,359.579,1.0
3.9666,128.181892,37.934118,6961.943810400001,11.903,-4.839,359.578,1.0
3.9833,128.181893,37.934161,6961.595728800001,11.968,-4.857,359.577,1.0
4.0,128.181893,37.934204,6961.246428,12.032,-4.875,359.575,1.0
4.0166,128.181893,37.934247,6960.8952984,12.097,-4.894,359.574,1.0
4.0333,128.181893,37.93429,6960.54234,12.161,-4.912,359.573,1.0
4.05,128.181893,37.934333,6960.1881624,12.226,-4.93,359.572,1.0
4.0666,128.181893,37.934376,6959.832156,12.291,-4.949,359.571,1.0
4.0833,128.181893,37.934419,6959.4749304,12.356,-4.967,359.57,1.0
4.1,128.181894,37.934462,6959.115876,12.42,-4.985,359.569,1.0
4.1166,128.181894,37.934505,6958.755297600001,12.485,-5.004,359.568,1.0
4.1333,128.181894,37.934548,6958.3931952,12.55,-5.022,359.566,1.0
4.15,128.181894,37.934591,6958.029568800001,12.615,-5.04,359.565,1.0
4.1666,128.181894,37.934634,6957.664113600001,12.68,-5.058,359.564,1.0
4.1833,128.181895,37.934677,6957.2974392,12.745,-5.077,359.563,1.0
4.2,128.181895,37.93472,6956.928936,12.81,-5.095,359.562,1.0
4.2166,128.181895,37.934763,6956.558908800001,12.875,-5.113,359.561,1.0
4.2333,128.181895,37.934806,6956.1873576,12.94,-5.131,359.56,1.0
4.25,128.181895,37.934849,6955.814282400001,13.005,-5.15,359.559,1.0
4.2666,128.181895,37.934892,6955.439683200001,13.071,-5.168,359.558,1.0
4.2833,128.181896,37.934935,6955.0635600000005,13.136,-5.186,359.557,1.0
4.3,128.181896,37.934978,6954.685608,13.201,-5.204,359.556,1.0
4.3166,128.181896,37.935021,6954.3064368000005,13.266,-5.223,359.554,1.0
4.3333,128.181896,37.935064,6953.9254368,13.332,-5.241,359.553,1.0
4.35,128.181896,37.935107,6953.5429128000005,13.397,-5.259,359.552,1.0
4.3666,128.181897,37.93515,6953.158864800001,13.462,-5.277,359.551,1.0
4.3833,128.181897,37.935193,6952.7732928000005,13.528,-5.295,359.55,1.0
4.4,128.181897,37.935236,6952.386196800001,13.593,-5.313,359.549,1.0
4.4166,128.181897,37.935279,6951.9975768,13.658,-5.332,359.548,1.0
4.4333,128.181897,37.935322,6951.6074328,13.724,-5.35,359.547,1.0
4.45,128.181897,37.935365,6951.21546,13.789,-5.368,359.546,1.0
4.4666,128.181898,37.935408,6950.822268,13.855,-5.386,359.545,1.0
4.4833,128.181898,37.93545,6950.427247200001,13.92,-5.404,359.544,1.0
4.5,128.181898,37.935493,6950.030702399999,13.986,-5.422,359.543,1.0
4.5166,128.181898,37.935536,6949.632938400001,14.051,-5.441,359.542,1.0
4.5333,128.181899,37.935579,6949.233345600001,14.117,-5.459,359.541,1.0
4.55,128.181899,37.935622,6948.832228800001,14.182,-5.477,359.54,1.0
4.5666,128.181899,37.935665,6948.429588000001,14.248,-5.495,359.539,1.0
4.5833,128.181899,37.935708,6948.025423200001,14.313,-5.513,359.538,1.0
4.6,128.181899,37.935751,6947.6197344,14.379,-5.531,359.537,1.0
4.6166,128.1819,37.935793,6947.2122168,14.444,-5.549,359.536,1.0
4.6333,128.1819,37.935836,6946.80348,14.51,-5.567,359.535,1.0
4.65,128.1819,37.935879,6946.3932192,14.575,-5.585,359.534,1.0
4.6666,128.1819,37.935922,6945.9811296,14.641,-5.603,359.533,1.0
4.6833,128.1819,37.935965,6945.5678208,14.707,-5.621,359.532,1.0
4.7,128.181901,37.936008,6945.152683200001,14.772,-5.639,359.531,1.0
4.7166,128.181901,37.93605,6944.7363264000005,14.838,-5.657,359.53,1.0
4.7333,128.181901,37.936093,6944.3181408,14.904,-5.675,359.529,1.0
4.75,128.181901,37.936136,6943.8984312,14.969,-5.693,359.528,1.0
4.7666,128.181902,37.936179,6943.477197600001,15.035,-5.711,359.527,1.0
4.7833,128.181902,37.936222,6943.0547448,15.101,-5.729,359.526,1.0
4.8,128.181902,37.936264,6942.6304632,15.166,-5.747,359.525,1.0
4.8166,128.181902,37.936307,6942.2046576,15.232,-5.765,359.524,1.0
4.8333,128.181903,37.93635,6941.777328,15.298,-5.783,359.523,1.0
4.85,128.181903,37.936393,6941.348474400001,15.364,-5.801,359.522,1.0
4.8666,128.181903,37.936436,6940.918096800001,15.43,-5.819,359.521,1.0
4.8833,128.181903,37.936478,6940.4861952,15.495,-5.837,359.52,1.0
4.9,128.181904,37.936521,6940.052464800001,15.561,-5.855,359.52,1.0
4.9166,128.181904,37.936564,6939.6175152000005,15.627,-5.873,359.519,1.0
4.9333,128.181904,37.936607,6939.181041600001,15.694,-5.891,359.518,1.0
4.95,128.181904,37.936649,6938.743044,15.76,-5.909,359.517,1.0
4.9666,128.181905,37.936692,6938.303217600001,15.826,-5.927,359.516,1.0
4.9833,128.181905,37.936735,6937.862172,15.892,-5.945,359.515,1.0
5.0,128.181905,37.936778,6937.4196024,15.958,-5.962,359.514,1.0
5.0166,128.181905,37.93682,6936.975204,16.025,-5.98,359.513,1.0
5.0333,128.181906,37.936863,6936.5295864,16.091,-5.998,359.513,1.0
5.05,128.181906,37.936906,6936.08214,16.157,-6.016,359.512,1.0
5.0666,128.181906,37.936948,6935.6334744000005,16.223,-6.034,359.511,1.0
5.0833,128.181907,37.936991,6935.1832848,16.29,-6.052,359.51,1.0
5.1,128.181907,37.937034,6934.7312664,16.356,-6.07,359.509,1.0
5.1166,128.181907,37.937077,6934.2780288,16.423,-6.088,359.509,1.0
5.1333,128.181907,37.937119,6933.8229624,16.489,-6.106,359.508,1.0
5.15,128.181908,37.937162,6933.3666768,16.555,-6.123,359.507,1.0
5.1666,128.181908,37.937205,6932.9085624,16.622,-6.141,359.506,1.0
5.1833,128.181908,37.937247,6932.449228800001,16.688,-6.159,359.505,1.0
5.2,128.181909,37.93729,6931.9880664,16.755,-6.177,359.505,1.0
5.2166,128.181909,37.937333,6931.5256848,16.821,-6.195,359.504,1.0
5.2333,128.181909,37.937375,6931.0614744,16.888,-6.212,359.503,1.0
5.25,128.181909,37.937418,6930.5960448000005,16.955,-6.23,359.502,1.0
5.2666,128.18191,37.937461,6930.1287864000005,17.021,-6.248,359.502,1.0
5.2833,128.18191,37.937503,6929.6603088,17.088,-6.266,359.501,1.0
5.3,128.18191,37.937546,6929.1900024,17.155,-6.283,359.5,1.0
5.3166,128.181911,37.937588,6928.718476800001,17.221,-6.301,359.5,1.0
5.3333,128.181911,37.937631,6928.245122400001,17.288,-6.319,359.499,1.0
5.35,128.181911,37.937674,6927.7705488,17.355,-6.337,359.498,1.0
5.3666,128.181912,37.937716,6927.2941464000005,17.422,-6.354,359.498,1.0
5.3833,128.181912,37.937759,6926.8165248000005,17.49,-6.372,359.497,1.0
5.4,128.181912,37.937801,6926.3370744,17.557,-6.39,359.497,1.0
5.4166,128.181913,37.937844,6925.856404800001,17.624,-6.407,359.496,1.0
5.4333,128.181913,37.937887,6925.374211200001,17.692,-6.425,359.495,1.0
5.45,128.181913,37.937929,6924.8901888,17.759,-6.443,359.495,1.0
5.4666,128.181913,37.937972,6924.404947200001,17.827,-6.46,359.494,1.0
5.4833,128.181914,37.938014,6923.9181816,17.894,-6.478,359.494,1.0
5.5,128.181914,37.938057,6923.4295872,17.962,-6.495,359.493,1.0
5.5166,128.181914,37.9381,6922.939773600001,18.03,-6.513,359.493,1.0
5.5333,128.181915,37.938142,6922.448436000001,18.099,-6.531,359.492,1.0
5.55,128.181915,37.938185,6921.955574400001,18.167,-6.548,359.492,1.0
5.5666,128.181916,37.938227,6921.4611888,18.235,-6.566,359.491,1.0
5.5833,128.181916,37.93827,6920.964974400001,18.304,-6.583,359.491,1.0
5.6,128.181916,37.938312,6920.4675408,18.373,-6.601,359.491,1.0
5.6166,128.181917,37.938355,6919.9685832000005,18.442,-6.618,359.49,1.0
5.6333,128.181917,37.938397,6919.4681016,18.511,-6.636,359.49,1.0
5.65,128.181917,37.93844,6918.966096,18.58,-6.653,359.489,1.0
5.6666,128.181918,37.938482,6918.4625664,18.65,-6.671,359.489,1.0
5.6833,128.181918,37.938525,6917.957512800001,18.719,-6.688,359.489,1.0
5.7,128.181918,37.938567,6917.4509352000005,18.789,-6.705,359.488,1.0
5.7166,128.181919,37.93861,6916.942833600001,18.859,-6.723,359.488,1.0
5.7333,128.181919,37.938652,6916.4335128,18.929,-6.74,359.488,1.0
5.75,128.181919,37.938695,6915.9223632,18.999,-6.758,359.487,1.0
5.7666,128.18192,37.938737,6915.4096896,19.07,-6.775,359.487,1.0
5.7833,128.18192,37.93878,6914.8957968,19.14,-6.792,359.487,1.0
5.8,128.181921,37.938822,6914.3800752,19.211,-6.81,359.487,1.0
5.8166,128.181921,37.938865,6913.8628296,19.282,-6.827,359.486,1.0
5.8333,128.181921,37.938907,6913.3443648,19.352,-6.844,359.486,1.0
5.85,128.181922,37.93895,6912.8243760000005,19.423,-6.862,359.486,1.0
5.8666,128.181922,37.938992,6912.3025584,19.495,-6.879,359.486,1.0
5.8833,128.181923,37.939035,6911.7795216,19.566,-6.896,359.486,1.0
5.9,128.181923,37.939077,6911.254960800001,19.637,-6.913,359.485,1.0
5.9166,128.181923,37.939119,6910.728876,19.709,-6.931,359.485,1.0
5.9333,128.181924,37.939162,6910.2012672,19.781,-6.948,359.485,1.0
5.95,128.181924,37.939204,6909.6721344,19.852,-6.965,359.485,1.0
5.9666,128.181925,37.939247,6909.1414776,19.924,-6.982,359.485,1.0
5.9833,128.181925,37.939289,6908.6092968,19.997,-7.0,359.485,1.0
6.0,128.181925,37.939332,6908.075592000001,20.069,-7.017,359.485,1.0
6.0166,128.181926,37.939374,6907.540363200001,20.141,-7.034,359.484,1.0
6.0333,128.181926,37.939416,6907.003915200001,20.214,-7.051,359.484,1.0
6.05,128.181927,37.939459,6906.465638400001,20.287,-7.068,359.484,1.0
6.0666,128.181927,37.939501,6905.926142400001,20.36,-7.086,359.484,1.0
6.0833,128.181927,37.939544,6905.3851224,20.433,-7.103,359.484,1.0
6.1,128.181928,37.939586,6904.8422736,20.506,-7.12,359.484,1.0
6.1166,128.181928,37.939628,6904.298205600001,20.579,-7.137,359.484,1.0
6.1333,128.181929,37.939671,6903.752613600001,20.653,-7.154,359.484,1.0
6.15,128.181929,37.939713,6903.205497600001,20.726,-7.171,359.484,1.0
6.1666,128.18193,37.939755,6902.6568576,20.8,-7.188,359.484,1.0
6.1833,128.18193,37.939798,6902.1066936,20.874,-7.205,359.484,1.0
6.2,128.181931,37.93984,6901.555310400001,20.948,-7.223,359.484,1.0
6.2166,128.181931,37.939882,6901.0020984,21.023,-7.24,359.484,1.0
6.2333,128.181931,37.939925,6900.4476672,21.097,-7.257,359.485,1.0
6.25,128.181932,37.939967,6899.8914072,21.172,-7.274,359.485,1.0
6.2666,128.181932,37.940009,6899.333928000001,21.247,-7.291,359.485,1.0
6.2833,128.181933,37.940052,6898.774924800001,21.322,-7.308,359.485,1.0
6.3,128.181933,37.940094,6898.214397600001,21.397,-7.325,359.485,1.0
6.3166,128.181934,37.940136,6897.6523464,21.472,-7.342,359.485,1.0
6.3333,128.181934,37.940179,6897.0887712,21.548,-7.359,359.485,1.0
6.35,128.181935,37.940221,6896.523672,21.623,-7.376,359.486,1.0
6.3666,128.181935,37.940263,6895.9570488,21.699,-7.393,359.486,1.0
6.3833,128.181936,37.940306,6895.389206400001,21.775,-7.41,359.486,1.0
6.4,128.181936,37.940348,6894.8195352,21.851,-7.427,359.486,1.0
6.4166,128.181937,37.94039,6894.2486448,21.928,-7.444,359.486,1.0
6.4333,128.181937,37.940432,6893.6762304,22.004,-7.461,359.487,1.0
6.45,128.181938,37.940475,6893.1022920000005,22.081,-7.478,359.487,1.0
6.4666,128.181938,37.940517,6892.5268295999995,22.157,-7.495,359.487,1.0
6.4833,128.181939,37.940559,6891.9498432,22.234,-7.512,359.487,1.0
6.5,128.181939,37.940601,6891.3713328,22.311,-7.529,359.488,1.0
6.5166,128.18194,37.940644,6890.7916032,22.388,-7.546,359.488,1.0
6.5333,128.18194,37.940686,6890.2100448,22.466,-7.563,359.488,1.0
6.55,128.181941,37.940728,6889.6272672000005,22.543,-7.58,359.489,1.0
6.5666,128.181941,37.94077,6889.042965600001,22.621,-7.596,359.489,1.0
6.5833,128.181942,37.940813,6888.45714,22.699,-7.613,359.489,1.0
6.6,128.181942,37.940855,6887.8697904,22.777,-7.63,359.49,1.0
6.6166,128.181943,37.940897,6887.2809168,22.855,-7.647,359.49,1.0
6.6333,128.181943,37.940939,6886.6905192,22.934,-7.664,359.49,1.0
6.65,128.181944,37.940982,6886.0989024,23.012,-7.681,359.491,1.0
6.6666,128.181944,37.941024,6885.5054568000005,23.091,-7.698,359.491,1.0
6.6833,128.181945,37.941066,6884.910792000001,23.17,-7.715,359.492,1.0
6.7,128.181945,37.941108,6884.3146032,23.249,-7.732,359.492,1.0
6.7166,128.181946,37.94115,6883.7168904,23.328,-7.748,359.493,1.0
6.7333,128.181947,37.941193,6883.1176536,23.408,-7.765,359.493,1.0
6.75,128.181947,37.941235,6882.516892800001,23.487,-7.782,359.493,1.0
6.7666,128.181948,37.941277,6881.914608,23.567,-7.799,359.494,1.0
6.7833,128.181948,37.941319,6881.311104,23.647,-7.816,359.494,1.0
6.8,128.181949,37.941361,6880.706076,23.727,-7.833,359.495,1.0
6.8166,128.181949,37.941403,6880.0992192,23.807,-7.85,359.495,1.0
6.8333,128.18195,37.941446,6879.4911432,23.888,-7.866,359.496,1.0
6.85,128.181951,37.941488,6878.8815432,23.968,-7.883,359.496,1.0
6.8666,128.181951,37.94153,6878.270724000001,24.049,-7.9,359.497,1.0
6.8833,128.181952,37.941572,6877.658076,24.13,-7.917,359.498,1.0
6.9,128.181952,37.941614,6877.043904,24.211,-7.934,359.498,1.0
6.9166,128.181953,37.941656,6876.4285128,24.293,-7.951,359.499,1.0
6.9333,128.181953,37.941698,6875.811597600001,24.374,-7.967,359.499,1.0
6.95,128.181954,37.94174,6875.1931584,24.456,-7.984,359.5,1.0
6.9666,128.181955,37.941783,6874.573195200001,24.538,-8.001,359.501,1.0
6.9833,128.181955,37.941825,6873.9517080000005,24.62,-8.018,359.501,1.0
7.0,128.181956,37.941867,6873.328696800001,24.703,-8.035,359.502,1.0
7.0166,128.181956,37.941909,6872.7044664,24.785,-8.052,359.502,1.0
7.0333,128.181957,37.941951,6872.0784072,24.868,-8.068,359.503,1.0
7.05,128.181958,37.941993,6871.4511288,24.951,-8.085,359.504,1.0
7.0666,128.181958,37.942035,6870.8223264,25.034,-8.102,359.505,1.0
7.0833,128.181959,37.942077,6870.1916952,25.118,-8.12,359.505,1.0
7.1,128.18196,37.942119,6869.5598448,25.204,-8.139,359.505,1.0
7.1166,128.18196,37.942161,6868.926165600001,25.292,-8.159,359.505,1.0
7.1333,128.181961,37.942203,6868.2912672,25.381,-8.179,359.505,1.0
7.15,128.181961,37.942245,6867.65454,25.471,-8.199,359.505,1.0
7.1666,128.181962,37.942287,6867.0162887999995,25.562,-8.22,359.505,1.0
7.1833,128.181963,37.94233,6866.3765136,25.654,-8.241,359.504,1.0
7.2,128.181963,37.942372,6865.735214400001,25.748,-8.262,359.504,1.0
7.2166,128.181964,37.942414,6865.092391200001,25.842,-8.283,359.503,1.0
7.2333,128.181965,37.942456,6864.448044,25.937,-8.305,359.503,1.0
7.25,128.181965,37.942498,6863.8021728,26.032,-8.326,359.502,1.0
7.2666,128.181966,37.94254,6863.154777600001,26.128,-8.347,359.501,1.0
7.2833,128.181967,37.942582,6862.5058584,26.225,-8.368,359.501,1.0
7.3,128.181967,37.942624,6861.855110400001,26.322,-8.388,359.5,1.0
7.3166,128.181968,37.942666,6861.203143199999,26.419,-8.409,359.499,1.0
7.3333,128.181969,37.942708,6860.549347200001,26.517,-8.43,359.499,1.0
7.35,128.181969,37.94275,6859.8940272,26.615,-8.451,359.498,1.0
7.3666,128.18197,37.942792,6859.237183200001,26.714,-8.472,359.498,1.0
7.3833,128.181971,37.942834,6858.5788152000005,26.813,-8.492,359.497,1.0
7.4,128.181971,37.942876,6857.918923200001,26.912,-8.513,359.496,1.0
7.4166,128.181972,37.942918,6857.2575072,27.011,-8.533,359.496,1.0
7.4333,128.181973,37.94296,6856.5942624,27.11,-8.554,359.495,1.0
7.45,128.181973,37.943002,6855.9294936,27.21,-8.574,359.495,1.0
7.4666,128.181974,37.943044,6855.263200800001,27.31,-8.594,359.494,1.0
7.4833,128.181975,37.943085,6854.595384000001,27.411,-8.615,359.494,1.0
7.5,128.181976,37.943127,6853.9260432,27.511,-8.635,359.493,1.0
7.5166,128.181976,37.943169,6853.254873600001,27.612,-8.655,359.493,1.0
7.5333,128.181977,37.943211,6852.58218,27.713,-8.675,359.492,1.0
7.55,128.181978,37.943253,6851.9079624,27.814,-8.695,359.492,1.0
7.5666,128.181978,37.943295,6851.2322208,27.915,-8.715,359.492,1.0
7.5833,128.181979,37.943337,6850.5546504,28.017,-8.735,359.491,1.0
7.6,128.18198,37.943379,6849.875556000001,28.119,-8.755,359.491,1.0
7.6166,128.181981,37.943421,6849.1949376,28.221,-8.775,359.491,1.0
7.6333,128.181981,37.943463,6848.5124904,28.323,-8.794,359.49,1.0
7.65,128.181982,37.943505,6847.828824000001,28.426,-8.814,359.49,1.0
7.6666,128.181983,37.943547,6847.143024000001,28.528,-8.834,359.49,1.0
7.6833,128.181984,37.943589,6846.4560048,28.631,-8.853,359.49,1.0
7.7,128.181984,37.94363,6845.7671568000005,28.735,-8.873,359.49,1.0
7.7166,128.181985,37.943672,6845.0767848,28.838,-8.892,359.489,1.0
7.7333,128.181986,37.943714,6844.3848888,28.942,-8.912,359.489,1.0
7.75,128.181987,37.943756,6843.691164000001,29.046,-8.931,359.489,1.0
7.7666,128.181987,37.943798,6842.995915200001,29.15,-8.95,359.489,1.0
7.7833,128.181988,37.94384,6842.299142400001,29.255,-8.969,359.489,1.0
7.8,128.181989,37.943882,6841.6005408,29.359,-8.988,359.489,1.0
7.8166,128.18199,37.943923,6840.900415200001,29.464,-9.007,359.489,1.0
7.8333,128.181991,37.943965,6840.198765600001,29.57,-9.026,359.49,1.0
7.85,128.181991,37.944007,6839.4952872,29.675,-9.045,359.49,1.0
7.8666,128.181992,37.944049,6838.7902848,29.781,-9.064,359.49,1.0
7.8833,128.181993,37.944091,6838.0837584,29.887,-9.082,359.49,1.0
7.9,128.181994,37.944133,6837.3754032,29.993,-9.101,359.491,1.0
7.9166,128.181994,37.944174,6836.665524000001,30.099,-9.12,359.491,1.0
7.9333,128.181995,37.944216,6835.9541208,30.206,-9.138,359.491,1.0
7.95,128.181996,37.944258,6835.2408888,30.313,-9.156,359.492,1.0
7.9666,128.181997,37.9443,6834.525828000001,30.421,-9.174,359.492,1.0
7.9833,128.181998,37.944342,6833.809548,30.529,-9.192,359.493,1.0
8.0,128.181998,37.944383,6833.0914391999995,30.637,-9.211,359.494,1.0
8.0166,128.181999,37.944425,6832.371501600001,30.745,-9.228,359.494,1.0
8.0333,128.182,37.944467,6831.65004,30.854,-9.246,359.495,1.0
8.05,128.182001,37.944509,6830.9270544,30.963,-9.264,359.496,1.0
8.0666,128.182002,37.944551,6830.2025448,31.073,-9.282,359.497,1.0
8.0833,128.182003,37.944592,6829.476206400001,31.182,-9.3,359.497,1.0
8.1,128.182003,37.944634,6828.748344,31.291,-9.317,359.498,1.0
8.1166,128.182004,37.944676,6828.0186527999995,31.401,-9.335,359.499,1.0
8.1333,128.182005,37.944718,6827.287437600001,31.51,-9.353,359.499,1.0
8.15,128.182006,37.944759,6826.5546984,31.619,-9.371,359.5,1.0
8.1666,128.182007,37.944801,6825.8204352,31.729,-9.388,359.5,1.0
8.1833,128.182008,37.944843,6825.0843432,31.838,-9.406,359.5,1.0
8.2,128.182009,37.944884,6824.346727200001,31.947,-9.424,359.501,1.0
8.2166,128.182009,37.944926,6823.6072824,32.056,-9.442,359.501,1.0
8.2333,128.18201,37.944968,6822.8666184,32.164,-9.46,359.501,1.0
8.25,128.182011,37.94501,6822.1241256,32.272,-9.478,359.501,1.0
8.2666,128.182012,37.945051,6821.3801088,32.378,-9.496,359.5,1.0
8.2833,128.182013,37.945093,6820.634568,32.483,-9.515,359.499,1.0
8.3,128.182014,37.945135,6819.8875032,32.586,-9.533,359.497,1.0
8.3166,128.182015,37.945176,6819.1389144,32.684,-9.551,359.495,1.0
8.3333,128.182016,37.945218,6818.388801600001,32.779,-9.569,359.492,1.0
8.35,128.182016,37.94526,6817.6374696,32.87,-9.588,359.488,1.0
8.3666,128.182017,37.945301,6816.8846136,32.956,-9.607,359.484,1.0
8.3833,128.182018,37.945343,6816.129928800001,33.039,-9.625,359.48,1.0
8.4,128.182019,37.945385,6815.374024800001,33.118,-9.644,359.476,1.0
8.4166,128.18202,37.945426,6814.6165968000005,33.194,-9.664,359.471,1.0
8.4333,128.182021,37.945468,6813.8576448,33.267,-9.683,359.466,1.0
8.45,128.182022,37.94551,6813.097168800001,33.337,-9.703,359.461,1.0
8.4666,128.182023,37.945551,6812.334864,33.404,-9.723,359.457,1.0
8.4833,128.182024,37.945593,6811.57134,33.47,-9.743,359.452,1.0
8.5,128.182025,37.945635,6810.8059872,33.534,-9.763,359.447,1.0
8.5166,128.182026,37.945676,6810.039110400001,33.597,-9.784,359.442,1.0
8.5333,128.182027,37.945718,6809.2707096,33.658,-9.804,359.438,1.0
8.55,128.182028,37.945759,6808.50048,33.718,-9.825,359.433,1.0
8.5666,128.182029,37.945801,6807.7290312000005,33.778,-9.845,359.429,1.0
8.5833,128.18203,37.945843,6806.9557536,33.837,-9.866,359.424,1.0
8.6,128.182031,37.945884,6806.180647200001,33.896,-9.887,359.42,1.0
8.6166,128.182031,37.945926,6805.4043216,33.954,-9.908,359.416,1.0
8.6333,128.182032,37.945967,6804.6261672,34.013,-9.929,359.412,1.0
8.65,128.182033,37.946009,6803.846184000001,34.071,-9.949,359.408,1.0
8.6666,128.182034,37.946051,6803.064676800001,34.13,-9.97,359.404,1.0
8.6833,128.182035,37.946092,6802.2816456,34.188,-9.991,359.4,1.0
8.7,128.182036,37.946134,6801.4967856,34.247,-10.012,359.396,1.0
8.7166,128.182037,37.946175,6800.7104016,34.306,-10.033,359.393,1.0
8.7333,128.182038,37.946217,6799.9224936,34.365,-10.054,359.389,1.0
8.75,128.182039,37.946258,6799.132756800001,34.425,-10.074,359.385,1.0
8.7666,128.18204,37.9463,6798.3411912,34.485,-10.095,359.382,1.0
8.7833,128.182041,37.946341,6797.5481016,34.545,-10.116,359.379,1.0
8.8,128.182042,37.946383,6796.753488,34.606,-10.137,359.375,1.0
8.8166,128.182043,37.946424,6795.9570456,34.667,-10.157,359.372,1.0
8.8333,128.182044,37.946466,6795.159079200001,34.728,-10.178,359.369,1.0
8.85,128.182045,37.946507,6794.359284000001,34.79,-10.199,359.366,1.0
8.8666,128.182046,37.946549,6793.5579648,34.853,-10.219,359.363,1.0
8.8833,128.182048,37.94659,6792.7548168,34.915,-10.24,359.36,1.0
8.9,128.182049,37.946632,6791.9501448,34.979,-10.261,359.357,1.0
8.9166,128.18205,37.946673,6791.143644,35.042,-10.281,359.355,1.0
8.9333,128.182051,37.946715,6790.3347048000005,35.113,-10.301,359.353,1.0
8.95,128.182052,37.946756,6789.524546400001,35.19,-10.321,359.353,1.0
8.9666,128.182053,37.946798,6788.7119496000005,35.272,-10.34,359.353,1.0
8.9833,128.182054,37.946839,6787.897828800001,35.361,-10.359,359.354,1.0
9.0,128.182055,37.946881,6787.081879200001,35.455,-10.377,359.356,1.0
9.0166,128.182056,37.946922,6786.264100800001,35.553,-10.395,359.357,1.0
9.0333,128.182057,37.946964,6785.4444936,35.656,-10.413,359.359,1.0
9.05,128.182058,37.947005,6784.6230576,35.762,-10.431,359.36,1.0
9.0666,128.182059,37.947047,6783.7997928,35.871,-10.448,359.362,1.0
9.0833,128.18206,37.947088,6782.975004,35.983,-10.466,359.363,1.0
9.1,128.182061,37.947129,6782.1480816,36.097,-10.483,359.365,1.0
9.1166,128.182062,37.947171,6781.31994,36.212,-10.5,359.366,1.0
9.1333,128.182063,37.947212,6780.4896648,36.33,-10.518,359.367,1.0
9.15,128.182064,37.947254,6779.657865600001,36.449,-10.535,359.368,1.0
9.1666,128.182065,37.947295,6778.824237600001,36.569,-10.552,359.369,1.0
9.1833,128.182066,37.947337,6777.9887808,36.69,-10.569,359.37,1.0
9.2,128.182068,37.947378,6777.151800000001,36.812,-10.586,359.371,1.0
9.2166,128.182069,37.947419,6776.312990400001,36.934,-10.604,359.372,1.0
9.2333,128.18207,37.947461,6775.472656800001,37.058,-10.621,359.372,1.0
9.25,128.182071,37.947502,6774.6304944,37.182,-10.638,359.373,1.0
9.2666,128.182072,37.947543,6773.7865032,37.306,-10.655,359.374,1.0
9.2833,128.182073,37.947585,6772.940988,37.431,-10.672,359.375,1.0
9.3,128.182074,37.947626,6772.093644,37.557,-10.689,359.375,1.0
9.3166,128.182075,37.947667,6771.2444712,37.682,-10.707,359.376,1.0
9.3333,128.182076,37.947709,6770.3937744,37.809,-10.724,359.377,1.0
9.35,128.182077,37.94775,6769.5415536,37.935,-10.741,359.377,1.0
9.3666,128.182078,37.947792,6768.687504,38.062,-10.758,359.378,1.0
9.3833,128.18208,37.947833,6767.8316256,38.19,-10.776,359.379,1.0
9.4,128.182081,37.947874,6766.9739184,38.317,-10.793,359.379,1.0
9.4166,128.182082,37.947915,6766.114687200001,38.445,-10.81,359.38,1.0
9.4333,128.182083,37.947957,6765.2539320000005,38.574,-10.827,359.38,1.0
9.45,128.182084,37.947998,6764.3910432,38.702,-10.845,359.381,1.0
9.4666,128.182085,37.948039,6763.5269352000005,38.831,-10.862,359.381,1.0
9.4833,128.182086,37.948081,6762.6606936,38.96,-10.879,359.382,1.0
9.5,128.182088,37.948122,6761.792928000001,39.09,-10.897,359.383,1.0
9.5166,128.182089,37.948163,6760.923333600001,39.219,-10.914,359.383,1.0
9.5333,128.18209,37.948205,6760.0522152,39.35,-10.931,359.384,1.0
9.55,128.182091,37.948246,6759.179268,39.48,-10.949,359.384,1.0
9.5666,128.182092,37.948287,6758.304796800001,39.611,-10.966,359.385,1.0
9.5833,128.182093,37.948328,6757.428496800001,39.742,-10.983,359.385,1.0
9.6,128.182094,37.94837,6756.550368,39.873,-11.001,359.386,1.0
9.6166,128.182096,37.948411,6755.670715200001,40.004,-11.018,359.387,1.0
9.6333,128.182097,37.948452,6754.7892336,40.136,-11.036,359.387,1.0
9.65,128.182098,37.948493,6753.905923200001,40.268,-11.053,359.388,1.0
9.6666,128.182099,37.948535,6753.0210888,40.401,-11.071,359.388,1.0
9.6833,128.1821,37.948576,6752.1344256,40.534,-11.088,359.389,1.0
9.7,128.182102,37.948617,6751.246238400001,40.667,-11.105,359.389,1.0
9.7166,128.182103,37.948658,6750.356222400001,40.8,-11.123,359.39,1.0
9.7333,128.182104,37.9487,6749.4643776,40.933,-11.14,359.391,1.0
9.75,128.182105,37.948741,6748.5710088000005,41.067,-11.158,359.391,1.0
9.7666,128.182106,37.948782,6747.675811200001,41.202,-11.175,359.392,1.0
9.7833,128.182107,37.948823,6746.7787848,41.336,-11.193,359.392,1.0
9.8,128.182109,37.948864,6745.8802344,41.471,-11.21,359.393,1.0
9.8166,128.18211,37.948905,6744.9798552,41.606,-11.228,359.393,1.0
9.8333,128.182111,37.948947,6744.077647200001,41.741,-11.245,359.394,1.0
9.85,128.182112,37.948988,6743.173915200001,41.877,-11.262,359.395,1.0
9.8666,128.182114,37.949029,6742.2683544,42.013,-11.28,359.395,1.0
9.8833,128.182115,37.94907,6741.361269600001,42.149,-11.297,359.396,1.0
9.9,128.182116,37.949111,6740.452051200001,42.286,-11.315,359.396,1.0
9.9166,128.182117,37.949152,6739.5413088000005,42.423,-11.332,359.397,1.0
9.9333,128.182119,37.949194,6738.629042400001,42.56,-11.35,359.398,1.0
9.95,128.18212,37.949235,6737.714947200001,42.698,-11.367,359.398,1.0
9.9666,128.182121,37.949276,6736.7990232,42.835,-11.385,359.399,1.0
9.9833,128.182122,37.949317,6735.881270400001,42.973,-11.402,359.399,1.0
10.0,128.182124,37.949358,6734.9619936,43.112,-11.42,359.4,1.0
10.0166,128.182125,37.949399,6734.040888,43.251,-11.437,359.401,1.0
10.0333,128.182126,37.94944,6733.1179536,43.39,-11.455,359.401,1.0
10.05,128.182127,37.949482,6732.1934952,43.529,-11.472,359.402,1.0
10.0666,128.182129,37.949523,6731.267208,43.669,-11.49,359.403,1.0
10.0833,128.18213,37.949564,6730.339092,43.809,-11.507,359.403,1.0
10.1,128.182131,37.949605,6729.409452000001,43.949,-11.525,359.404,1.0
10.1166,128.182132,37.949646,6728.4776784000005,44.089,-11.542,359.405,1.0
10.1333,128.182134,37.949687,6727.5443808,44.23,-11.56,359.405,1.0
10.15,128.182135,37.949728,6726.6095592,44.372,-11.577,359.406,1.0
10.1666,128.182136,37.949769,6725.672604,44.513,-11.595,359.407,1.0
10.1833,128.182138,37.94981,6724.734124800001,44.655,-11.612,359.407,1.0
10.2,128.182139,37.949851,6723.7941216,44.797,-11.63,359.408,1.0
10.2166,128.18214,37.949892,6722.8519848,44.94,-11.648,359.409,1.0
10.2333,128.182142,37.949933,6721.908324000001,45.082,-11.665,359.409,1.0
10.25,128.182143,37.949974,6720.9628344,45.225,-11.683,359.41,1.0
10.2666,128.182144,37.950015,6720.0155159999995,45.369,-11.7,359.411,1.0
10.2833,128.182145,37.950056,6719.0663688,45.513,-11.718,359.412,1.0
10.3,128.182147,37.950097,6718.115697600001,45.657,-11.735,359.412,1.0
10.3166,128.182148,37.950138,6717.163197600001,45.801,-11.753,359.413,1.0
10.3333,128.182149,37.950179,6716.2088688,45.946,-11.77,359.414,1.0
10.35,128.182151,37.95022,6715.253016,46.091,-11.788,359.414,1.0
10.3666,128.182152,37.950261,6714.2950296,46.236,-11.805,359.415,1.0
10.3833,128.182154,37.950302,6713.335519200001,46.382,-11.823,359.416,1.0
10.4,128.182155,37.950343,6712.37418,46.528,-11.84,359.417,1.0
10.4166,128.182156,37.950384,6711.411012,46.674,-11.858,359.418,1.0
10.4333,128.182158,37.950425,6710.446320000001,46.821,-11.875,359.418,1.0
10.45,128.182159,37.950466,6709.4797992,46.968,-11.893,359.419,1.0
10.4666,128.18216,37.950507,6708.5111448,47.115,-11.91,359.42,1.0
10.4833,128.182162,37.950548,6707.5412712,47.262,-11.928,359.421,1.0
10.5,128.182163,37.950589,6706.569264000001,47.41,-11.945,359.422,1.0
10.5166,128.182164,37.95063,6705.5954280000005,47.558,-11.963,359.422,1.0
10.5333,128.182166,37.950671,6704.620068,47.707,-11.98,359.423,1.0
10.55,128.182167,37.950712,6703.642879200001,47.856,-11.998,359.424,1.0
10.5666,128.182169,37.950753,6702.6638616,48.005,-12.015,359.425,1.0
10.5833,128.18217,37.950794,6701.683015200001,48.154,-12.033,359.426,1.0
10.6,128.182171,37.950835,6700.70034,48.304,-12.05,359.427,1.0
10.6166,128.182173,37.950876,6699.7161408,48.454,-12.068,359.428,1.0
10.6333,128.182174,37.950917,6698.729808,48.605,-12.085,359.428,1.0
10.65,128.182176,37.950958,6697.741951200001,48.756,-12.103,359.429,1.0
10.6666,128.182177,37.950998,6696.752265600001,48.907,-12.121,359.43,1.0
10.6833,128.182178,37.951039,6695.7607512,49.058,-12.138,359.431,1.0
10.7,128.18218,37.95108,6694.767408,49.21,-12.156,359.432,1.0
10.7166,128.182181,37.951121,6693.772540800001,49.362,-12.173,359.433,1.0
10.7333,128.182183,37.951162,6692.775540000001,49.514,-12.191,359.434,1.0
10.75,128.182184,37.951203,6691.7770152,49.667,-12.208,359.435,1.0
10.7666,128.182186,37.951244,6690.7766616,49.82,-12.226,359.436,1.0
10.7833,128.182187,37.951285,6689.7741744,49.973,-12.243,359.437,1.0
10.8,128.182188,37.951325,6688.7701632,50.127,-12.261,359.438,1.0
10.8166,128.18219,37.951366,6687.7643232,50.281,-12.278,359.439,1.0
10.8333,128.182191,37.951407,6686.7566544,50.435,-12.296,359.44,1.0
10.85,128.182193,37.951448,6685.7474616,50.59,-12.313,359.441,1.0
10.8666,128.182194,37.951489,6684.7361352,50.745,-12.331,359.442,1.0
10.8833,128.182196,37.951529,6683.72298,50.9,-12.348,359.443,1.0
10.9,128.182197,37.95157,6682.708300800001,51.056,-12.366,359.444,1.0
10.9166,128.182199,37.951611,6681.691488,51.212,-12.383,359.445,1.0
10.9333,128.1822,37.951652,6680.673151200001,51.368,-12.401,359.446,1.0
10.95,128.182202,37.951693,6679.6526808,51.524,-12.418,359.447,1.0
10.9666,128.182203,37.951733,6678.630686400001,51.681,-12.436,359.448,1.0
10.9833,128.182205,37.951774,6677.606863200001,51.838,-12.453,359.449,1.0
11.0,128.182206,37.951815,6676.581211200001,51.996,-12.471,359.45,1.0
11.0166,128.182208,37.951856,6675.5537304,52.154,-12.488,359.451,1.0
11.0333,128.182209,37.951897,6674.5244207999995,52.312,-12.506,359.452,1.0
11.05,128.182211,37.951937,6673.492977600001,52.47,-12.523,359.453,1.0
11.0666,128.182212,37.951978,6672.460010400001,52.629,-12.541,359.455,1.0
11.0833,128.182214,37.952019,6671.4252144,52.788,-12.558,359.456,1.0
11.1,128.182215,37.95206,6670.3885896,52.948,-12.576,359.457,1.0
11.1166,128.182217,37.9521,6669.350136,53.108,-12.593,359.458,1.0
11.1333,128.182218,37.952141,6668.3098536,53.268,-12.611,359.459,1.0
11.15,128.18222,37.952182,6667.2677424,53.428,-12.628,359.46,1.0
11.1666,128.182221,37.952222,6666.2238024,53.589,-12.646,359.461,1.0
11.1833,128.182223,37.952263,6665.178033600001,53.75,-12.663,359.463,1.0
11.2,128.182224,37.952304,6664.130436,53.911,-12.681,359.464,1.0
11.2166,128.182226,37.952345,6663.0810096000005,54.073,-12.698,359.465,1.0
11.2333,128.182228,37.952385,6662.0297544000005,54.235,-12.716,359.466,1.0
11.25,128.182229,37.952426,6660.976670400001,54.397,-12.733,359.467,1.0
11.2666,128.182231,37.952467,6659.9217576,54.56,-12.751,359.469,1.0
11.2833,128.182232,37.952507,6658.865016,54.723,-12.768,359.47,1.0
11.3,128.182234,37.952548,6657.8064456,54.886,-12.786,359.471,1.0
11.3166,128.182235,37.952589,6656.7460464000005,55.05,-12.803,359.472,1.0
11.3333,128.182237,37.952629,6655.6835136,55.214,-12.821,359.474,1.0
11.35,128.182238,37.95267,6654.619456800001,55.378,-12.838,359.475,1.0
11.3666,128.18224,37.952711,6653.5535712,55.543,-12.856,359.476,1.0
11.3833,128.182242,37.952751,6652.485552000001,55.708,-12.873,359.477,1.0
11.4,128.182243,37.952792,6651.4160088,55.873,-12.891,359.479,1.0
11.4166,128.182245,37.952832,6650.344332000001,56.039,-12.908,359.48,1.0
11.4333,128.182246,37.952873,6649.2708264,56.205,-12.926,359.481,1.0
11.45,128.182248,37.952914,6648.195492000001,56.371,-12.943,359.483,1.0
11.4666,128.18225,37.952954,6647.118328800001,56.537,-12.961,359.484,1.0
11.4833,128.182251,37.952995,6646.0393368000005,56.704,-12.978,359.485,1.0
11.5,128.182253,37.953036,6644.958516,56.872,-12.996,359.487,1.0
11.5166,128.182254,37.953076,6643.8758664,57.039,-13.013,359.488,1.0
11.5333,128.182256,37.953117,6642.791388000001,57.207,-13.031,359.489,1.0
11.55,128.182258,37.953157,6641.704776,57.375,-13.048,359.491,1.0
11.5666,128.182259,37.953198,6640.61664,57.544,-13.066,359.492,1.0
11.5833,128.182261,37.953238,6639.526370400001,57.713,-13.083,359.493,1.0
11.6,128.182263,37.953279,6638.434272,57.882,-13.101,359.495,1.0
11.6166,128.182264,37.95332,6637.3403448,58.051,-13.118,359.496,1.0
11.6333,128.182266,37.95336,6636.2445888,58.221,-13.136,359.498,1.0
11.65,128.182268,37.953401,6635.147004,58.392,-13.154,359.499,1.0
11.6666,128.182269,37.953441,6634.047285600001,58.562,-13.171,359.5,1.0
11.6833,128.182271,37.953482,6632.9460432,58.733,-13.189,359.502,1.0
11.7,128.182273,37.953522,6631.8426672000005,58.904,-13.206,359.503,1.0
11.7166,128.182274,37.953563,6630.7374624,59.076,-13.224,359.505,1.0
11.7333,128.182276,37.953603,6629.630428800001,59.248,-13.241,359.506,1.0
11.75,128.182277,37.953644,6628.5212616,59.42,-13.259,359.508,1.0
11.7666,128.182279,37.953684,6627.410570400001,59.592,-13.276,359.509,1.0
11.7833,128.182281,37.953725,6626.297745600001,59.765,-13.294,359.511,1.0
11.8,128.182283,37.953765,6625.183092,59.938,-13.311,359.512,1.0
11.8166,128.182284,37.953806,6624.0666096,60.112,-13.329,359.514,1.0
11.8333,128.182286,37.953846,6622.9482984,60.285,-13.346,359.515,1.0
11.85,128.182288,37.953887,6621.8278536,60.46,-13.364,359.517,1.0
11.8666,128.182289,37.953927,6620.7058848,60.634,-13.381,359.518,1.0
11.8833,128.182291,37.953967,6619.5817824000005,60.809,-13.399,359.52,1.0
11.9,128.182293,37.954008,6618.4555464000005,60.984,-13.416,359.521,1.0
11.9166,128.182294,37.954048,6617.3277864,61.159,-13.434,359.523,1.0
11.9333,128.182296,37.954089,6616.197892800001,61.335,-13.452,359.525,1.0
11.95,128.182298,37.954129,6615.0664752,61.511,-13.469,359.526,1.0
11.9666,128.1823,37.95417,6613.932619200001,61.687,-13.487,359.528,1.0
11.9833,128.182301,37.95421,6612.7972392,61.864,-13.504,359.529,1.0
12.0,128.182303,37.95425,6611.6597256,62.041,-13.522,359.531,1.0
12.0166,128.182305,37.954291,6610.520383200001,62.218,-13.539,359.533,1.0
12.0333,128.182306,37.954331,6609.379212,62.395,-13.557,359.534,1.0
12.05,128.182308,37.954372,6608.236212,62.573,-13.574,359.536,1.0
12.0666,128.18231,37.954412,6607.091078400001,62.751,-13.592,359.537,1.0
12.0833,128.182312,37.954452,6605.944116,62.93,-13.609,359.539,1.0
12.1,128.182313,37.954493,6604.795324800001,63.108,-13.627,359.541,1.0
12.1166,128.182315,37.954533,6603.6444,63.287,-13.645,359.542,1.0
12.1333,128.182317,37.954574,6602.491646400001,63.467,-13.662,359.544,1.0
12.15,128.182319,37.954614,6601.337064,63.646,-13.68,359.546,1.0
12.1666,128.18232,37.954654,6600.180348,63.826,-13.697,359.547,1.0
12.1833,128.182322,37.954695,6599.022108,64.006,-13.715,359.549,1.0
12.2,128.182324,37.954735,6597.8617343999995,64.187,-13.732,359.551,1.0
12.2166,128.182326,37.954775,6596.699227200001,64.368,-13.75,359.553,1.0
12.2333,128.182327,37.954816,6595.534891200001,64.549,-13.767,359.554,1.0
12.25,128.182329,37.954856,6594.3687264,64.73,-13.785,359.556,1.0
12.2666,128.182331,37.954896,6593.200732800001,64.912,-13.803,359.558,1.0
12.2833,128.182333,37.954936,6592.030605600001,65.094,-13.82,359.559,1.0
12.3,128.182334,37.954977,6590.8586496,65.276,-13.838,359.561,1.0
12.3166,128.182336,37.955017,6589.684560000001,65.459,-13.855,359.563,1.0
12.3333,128.182338,37.955057,6588.5089464,65.641,-13.873,359.565,1.0
12.35,128.18234,37.955098,6587.3308944,65.825,-13.89,359.567,1.0
12.3666,128.182342,37.955138,6586.1513184000005,66.008,-13.908,359.568,1.0
12.3833,128.182343,37.955178,6584.9696088,66.192,-13.926,359.57,1.0
12.4,128.182345,37.955218,6583.7860704,66.376,-13.943,359.572,1.0
12.4166,128.182347,37.955259,6582.6003984,66.56,-13.961,359.574,1.0
12.4333,128.182349,37.955299,6581.412897600001,66.745,-13.978,359.575,1.0
12.45,128.182351,37.955339,6580.223568,66.929,-13.996,359.577,1.0
12.4666,128.182352,37.955379,6579.0321048000005,67.115,-14.014,359.579,1.0
12.4833,128.182354,37.95542,6577.8388128,67.3,-14.031,359.581,1.0
12.5,128.182356,37.95546,6576.643387200001,67.486,-14.049,359.583,1.0
12.5166,128.182358,37.9555,6575.446132800001,67.672,-14.066,359.585,1.0
12.5333,128.18236,37.95554,6574.2470496000005,67.858,-14.084,359.586,1.0
12.55,128.182362,37.95558,6573.0458328,68.045,-14.102,359.588,1.0
12.5666,128.182363,37.955621,6571.8427872,68.231,-14.119,359.59,1.0
12.5833,128.182365,37.955661,6570.637608,68.418,-14.137,359.592,1.0
12.6,128.182367,37.955701,6569.430600000001,68.606,-14.154,359.594,1.0
12.6166,128.182369,37.955741,6568.2217632,68.793,-14.172,359.596,1.0
12.6333,128.182371,37.955781,6567.010792800001,68.981,-14.19,359.598,1.0
12.65,128.182373,37.955821,6565.797688799999,69.17,-14.207,359.6,1.0
12.6666,128.182374,37.955862,6564.583060800001,69.358,-14.225,359.601,1.0
12.6833,128.182376,37.955902,6563.3659944,69.547,-14.243,359.603,1.0
12.7,128.182378,37.955942,6562.147404,69.736,-14.26,359.605,1.0
12.7166,128.18238,37.955982,6560.92668,69.925,-14.278,359.607,1.0
12.7333,128.182382,37.956022,6559.7038224,70.115,-14.296,359.609,1.0
12.75,128.182384,37.956062,6558.479136,70.305,-14.313,359.611,1.0
12.7666,128.182386,37.956102,6557.2526208,70.495,-14.331,359.613,1.0
12.7833,128.182387,37.956142,6556.023972,70.685,-14.348,359.615,1.0
12.8,128.182389,37.956182,6554.7931896,70.876,-14.366,359.617,1.0
12.8166,128.182391,37.956223,6553.560578400001,71.067,-14.384,359.619,1.0
12.8333,128.182393,37.956263,6552.326138400001,71.258,-14.401,359.621,1.0
12.85,128.182395,37.956303,6551.0895648000005,71.449,-14.419,359.623,1.0
12.8666,128.182397,37.956343,6549.8511624,71.641,-14.437,359.625,1.0
12.8833,128.182399,37.956383,6548.6106264,71.833,-14.455,359.626,1.0
12.9,128.182401,37.956423,6547.3682616,72.025,-14.472,359.628,1.0
12.9166,128.182402,37.956463,6546.1237632,72.218,-14.49,359.63,1.0
12.9333,128.182404,37.956503,6544.877436000001,72.41,-14.508,359.632,1.0
12.95,128.182406,37.956543,6543.6289752,72.603,-14.525,359.634,1.0
12.9666,128.182408,37.956583,6542.3786856,72.797,-14.543,359.636,1.0
12.9833,128.18241,37.956623,6541.1262624,72.99,-14.561,359.638,1.0
13.0,128.182412,37.956663,6539.8717056000005,73.184,-14.578,359.64,1.0
13.0166,128.182414,37.956703,6538.615624800001,73.378,-14.596,359.642,1.0
13.0333,128.182416,37.956743,6537.357105600001,73.572,-14.614,359.644,1.0
13.0499,128.182418,37.956783,6536.0967576,73.767,-14.632,359.646,1.0
13.0666,128.182419,37.956823,6534.8345808,73.961,-14.649,359.648,1.0
13.0833,128.182421,37.956863,6533.5702704000005,74.156,-14.667,359.65,1.0
13.1,128.182423,37.956903,6532.3041312000005,74.352,-14.685,359.652,1.0
13.1166,128.182425,37.956943,6531.0358584000005,74.547,-14.703,359.654,1.0
13.1333,128.182427,37.956983,6529.765452000001,74.743,-14.72,359.656,1.0
13.15,128.182429,37.957023,6528.4932168,74.939,-14.738,359.658,1.0
13.1666,128.182431,37.957063,6527.2191528,75.135,-14.756,359.66,1.0
13.1833,128.182433,37.957103,6525.9426504,75.332,-14.774,359.662,1.0
13.2,128.182435,37.957143,6524.664624000001,75.528,-14.791,359.664,1.0
13.2166,128.182437,37.957183,6523.384464000001,75.725,-14.809,359.666,1.0
13.2333,128.182439,37.957223,6522.1021704,75.922,-14.827,359.668,1.0
13.25,128.18244,37.957263,6520.8177432,76.12,-14.845,359.67,1.0
13.2666,128.182442,37.957303,6519.531792000001,76.317,-14.863,359.672,1.0
13.2833,128.182444,37.957342,6518.2434023999995,76.515,-14.88,359.674,1.0
13.3,128.182446,37.957382,6516.953184000001,76.713,-14.898,359.676,1.0
13.3166,128.182448,37.957422,6515.6611368,76.912,-14.916,359.678,1.0
13.3333,128.18245,37.957462,6514.366651200001,77.11,-14.934,359.68,1.0
13.35,128.182452,37.957502,6513.0706416,77.309,-14.952,359.682,1.0
13.3666,128.182454,37.957542,6511.7721936,77.508,-14.969,359.684,1.0
13.3833,128.182456,37.957582,6510.4722216,77.707,-14.987,359.686,1.0
13.4,128.182458,37.957622,6509.169811200001,77.907,-15.005,359.688,1.0
13.4166,128.18246,37.957661,6507.865572,78.106,-15.023,359.69,1.0
13.4333,128.182462,37.957701,6506.559504,78.306,-15.041,359.692,1.0
13.45,128.182464,37.957741,6505.2513024,78.506,-15.059,359.694,1.0
13.4666,128.182466,37.957781,6503.9409672,78.706,-15.076,359.697,1.0
13.4833,128.182468,37.957821,6502.6284984,78.907,-15.094,359.699,1.0
13.5,128.18247,37.957861,6501.3145056,79.108,-15.112,359.701,1.0
13.5166,128.182471,37.9579,6499.9980744,79.309,-15.13,359.703,1.0
13.5333,128.182473,37.95794,6498.6798144,79.51,-15.148,359.705,1.0
13.55,128.182475,37.95798,6497.3594207999995,79.711,-15.166,359.707,1.0
13.5666,128.182477,37.95802,6496.0371984,79.912,-15.184,359.709,1.0
13.5833,128.182479,37.95806,6494.712842400001,80.114,-15.201,359.711,1.0
13.6,128.182481,37.958099,6493.3866576,80.316,-15.219,359.713,1.0
13.6166,128.182483,37.958139,6492.0583392,80.518,-15.237,359.715,1.0
13.6333,128.182485,37.958179,6490.727887200001,80.72,-15.255,359.717,1.0
13.65,128.182487,37.958219,6489.3956064,80.923,-15.273,359.719,1.0
13.6666,128.182489,37.958258,6488.061192000001,81.125,-15.291,359.721,1.0
13.6833,128.182491,37.958298,6486.7249488,81.328,-15.309,359.723,1.0
13.7,128.182493,37.958338,6485.386572,81.531,-15.327,359.725,1.0
13.7166,128.182495,37.958378,6484.0460616,81.734,-15.345,359.727,1.0
13.7333,128.182497,37.958417,6482.7037224000005,81.937,-15.363,359.729,1.0
13.75,128.182499,37.958457,6481.3592496,82.141,-15.38,359.731,1.0
13.7666,128.182501,37.958497,6480.012948,82.344,-15.398,359.733,1.0
13.7833,128.182503,37.958536,6478.6645128,82.548,-15.416,359.735,1.0
13.8,128.182505,37.958576,6477.3139439999995,82.752,-15.434,359.738,1.0
13.8166,128.182507,37.958616,6475.961546400001,82.956,-15.452,359.74,1.0
13.8333,128.182509,37.958655,6474.607015200001,83.16,-15.47,359.742,1.0
13.85,128.182511,37.958695,6473.250350400001,83.365,-15.488,359.744,1.0
13.8666,128.182513,37.958735,6471.891856800001,83.569,-15.506,359.746,1.0
13.8833,128.182515,37.958774,6470.5315344,83.774,-15.524,359.748,1.0
13.9,128.182516,37.958814,6469.1687736,83.979,-15.542,359.75,1.0
13.9166,128.182518,37.958854,6467.8044887999995,84.184,-15.56,359.752,1.0
13.9333,128.18252,37.958893,6466.437765600001,84.389,-15.578,359.754,1.0
13.95,128.182522,37.958933,6465.069213600001,84.594,-15.596,359.756,1.0
13.9666,128.182524,37.958973,6463.698528000001,84.799,-15.614,359.758,1.0
13.9833,128.182526,37.959012,6462.3260136,85.005,-15.632,359.76,1.0
14.0,128.182528,37.959052,6460.951365600001,85.211,-15.65,359.762,1.0
14.0166,128.18253,37.959091,6459.5748888,85.416,-15.668,359.764,1.0
14.0333,128.182532,37.959131,6458.196278400001,85.622,-15.686,359.766,1.0
14.05,128.182534,37.959171,6456.8155344,85.828,-15.704,359.768,1.0
14.0666,128.182536,37.95921,6455.4329615999995,86.035,-15.722,359.77,1.0
14.0833,128.182538,37.95925,6454.0482552,86.241,-15.74,359.773,1.0
14.1,128.18254,37.959289,6452.661415200001,86.447,-15.758,359.775,1.0
14.1166,128.182542,37.959329,6451.272746400001,86.654,-15.776,359.777,1.0
14.1333,128.182544,37.959368,6449.881944,86.861,-15.794,359.779,1.0
14.15,128.182546,37.959408,6448.4893128,87.067,-15.812,359.781,1.0
14.1666,128.182548,37.959447,6447.094548,87.274,-15.83,359.783,1.0
14.1833,128.18255,37.959487,6445.6979544000005,87.481,-15.848,359.785,1.0
14.2,128.182552,37.959527,6444.2989224,87.688,-15.866,359.787,1.0
14.2166,128.182554,37.959566,6442.8983664,87.896,-15.884,359.789,1.0
14.2333,128.182556,37.959606,6441.4956768,88.103,-15.902,359.791,1.0
14.25,128.182558,37.959645,6440.0908536,88.31,-15.92,359.793,1.0
14.2666,128.18256,37.959685,6438.683896800001,88.518,-15.938,359.795,1.0
14.2833,128.182562,37.959724,6437.2751112000005,88.725,-15.956,359.797,1.0
14.3,128.182564,37.959764,6435.864496800001,88.933,-15.974,359.799,1.0
14.3166,128.182566,37.959803,6434.451444,89.141,-15.992,359.801,1.0
14.3333,128.182568,37.959842,6433.0368672,89.349,-16.01,359.803,1.0
14.35,128.18257,37.959882,6431.619852000001,89.557,-16.028,359.805,1.0
14.3666,128.182572,37.959921,6430.201008,89.765,-16.046,359.807,1.0
14.3833,128.182574,37.959961,6428.7803352,89.973,-16.065,359.809,1.0
14.4,128.182576,37.96,6427.357528800001,90.181,-16.083,359.811,1.0
14.4166,128.182577,37.96004,6425.932588799999,90.389,-16.101,359.813,1.0
14.4333,128.182579,37.960079,6424.505820000001,90.598,-16.119,359.815,1.0
14.45,128.182581,37.960119,6423.0769176,90.806,-16.137,359.817,1.0
14.4666,128.182583,37.960158,6421.6458816,91.015,-16.155,359.819,1.0
14.4833,128.182585,37.960197,6420.2133216,91.223,-16.173,359.82,1.0
14.5,128.182587,37.960237,6418.7783232,91.432,-16.191,359.822,1.0
14.5166,128.182589,37.960276,6417.341496,91.64,-16.209,359.824,1.0
14.5333,128.182591,37.960316,6415.9025352,91.849,-16.227,359.826,1.0
14.55,128.182593,37.960355,6414.4617456000005,92.058,-16.246,359.828,1.0
14.5666,128.182595,37.960394,6413.0191272,92.267,-16.264,359.83,1.0
14.5833,128.182597,37.960434,6411.574070400001,92.476,-16.282,359.832,1.0
14.6,128.182599,37.960473,6410.1274896,92.685,-16.3,359.834,1.0
14.6166,128.182601,37.960512,6408.678470400001,92.894,-16.318,359.836,1.0
