Time,Longitude,Latitude,Altitude,Roll (deg),Pitch (deg),Yaw (deg),Health
0.0,128.181881,37.968463,7002.830292000001,0.0,-0.003,179.999,1.0
0.0166,128.181881,37.968418,7002.8116992000005,0.0,-0.012,180.0,1.0
0.0333,128.181881,37.968374,7002.792496800001,0.0,-0.025,180.0,1.0
0.05,128.181881,37.968329,7002.7720752,0.0,-0.041,179.999,1.0
0.0666,128.181881,37.968284,7002.751044,0.0,-0.059,179.999,1.0
0.0833,128.181881,37.968239,7002.7287936,0.0,-0.078,179.999,1.0
0.1,128.181881,37.968194,7002.705933600001,0.0,-0.098,179.999,1.0
0.1166,128.181881,37.968149,7002.682159200001,0.0,-0.118,179.999,1.0
0.1333,128.181881,37.968104,7002.657470400001,0.0,-0.138,179.999,1.0
0.15,128.181881,37.968059,7002.6315624,0.0,-0.158,179.999,1.0
0.1666,128.181881,37.968014,7002.6050448000005,0.0,-0.178,179.999,1.0
0.1833,128.181881,37.967969,7002.577308,0.0,-0.197,179.999,1.0
0.2,128.181881,37.967924,7002.548656800001,0.0,-0.216,180.0,1.0
0.2166,128.181881,37.967879,7002.519091200001,0.0,-0.236,180.0,1.0
0.2333,128.181881,37.967834,7002.488611200001,0.0,-0.254,180.0,1.0
0.25,128.181881,37.967789,7002.456912,-0.001,-0.273,180.0,1.0
0.2666,128.181881,37.967744,7002.4246032,-0.001,-0.291,180.0,1.0
0.2833,128.181881,37.967699,7002.390770400001,-0.001,-0.309,180.0,1.0
0.3,128.181881,37.967654,7002.356328000001,-0.001,-0.327,180.0,1.0
0.3166,128.181881,37.967609,7002.3206664,-0.001,-0.345,180.0,1.0
0.3333,128.181881,37.967564,7002.2840904,-0.001,-0.362,180.0,1.0
0.35,128.181881,37.967518,7002.2462952000005,-0.001,-0.38,180.0,1.0
0.3666,128.181881,37.967473,7002.2075856,-0.001,-0.397,180.0,1.0
0.3833,128.181881,37.967428,7002.167656800001,-0.001,-0.414,180.0,1.0
0.4,128.181881,37.967383,7002.126813600001,-0.001,-0.43,180.0,1.0
0.4166,128.181881,37.967338,7002.085056000001,-0.001,-0.447,180.0,1.0
0.4333,128.181881,37.967293,7002.0420792,-0.001,-0.463,180.0,1.0
0.45,128.181881,37.967248,7001.997883200001,-0.001,-0.479,180.0,1.0
0.4666,128.181881,37.967203,7001.9527728,-0.001,-0.495,180.0,1.0
0.4833,128.181881,37.967158,7001.9064432,-0.002,-0.511,180.0,1.0
0.5,128.181881,37.967113,7001.8591992,-0.002,-0.527,180.0,1.0
0.5166,128.181881,37.967068,7001.810736,-0.002,-0.543,180.0,1.0
0.5333,128.181881,37.967022,7001.7613584,-0.002,-0.558,180.0,1.0
0.55,128.181881,37.966977,7001.7107616,-0.002,-0.573,180.0,1.0
0.5666,128.181881,37.966932,7001.6589456,-0.002,-0.589,180.0,1.0
0.5833,128.181881,37.966887,7001.6062152,-0.002,-0.604,180.0,1.0
0.6,128.181881,37.966842,7001.552265600001,-0.002,-0.619,180.0,1.0
0.6166,128.181881,37.966797,7001.497401600001,-0.002,-0.634,180.0,1.0
0.6333,128.181881,37.966751,7001.441013600001,-0.002,-0.649,180.0,1.0
0.65,128.181881,37.966706,7001.383711200001,-0.002,-0.664,180.0,1.0
0.6666,128.181881,37.966661,7001.3254944,-0.001,-0.678,180.0,1.0
0.6833,128.181881,37.966616,7001.2660584000005,-0.001,-0.693,180.0,1.0
0.7,128.181881,37.966571,7001.2054032,-0.001,-0.708,180.0,1.0
0.7166,128.181881,37.966526,7001.143528800001,-0.001,-0.722,180.0,1.0
0.7333,128.181881,37.96648,7001.08074,-0.001,-0.737,180.0,1.0
0.75,128.181881,37.966435,7001.016732,-0.001,-0.751,180.0,1.0
0.7666,128.181881,37.96639,7000.9515048,-0.001,-0.765,180.0,1.0
0.7833,128.181881,37.966345,7000.8853632,-0.001,-0.78,180.0,1.0
0.8,128.181881,37.966299,7000.818002399999,-0.001,-0.794,180.0,1.0
0.8166,128.181881,37.966254,7000.7494224,-0.001,-0.808,180.0,1.0
0.8333,128.181881,37.966209,7000.679623200001,-0.001,-0.822,180.0,1.0
0.85,128.181881,37.966164,7000.6089096000005,-0.001,-0.836,180.0,1.0
0.8666,128.181881,37.966118,7000.5369768,-0.001,-0.85,180.0,1.0
0.8833,128.181881,37.966073,7000.463824800001,-0.001,-0.864,180.0,1.0
0.9,128.181881,37.966028,7000.3894536,-0.001,-0.878,180.0,1.0
0.9166,128.181881,37.965983,7000.314168,0.0,-0.892,180.001,1.0
0.9333,128.181881,37.965937,7000.2376632000005,0.0,-0.906,180.001,1.0
0.95,128.181881,37.965892,7000.1599392,0.0,-0.919,180.001,1.0
0.9666,128.181881,37.965847,7000.0813008000005,0.0,-0.933,180.001,1.0
0.9833,128.181881,37.965801,7000.001138400001,0.0,-0.947,180.001,1.0
1.0,128.181881,37.965756,6999.9200616,0.0,-0.961,180.001,1.0
1.0166,128.181881,37.965711,6999.838070400001,0.0,-0.974,180.001,1.0
1.0333,128.181881,37.965665,6999.7545552,0.0,-0.988,180.001,1.0
1.05,128.181881,37.96562,6999.6701256,0.0,-1.001,180.001,1.0
1.0666,128.181881,37.965575,6999.584172,0.0,-1.015,180.001,1.0
1.0833,128.181881,37.965529,6999.497304,0.0,-1.029,180.001,1.0
1.1,128.181881,37.965484,6999.4095216000005,0.0,-1.042,180.001,1.0
1.1166,128.181881,37.965439,6999.3202152,0.0,-1.056,180.001,1.0
1.1333,128.181881,37.965393,6999.2299944,0.0,-1.069,180.001,1.0
1.15,128.181881,37.965348,6999.1385544,0.0,-1.082,180.001,1.0
1.1666,128.181881,37.965302,6999.0458952,0.0,-1.096,180.001,1.0
1.1833,128.181881,37.965257,6998.9523216,0.001,-1.109,180.001,1.0
1.2,128.181881,37.965212,6998.857224,0.001,-1.123,180.001,1.0
1.2166,128.181881,37.965166,6998.761212,0.001,-1.136,180.001,1.0
1.2333,128.181881,37.965121,6998.6639808,0.001,-1.149,180.001,1.0
1.25,128.181881,37.965075,6998.5658352,0.001,-1.163,180.001,1.0
1.2666,128.181881,37.96503,6998.466165600001,0.001,-1.176,180.001,1.0
1.2833,128.181881,37.964984,6998.3655816,0.002,-1.189,180.001,1.0
1.3,128.181881,37.964939,6998.263778400001,0.002,-1.203,180.001,1.0
1.3166,128.181881,37.964894,6998.160756000001,0.002,-1.216,180.001,1.0
1.3333,128.181881,37.964848,6998.0565144,0.002,-1.229,180.002,1.0
1.35,128.181881,37.964803,6997.951358400001,0.002,-1.242,180.002,1.0
1.3666,128.18188,37.964757,6997.844983200001,0.002,-1.256,180.002,1.0
1.3833,128.18188,37.964712,6997.7373888,0.003,-1.269,180.002,1.0
1.4,128.18188,37.964666,6997.628575199999,0.003,-1.282,180.002,1.0
1.4166,128.18188,37.964621,6997.518847200001,0.003,-1.295,180.002,1.0
1.4333,128.18188,37.964575,6997.4075952,0.003,-1.308,180.002,1.0
1.45,128.18188,37.96453,6997.295428800001,0.003,-1.321,180.002,1.0
1.4666,128.18188,37.964484,6997.1820431999995,0.004,-1.334,180.002,1.0
1.4833,128.18188,37.964439,6997.0677432,0.004,-1.348,180.002,1.0
1.5,128.18188,37.964393,6996.951919200001,0.004,-1.361,180.002,1.0
1.5166,128.18188,37.964347,6996.8351808,0.004,-1.374,180.002,1.0
1.5333,128.18188,37.964302,6996.7172232,0.004,-1.387,180.002,1.0
1.55,128.18188,37.964256,6996.5980464,0.005,-1.4,180.002,1.0
1.5666,128.18188,37.964211,6996.4776504,0.005,-1.413,180.002,1.0
1.5833,128.18188,37.964165,6996.35634,0.005,-1.426,180.002,1.0
1.6,128.18188,37.96412,6996.233810400001,0.005,-1.439,180.002,1.0
1.6166,128.18188,37.964074,6996.110061599999,0.005,-1.452,180.002,1.0
1.6333,128.18188,37.964028,6995.9850936,0.006,-1.465,180.002,1.0
1.65,128.18188,37.963983,6995.858906400001,0.006,-1.478,180.002,1.0
1.6666,128.18188,37.963937,6995.731804800001,0.006,-1.491,180.002,1.0
1.6833,128.18188,37.963892,6995.603484000001,0.006,-1.504,180.003,1.0
1.7,128.18188,37.963846,6995.473944,0.007,-1.517,180.003,1.0
1.7166,128.18188,37.9638,6995.3431848,0.007,-1.53,180.003,1.0
1.7333,128.18188,37.963755,6995.211511200001,0.007,-1.543,180.003,1.0
1.75,128.18188,37.963709,6995.078618400001,0.007,-1.556,180.003,1.0
1.7666,128.18188,37.963663,6994.944506400001,0.008,-1.569,180.003,1.0
1.7833,128.18188,37.963618,6994.8091752,0.008,-1.582,180.003,1.0
1.8,128.18188,37.963572,6994.6726248,0.008,-1.595,180.003,1.0
1.8166,128.18188,37.963526,6994.53516,0.008,-1.608,180.003,1.0
1.8333,128.18188,37.963481,6994.3961712,0.009,-1.621,180.003,1.0
1.85,128.18188,37.963435,6994.2565728,0.009,-1.634,180.003,1.0
1.8666,128.18188,37.963389,6994.115450400001,0.009,-1.646,180.003,1.0
1.8833,128.18188,37.963344,6993.9731088,0.009,-1.659,180.003,1.0
1.9,128.18188,37.963298,6993.8298528,0.01,-1.672,180.003,1.0
1.9166,128.18188,37.963252,6993.685377600001,0.01,-1.685,180.003,1.0
1.9333,128.18188,37.963206,6993.539683200001,0.01,-1.698,180.003,1.0
1.95,128.18188,37.963161,6993.392769600001,0.01,-1.711,180.003,1.0
1.9666,128.18188,37.963115,6993.244941600001,0.011,-1.724,180.003,1.0
1.9833,128.18188,37.963069,6993.0958944,0.011,-1.736,180.003,1.0
2.0,128.18188,37.963023,6992.945628,0.011,-1.749,180.004,1.0
2.0166,128.18188,37.962978,6992.794142400001,0.011,-1.762,180.004,1.0
2.0333,128.18188,37.962932,6992.6414376,0.012,-1.775,180.004,1.0
2.05,128.18188,37.962886,6992.487818400001,0.012,-1.788,180.004,1.0
2.0666,128.18188,37.96284,6992.33298,0.012,-1.8,180.004,1.0
2.0833,128.18188,37.962794,6992.1769224,0.012,-1.813,180.004,1.0
2.1,128.18188,37.962749,6992.0199504,0.013,-1.826,180.004,1.0
2.1166,128.18188,37.962703,6991.8614544,0.013,-1.839,180.004,1.0
2.1333,128.18188,37.962657,6991.702044,0.013,-1.852,180.004,1.0
2.15,128.18188,37.962611,6991.541414400001,0.013,-1.864,180.004,1.0
2.1666,128.18188,37.962565,6991.379565600001,0.014,-1.877,180.004,1.0
2.1833,128.18188,37.962519,6991.2168024,0.014,-1.89,180.004,1.0
2.2,128.18188,37.962474,6991.052515200001,0.014,-1.902,180.004,1.0
2.2166,128.18188,37.962428,6990.8873136,0.015,-1.915,180.004,1.0
2.2333,128.18188,37.962382,6990.721197600001,0.015,-1.928,180.004,1.0
2.25,128.18188,37.962336,6990.5535576,0.015,-1.941,180.004,1.0
2.2666,128.18188,37.96229,6990.3850032,0.015,-1.953,180.004,1.0
2.2833,128.18188,37.962244,6990.2152295999995,0.016,-1.966,180.004,1.0
2.3,128.18188,37.962198,6990.0442368,0.016,-1.979,180.004,1.0
2.3166,128.18188,37.962152,6989.872024800001,0.016,-1.991,180.005,1.0
2.3333,128.18188,37.962106,6989.6988984,0.017,-2.004,180.005,1.0
2.35,128.18188,37.96206,6989.524248,0.017,-2.017,180.005,1.0
2.3666,128.18188,37.962015,6989.348988000001,0.017,-2.029,180.005,1.0
2.3833,128.18188,37.961969,6989.172204,0.017,-2.042,180.005,1.0
2.4,128.18188,37.961923,6988.994200800001,0.018,-2.054,180.005,1.0
2.4166,128.18188,37.961877,6988.8152832000005,0.018,-2.067,180.005,1.0
2.4333,128.18188,37.961831,6988.635146400001,0.018,-2.08,180.005,1.0
2.45,128.18188,37.961785,6988.4537904,0.019,-2.092,180.005,1.0
2.4666,128.18188,37.961739,6988.271520000001,0.019,-2.105,180.005,1.0
2.4833,128.18188,37.961693,6988.0880304,0.019,-2.117,180.005,1.0
2.5,128.18188,37.961647,6987.9033216,0.02,-2.13,180.005,1.0
2.5166,128.18188,37.961601,6987.7173936,0.02,-2.143,180.005,1.0
2.5333,128.18188,37.961555,6987.530246400001,0.02,-2.155,180.005,1.0
2.55,128.18188,37.961509,6987.3421848,0.021,-2.168,180.005,1.0
2.5666,128.18188,37.961463,6987.1529040000005,0.021,-2.18,180.005,1.0
2.5833,128.18188,37.961417,6986.962404,0.021,-2.193,180.005,1.0
2.6,128.18188,37.961371,6986.7706848,0.021,-2.205,180.006,1.0
2.6166,128.18188,37.961324,6986.578051200001,0.022,-2.218,180.006,1.0
2.6333,128.18188,37.961278,6986.3841984,0.022,-2.23,180.006,1.0
2.65,128.18188,37.961232,6986.1891264000005,0.022,-2.243,180.006,1.0
2.6666,128.18188,37.961186,6985.9931400000005,0.023,-2.255,180.006,1.0
2.6833,128.18188,37.96114,6985.7956296,0.023,-2.268,180.006,1.0
2.7,128.18188,37.961094,6985.5972048,0.023,-2.28,180.006,1.0
2.7166,128.18188,37.961048,6985.397560800001,0.024,-2.293,180.006,1.0
2.7333,128.18188,37.961002,6985.1970024,0.024,-2.305,180.006,1.0
2.75,128.18188,37.960956,6984.995224800001,0.024,-2.318,180.006,1.0
2.7666,128.18188,37.96091,6984.792228,0.025,-2.33,180.006,1.0
2.7833,128.18188,37.960863,6984.588012,0.025,-2.343,180.006,1.0
2.8,128.18188,37.960817,6984.382576800001,0.025,-2.355,180.006,1.0
2.8166,128.18188,37.960771,6984.1762272000005,0.026,-2.367,180.006,1.0
2.8333,128.18188,37.960725,6983.9686584,0.026,-2.38,180.006,1.0
2.85,128.18188,37.960679,6983.759870400001,0.026,-2.392,180.006,1.0
2.8666,128.18188,37.960632,6983.5498632,0.027,-2.405,180.006,1.0
2.8833,128.18188,37.960586,6983.338941600001,0.027,-2.417,180.006,1.0
2.9,128.18188,37.96054,6983.126800800001,0.027,-2.429,180.007,1.0
2.9166,128.18188,37.960494,6982.9134408,0.028,-2.442,180.007,1.0
2.9333,128.18188,37.960448,6982.6991664,0.028,-2.454,180.007,1.0
2.95,128.18188,37.960401,6982.4836728,0.028,-2.466,180.007,1.0
2.9666,128.18188,37.960355,6982.266960000001,0.029,-2.479,180.007,1.0
2.9833,128.18188,37.960309,6982.049028,0.029,-2.491,180.007,1.0
3.0,128.18188,37.960263,6981.8301816,0.029,-2.503,180.007,1.0
3.0166,128.181879,37.960216,6981.610116,0.03,-2.516,180.007,1.0
3.0333,128.181879,37.96017,6981.3888312,0.03,-2.528,180.007,1.0
3.05,128.181879,37.960124,6981.1663272000005,0.03,-2.54,180.007,1.0
3.0666,128.181879,37.960078,6980.942908800001,0.031,-2.553,180.007,1.0
3.0833,128.181879,37.960031,6980.7182712,0.031,-2.565,180.007,1.0
3.1,128.181879,37.959985,6980.492414400001,0.031,-2.577,180.007,1.0
3.1166,128.181879,37.959939,6980.2653384000005,0.032,-2.589,180.007,1.0
3.1333,128.181879,37.959892,6980.037348,0.032,-2.602,180.007,1.0
3.15,128.181879,37.959846,6979.808138400001,0.032,-2.614,180.007,1.0
3.1666,128.181879,37.9598,6979.5777096,0.033,-2.626,180.008,1.0
3.1833,128.181879,37.959753,6979.3463664,0.033,-2.638,180.008,1.0
3.2,128.181879,37.959707,6979.1138040000005,0.033,-2.651,180.008,1.0
3.2166,128.181879,37.95966,6978.880022400001,0.034,-2.663,180.008,1.0
3.2333,128.181879,37.959614,6978.6450216,0.034,-2.675,180.008,1.0
3.25,128.181879,37.959568,6978.4091064,0.034,-2.687,180.008,1.0
3.2666,128.181879,37.959521,6978.171972,0.035,-2.699,180.008,1.0
3.2833,128.181879,37.959475,6977.9336184,0.035,-2.711,180.008,1.0
3.3,128.181879,37.959428,6977.6940456,0.036,-2.724,180.008,1.0
3.3166,128.181879,37.959382,6977.4535584000005,0.036,-2.736,180.008,1.0
3.3333,128.181879,37.959336,6977.211852000001,0.036,-2.748,180.008,1.0
3.35,128.181879,37.959289,6976.969231200001,0.037,-2.76,180.008,1.0
3.3666,128.181879,37.959243,6976.725086400001,0.037,-2.772,180.008,1.0
3.3833,128.181879,37.959196,6976.4800272,0.037,-2.784,180.008,1.0
3.4,128.181879,37.95915,6976.2337488,0.038,-2.796,180.008,1.0
3.4166,128.181879,37.959103,6975.986556000001,0.038,-2.808,180.008,1.0
3.4333,128.181879,37.959057,6975.738144,0.038,-2.821,180.008,1.0
3.45,128.181879,37.95901,6975.4885128000005,0.039,-2.833,180.009,1.0
3.4666,128.181879,37.958964,6975.2376624,0.039,-2.845,180.009,1.0
3.4833,128.181879,37.958917,6974.9858976000005,0.039,-2.857,180.009,1.0
3.5,128.181879,37.958871,6974.732913600001,0.04,-2.869,180.009,1.0
3.5166,128.181879,37.958824,6974.478710400001,0.04,-2.881,180.009,1.0
3.5333,128.181879,37.958778,6974.223288000001,0.041,-2.893,180.009,1.0
3.55,128.181879,37.958731,6973.966951200001,0.041,-2.905,180.009,1.0
3.5666,128.181879,37.958685,6973.7093952000005,0.041,-2.917,180.009,1.0
3.5833,128.181879,37.958638,6973.450924800001,0.042,-2.929,180.009,1.0
3.6,128.181879,37.958591,6973.1909304,0.042,-2.941,180.009,1.0
3.6166,128.181879,37.958545,6972.9303264,0.042,-2.953,180.009,1.0
3.6333,128.181879,37.958498,6972.6681984,0.043,-2.965,180.009,1.0
3.65,128.181879,37.958452,6972.404851200001,0.043,-2.977,180.009,1.0
3.6666,128.181879,37.958405,6972.1405896,0.044,-2.989,180.009,1.0
3.6833,128.181879,37.958358,6971.875413600001,0.044,-3.001,180.009,1.0
3.7,128.181879,37.958312,6971.608713600001,0.044,-3.013,180.009,1.0
3.7166,128.181879,37.958265,6971.3410992,0.045,-3.025,180.01,1.0
3.7333,128.181879,37.958218,6971.072265600001,0.045,-3.036,180.01,1.0
3.75,128.181879,37.958172,6970.8025176,0.045,-3.048,180.01,1.0
3.7666,128.181879,37.958125,6970.5312456,0.046,-3.06,180.01,1.0
3.7833,128.181879,37.958078,6970.2593640000005,0.046,-3.072,180.01,1.0
3.8,128.181879,37.958032,6969.9859584000005,0.047,-3.084,180.01,1.0
3.8166,128.181879,37.957985,6969.711638400001,0.047,-3.096,180.01,1.0
3.8333,128.181879,37.957938,6969.4360992,0.047,-3.108,180.01,1.0
3.85,128.181879,37.957892,6969.1593408,0.048,-3.12,180.01,1.0
3.8666,128.181879,37.957845,6968.881668,0.048,-3.131,180.01,1.0
3.8833,128.181879,37.957798,6968.602776,0.049,-3.143,180.01,1.0
3.9,128.181879,37.957751,6968.322664800001,0.049,-3.155,180.01,1.0
3.9166,128.181879,37.957705,6968.0416392,0.049,-3.167,180.01,1.0
3.9333,128.181879,37.957658,6967.7590896,0.05,-3.179,180.01,1.0
3.95,128.181879,37.957611,6967.4759304,0.05,-3.191,180.01,1.0
3.9666,128.181879,37.957564,6967.1912472,0.051,-3.202,180.01,1.0
3.9833,128.181879,37.957518,6966.9056496,0.051,-3.214,180.011,1.0
4.0,128.181879,37.957471,6966.618832800001,0.051,-3.226,180.011,1.0
4.0166,128.181879,37.957424,6966.331101600001,0.052,-3.238,180.011,1.0
4.0333,128.181879,37.957377,6966.0421512,0.052,-3.25,180.011,1.0
4.05,128.181878,37.95733,6965.7519816,0.053,-3.262,180.011,1.0
4.0666,128.181878,37.957283,6965.460897600001,0.053,-3.273,180.011,1.0
4.0833,128.181878,37.957237,6965.1682896,0.053,-3.285,180.011,1.0
4.1,128.181878,37.95719,6964.875072,0.054,-3.297,180.011,1.0
4.1166,128.181878,37.957143,6964.5803304,0.054,-3.309,180.011,1.0
4.1333,128.181878,37.957096,6964.284674400001,0.055,-3.321,180.011,1.0
4.15,128.181878,37.957049,6963.9877992,0.055,-3.333,180.011,1.0
4.1666,128.181878,37.957002,6963.690009600001,0.055,-3.344,180.011,1.0
4.1833,128.181878,37.956955,6963.390696,0.056,-3.356,180.011,1.0
4.2,128.181878,37.956908,6963.0907728,0.056,-3.368,180.011,1.0
4.2166,128.181878,37.956861,6962.7893256,0.057,-3.38,180.011,1.0
4.2333,128.181878,37.956814,6962.486964000001,0.057,-3.392,180.011,1.0
4.25,128.181878,37.956767,6962.183383200001,0.057,-3.404,180.012,1.0
4.2666,128.181878,37.956721,6961.878888000001,0.058,-3.415,180.012,1.0
4.2833,128.181878,37.956674,6961.572868800001,0.058,-3.427,180.012,1.0
4.3,128.181878,37.956627,6961.26624,0.059,-3.439,180.012,1.0
4.3166,128.181878,37.95658,6960.958087200001,0.059,-3.451,180.012,1.0
4.3333,128.181878,37.956533,6960.649020000001,0.059,-3.463,180.012,1.0
4.35,128.181878,37.956486,6960.3387336000005,0.06,-3.475,180.012,1.0
4.3666,128.181878,37.956439,6960.027228000001,0.06,-3.486,180.012,1.0
4.3833,128.181878,37.956392,6959.714808,0.061,-3.498,180.012,1.0
4.4,128.181878,37.956344,6959.4011688,0.061,-3.51,180.012,1.0
4.4166,128.181878,37.956297,6959.086615200001,0.061,-3.522,180.012,1.0
4.4333,128.181878,37.95625,6958.770842400001,0.062,-3.534,180.012,1.0
4.45,128.181878,37.956203,6958.4538504,0.062,-3.545,180.012,1.0
4.4666,128.181878,37.956156,6958.1356392,0.063,-3.557,180.012,1.0
4.4833,128.181878,37.956109,6957.816513600001,0.063,-3.569,180.012,1.0
4.5,128.181878,37.956062,6957.4961688,0.064,-3.581,180.012,1.0
4.5166,128.181878,37.956015,6957.1749096,0.064,-3.592,180.013,1.0
4.5333,128.181878,37.955968,6956.8524312,0.064,-3.604,180.013,1.0
4.55,128.181878,37.955921,6956.528733600001,0.065,-3.616,180.013,1.0
4.5666,128.181878,37.955874,6956.2041216,0.065,-3.628,180.013,1.0
4.5833,128.181878,37.955826,6955.8779856,0.066,-3.639,180.013,1.0
4.6,128.181878,37.955779,6955.55124,0.066,-3.651,180.013,1.0
4.6166,128.181878,37.955732,6955.222970400001,0.066,-3.663,180.013,1.0
4.6333,128.181878,37.955685,6954.8937864,0.067,-3.675,180.013,1.0
4.65,128.181878,37.955638,6954.5633832,0.067,-3.686,180.013,1.0
4.6666,128.181878,37.955591,6954.232065600001,0.068,-3.698,180.013,1.0
4.6833,128.181878,37.955543,6953.899528800001,0.068,-3.71,180.013,1.0
4.7,128.181878,37.955496,6953.565772800001,0.069,-3.722,180.013,1.0
4.7166,128.181878,37.955449,6953.230797600001,0.069,-3.733,180.013,1.0
4.7333,128.181878,37.955402,6952.894908,0.069,-3.745,180.013,1.0
4.75,128.181878,37.955354,6952.5577992,0.07,-3.757,180.013,1.0
4.7666,128.181878,37.955307,6952.219776,0.07,-3.768,180.014,1.0
4.7833,128.181878,37.95526,6951.8805336000005,0.071,-3.78,180.014,1.0
4.8,128.181878,37.955213,6951.540072,0.071,-3.792,180.014,1.0
4.8166,128.181878,37.955165,6951.198696,0.072,-3.804,180.014,1.0
4.8333,128.181878,37.955118,6950.856100800001,0.072,-3.815,180.014,1.0
4.85,128.181877,37.955071,6950.5122864,0.072,-3.827,180.014,1.0
4.8666,128.181877,37.955023,6950.1672528,0.073,-3.839,180.014,1.0
4.8833,128.181877,37.954976,6949.821304800001,0.073,-3.85,180.014,1.0
4.9,128.181877,37.954929,6949.474442400001,0.074,-3.862,180.014,1.0
4.9166,128.181877,37.954881,6949.126056000001,0.074,-3.873,180.014,1.0
4.9333,128.181877,37.954834,6948.7767552000005,0.075,-3.883,180.014,1.0
4.95,128.181877,37.954787,6948.42654,0.075,-3.892,180.014,1.0
4.9666,128.181877,37.954739,6948.075105600001,0.076,-3.9,180.014,1.0
4.9833,128.181877,37.954692,6947.722452000001,0.076,-3.908,180.014,1.0
5.0,128.181877,37.954644,6947.368884,0.077,-3.914,180.014,1.0
5.0166,128.181877,37.954597,6947.0140968000005,0.078,-3.919,180.015,1.0
5.0333,128.181877,37.95455,6946.6583952,0.078,-3.923,180.015,1.0
5.05,128.181877,37.954502,6946.301779200001,0.079,-3.926,180.015,1.0
5.0666,128.181877,37.954455,6945.943944,0.079,-3.929,180.015,1.0
5.0833,128.181877,37.954407,6945.585194400001,0.08,-3.931,180.015,1.0
5.1,128.181877,37.95436,6945.2255304,0.081,-3.933,180.015,1.0
5.1166,128.181877,37.954312,6944.864647200001,0.081,-3.935,180.015,1.0
5.1333,128.181877,37.954265,6944.5028496,0.082,-3.936,180.015,1.0
5.15,128.181877,37.954217,6944.1401376,0.083,-3.938,180.015,1.0
5.1666,128.181877,37.95417,6943.776511200001,0.083,-3.939,180.015,1.0
5.1833,128.181877,37.954122,6943.411970400001,0.084,-3.94,180.015,1.0
5.2,128.181877,37.954075,6943.046515200001,0.085,-3.941,180.015,1.0
5.2166,128.181877,37.954027,6942.6801456,0.085,-3.942,180.015,1.0
5.2333,128.181877,37.95398,6942.312861599999,0.086,-3.943,180.015,1.0
5.25,128.181877,37.953932,6941.9446632,0.086,-3.945,180.015,1.0
5.2666,128.181877,37.953885,6941.575550400001,0.087,-3.946,180.016,1.0
5.2833,128.181877,37.953837,6941.205828,0.088,-3.947,180.016,1.0
5.3,128.181877,37.953789,6940.8348864,0.088,-3.948,180.016,1.0
5.3166,128.181877,37.953742,6940.4633352,0.089,-3.949,180.016,1.0
5.3333,128.181877,37.953694,6940.090869600001,0.09,-3.951,180.016,1.0
5.35,128.181877,37.953647,6939.7177944000005,0.09,-3.952,180.016,1.0
5.3666,128.181877,37.953599,6939.343804800001,0.091,-3.953,180.016,1.0
5.3833,128.181877,37.953551,6938.9689008000005,0.092,-3.954,180.016,1.0
5.4,128.181877,37.953504,6938.5933872000005,0.092,-3.955,180.016,1.0
5.4166,128.181877,37.953456,6938.2169592,0.093,-3.956,180.016,1.0
5.4333,128.181877,37.953408,6937.8399216,0.094,-3.957,180.016,1.0
5.45,128.181877,37.953361,6937.461969600001,0.094,-3.958,180.016,1.0
5.4666,128.181877,37.953313,6937.083408,0.095,-3.959,180.016,1.0
5.4833,128.181877,37.953265,6936.7042368,0.096,-3.96,180.016,1.0
5.5,128.181877,37.953218,6936.3241512,0.096,-3.961,180.016,1.0
5.5166,128.181877,37.95317,6935.943456000001,0.097,-3.962,180.017,1.0
5.5333,128.181876,37.953122,6935.562151200001,0.098,-3.962,180.017,1.0
5.55,128.181876,37.953074,6935.179932,0.098,-3.963,180.017,1.0
5.5666,128.181876,37.953027,6934.7971032,0.099,-3.964,180.017,1.0
5.5833,128.181876,37.952979,6934.4136648,0.1,-3.964,180.017,1.0
5.6,128.181876,37.952931,6934.0296168,0.1,-3.965,180.017,1.0
5.6166,128.181876,37.952883,6933.644959200001,0.101,-3.965,180.017,1.0
5.6333,128.181876,37.952835,6933.2596920000005,0.102,-3.965,180.017,1.0
5.65,128.181876,37.952788,6932.873510400001,0.102,-3.966,180.017,1.0
5.6666,128.181876,37.95274,6932.487024000001,0.103,-3.966,180.017,1.0
5.6833,128.181876,37.952692,6932.099623200001,0.104,-3.966,180.017,1.0
5.7,128.181876,37.952644,6931.711917600001,0.104,-3.967,180.017,1.0
5.7166,128.181876,37.952596,6931.3236024,0.105,-3.967,180.017,1.0
5.7333,128.181876,37.952548,6930.9346776,0.106,-3.967,180.017,1.0
5.75,128.181876,37.952501,6930.5451432,0.107,-3.967,180.017,1.0
5.7666,128.181876,37.952453,6930.1549992,0.107,-3.967,180.018,1.0
5.7833,128.181876,37.952405,6929.7642456,0.108,-3.968,180.018,1.0
5.8,128.181876,37.952357,6929.373187200001,0.109,-3.968,180.018,1.0
5.8166,128.181876,37.952309,6928.981214400001,0.109,-3.968,180.018,1.0
5.8333,128.181876,37.952261,6928.589241600001,0.11,-3.968,180.018,1.0
5.85,128.181876,37.952213,6928.1963544,0.111,-3.968,180.018,1.0
5.8666,128.181876,37.952165,6927.8028576,0.112,-3.968,180.018,1.0
5.8833,128.181876,37.952117,6927.409056,0.112,-3.968,180.018,1.0
5.9,128.181876,37.952069,6927.0149496,0.113,-3.968,180.018,1.0
5.9166,128.181876,37.952021,6926.620233600001,0.114,-3.968,180.018,1.0
5.9333,128.181876,37.951973,6926.224908,0.114,-3.969,180.018,1.0
5.95,128.181876,37.951925,6925.8289728,0.115,-3.969,180.018,1.0
5.9666,128.181876,37.951877,6925.432732800001,0.116,-3.969,180.018,1.0
5.9833,128.181876,37.951829,6925.036188000001,0.117,-3.969,180.018,1.0
6.0,128.181876,37.951781,6924.6390336,0.117,-3.969,180.019,1.0
6.0166,128.181876,37.951733,6924.241269600001,0.118,-3.969,180.019,1.0
6.0333,128.181876,37.951685,6923.843505600001,0.119,-3.969,180.019,1.0
6.05,128.181876,37.951637,6923.4448272,0.119,-3.969,180.019,1.0
6.0666,128.181876,37.951589,6923.045844,0.12,-3.97,180.019,1.0
6.0833,128.181876,37.951541,6922.646556000001,0.121,-3.97,180.019,1.0
6.1,128.181876,37.951493,6922.2469632,0.122,-3.971,180.019,1.0
6.1166,128.181875,37.951445,6921.846760800001,0.122,-3.971,180.019,1.0
6.1333,128.181875,37.951396,6921.4462536,0.123,-3.972,180.019,1.0
6.15,128.181875,37.951348,6921.0451368,0.124,-3.972,180.019,1.0
6.1666,128.181875,37.9513,6920.643715200001,0.125,-3.973,180.019,1.0
6.1833,128.181875,37.951252,6920.2419887999995,0.125,-3.974,180.019,1.0
6.2,128.181875,37.951204,6919.8399576,0.126,-3.974,180.019,1.0
6.2166,128.181875,37.951156,6919.4373168,0.127,-3.975,180.019,1.0
6.2333,128.181875,37.951108,6919.0343712,0.128,-3.976,180.02,1.0
6.25,128.181875,37.951059,6918.6311208,0.129,-3.976,180.02,1.0
6.2666,128.181875,37.951011,6918.227565600001,0.129,-3.977,180.02,1.0
6.2833,128.181875,37.950963,6917.823400800001,0.13,-3.978,180.02,1.0
6.3,128.181875,37.950915,6917.419236000001,0.131,-3.978,180.02,1.0
6.3166,128.181875,37.950867,6917.0144616,0.132,-3.979,180.02,1.0
6.3333,128.181875,37.950818,6916.609382400001,0.132,-3.98,180.02,1.0
6.35,128.181875,37.95077,6916.2039984,0.133,-3.98,180.02,1.0
6.3666,128.181875,37.950722,6915.798309600001,0.134,-3.981,180.02,1.0
6.3833,128.181875,37.950673,6915.3920112000005,0.135,-3.981,180.02,1.0
6.4,128.181875,37.950625,6914.9857128,0.136,-3.982,180.02,1.0
6.4166,128.181875,37.950577,6914.5788048,0.136,-3.982,180.02,1.0
6.4333,128.181875,37.950529,6914.1718968000005,0.137,-3.983,180.02,1.0
6.45,128.181875,37.95048,6913.764379200001,0.138,-3.983,180.02,1.0
6.4666,128.181875,37.950432,6913.3568616,0.139,-3.984,180.021,1.0
6.4833,128.181875,37.950384,6912.9487344,0.14,-3.984,180.021,1.0
6.5,128.181875,37.950335,6912.5403024,0.14,-3.985,180.021,1.0
6.5166,128.181875,37.950287,6912.1318704000005,0.141,-3.985,180.021,1.0
6.5333,128.181875,37.950239,6911.722828800001,0.142,-3.986,180.021,1.0
6.55,128.181875,37.95019,6911.313482400001,0.143,-3.986,180.021,1.0
6.5666,128.181875,37.950142,6910.904136,0.144,-3.986,180.021,1.0
6.5833,128.181875,37.950093,6910.49418,0.144,-3.987,180.021,1.0
6.6,128.181875,37.950045,6910.084224000001,0.145,-3.987,180.021,1.0
6.6166,128.181875,37.949997,6909.6739632,0.146,-3.988,180.021,1.0
6.6333,128.181874,37.949948,6909.263092800001,0.147,-3.988,180.021,1.0
6.65,128.181874,37.9499,6908.8522224,0.148,-3.989,180.021,1.0
6.6666,128.181874,37.949851,6908.441047200001,0.149,-3.989,180.021,1.0
6.6833,128.181874,37.949803,6908.0295672,0.149,-3.989,180.022,1.0
6.7,128.181874,37.949754,6907.6180872,0.15,-3.99,180.022,1.0
6.7166,128.181874,37.949706,6907.205997600001,0.151,-3.99,180.022,1.0
6.7333,128.181874,37.949657,6906.793908,0.152,-3.99,180.022,1.0
6.75,128.181874,37.949609,6906.3812088,0.153,-3.991,180.022,1.0
6.7666,128.181874,37.94956,6905.9685096,0.154,-3.991,180.022,1.0
6.7833,128.181874,37.949512,6905.555810400001,0.154,-3.991,180.022,1.0
6.8,128.181874,37.949463,6905.1425016,0.155,-3.992,180.022,1.0
6.8166,128.181874,37.949415,6904.7291928,0.156,-3.992,180.022,1.0
6.8333,128.181874,37.949366,6904.315274400001,0.157,-3.992,180.022,1.0
6.85,128.181874,37.949318,6903.901356,0.158,-3.992,180.022,1.0
6.8666,128.181874,37.949269,6903.487437600001,0.159,-3.993,180.022,1.0
6.8833,128.181874,37.94922,6903.0729096000005,0.16,-3.993,180.022,1.0
6.9,128.181874,37.949172,6902.6583816,0.16,-3.993,180.023,1.0
6.9166,128.181874,37.949123,6902.2435488,0.161,-3.993,180.023,1.0
6.9333,128.181874,37.949075,6901.828716,0.162,-3.994,180.023,1.0
6.95,128.181874,37.949026,6901.4132736,0.163,-3.994,180.023,1.0
6.9666,128.181874,37.948977,6900.9978312,0.164,-3.994,180.023,1.0
6.9833,128.181874,37.948929,6900.5823887999995,0.165,-3.994,180.023,1.0
7.0,128.181874,37.94888,6900.166336800001,0.166,-3.994,180.023,1.0
7.0166,128.181874,37.948831,6899.7502848,0.167,-3.994,180.023,1.0
7.0333,128.181874,37.948783,6899.334232800001,0.168,-3.995,180.023,1.0
7.05,128.181874,37.948734,6898.9175712,0.168,-3.995,180.023,1.0
7.0666,128.181874,37.948685,6898.5009096,0.169,-3.995,180.023,1.0
7.0833,128.181874,37.948637,6898.084248,0.17,-3.995,180.023,1.0
7.1,128.181873,37.948588,6897.6672816,0.171,-3.995,180.023,1.0
7.1166,128.181873,37.948539,6897.250010400001,0.172,-3.995,180.024,1.0
7.1333,128.181873,37.94849,6896.8327392,0.173,-3.995,180.024,1.0
7.15,128.181873,37.948442,6896.4151632,0.174,-3.995,180.024,1.0
7.1666,128.181873,37.948393,6895.997282400001,0.175,-3.995,180.024,1.0
7.1833,128.181873,37.948344,6895.579401600001,0.176,-3.995,180.024,1.0
7.2,128.181873,37.948295,6895.1615208,0.177,-3.995,180.024,1.0
7.2166,128.181873,37.948247,6894.7430304,0.178,-3.995,180.024,1.0
7.2333,128.181873,37.948198,6894.3248448,0.178,-3.996,180.024,1.0
7.25,128.181873,37.948149,6893.9060496,0.179,-3.996,180.024,1.0
7.2666,128.181873,37.9481,6893.4872544,0.18,-3.996,180.024,1.0
7.2833,128.181873,37.948051,6893.068459200001,0.181,-3.996,180.024,1.0
7.3,128.181873,37.948002,6892.649359200001,0.182,-3.996,180.024,1.0
7.3166,128.181873,37.947954,6892.230259200001,0.183,-3.996,180.024,1.0
7.3333,128.181873,37.947905,6891.810854400001,0.184,-3.996,180.025,1.0
7.35,128.181873,37.947856,6891.391449600001,0.185,-3.996,180.025,1.0
7.3666,128.181873,37.947807,6890.97174,0.186,-3.996,180.025,1.0
7.3833,128.181873,37.947758,6890.5520304,0.187,-3.996,180.025,1.0
7.4,128.181873,37.947709,6890.132016,0.188,-3.996,180.025,1.0
7.4166,128.181873,37.94766,6889.712001600001,0.189,-3.996,180.025,1.0
7.4333,128.181873,37.947611,6889.2916824,0.19,-3.996,180.025,1.0
7.45,128.181873,37.947562,6888.8713632,0.191,-3.996,180.025,1.0
7.4666,128.181873,37.947513,6888.4507392,0.192,-3.996,180.025,1.0
7.4833,128.181873,37.947464,6888.030115200001,0.193,-3.996,180.025,1.0
7.5,128.181873,37.947416,6887.609491200001,0.194,-3.996,180.025,1.0
7.5166,128.181872,37.947367,6887.1885624,0.195,-3.996,180.025,1.0
7.5333,128.181872,37.947318,6886.7676336,0.196,-3.995,180.026,1.0
7.55,128.181872,37.947269,6886.3464,0.197,-3.995,180.026,1.0
7.5666,128.181872,37.94722,6885.9251664,0.198,-3.995,180.026,1.0
7.5833,128.181872,37.947171,6885.5039328,0.199,-3.995,180.026,1.0
7.6,128.181872,37.947122,6885.0823944,0.2,-3.996,180.026,1.0
7.6166,128.181872,37.947072,6884.660856,0.201,-3.996,180.026,1.0
7.6333,128.181872,37.947023,6884.2390128,0.202,-3.996,180.026,1.0
7.65,128.181872,37.946974,6883.817169600001,0.203,-3.996,180.026,1.0
7.6666,128.181872,37.946925,6883.3953264,0.204,-3.996,180.026,1.0
7.6833,128.181872,37.946876,6882.9731784000005,0.205,-3.996,180.026,1.0
7.7,128.181872,37.946827,6882.5510304,0.206,-3.996,180.026,1.0
7.7166,128.181872,37.946778,6882.1285776,0.207,-3.996,180.027,1.0
7.7333,128.181872,37.946729,6881.7064296,0.208,-3.996,180.027,1.0
7.75,128.181872,37.94668,6881.2839768,0.209,-3.996,180.027,1.0
7.7666,128.181872,37.946631,6880.861219200001,0.21,-3.996,180.027,1.0
7.7833,128.181872,37.946582,6880.4384616,0.211,-3.996,180.027,1.0
7.8,128.181872,37.946532,6880.015704,0.212,-3.996,180.027,1.0
7.8166,128.181872,37.946483,6879.592946400001,0.213,-3.996,180.027,1.0
7.8333,128.181872,37.946434,6879.169884000001,0.214,-3.996,180.027,1.0
7.85,128.181872,37.946385,6878.7468216,0.215,-3.995,180.027,1.0
7.8666,128.181872,37.946336,6878.3237592000005,0.216,-3.995,180.027,1.0
7.8833,128.181872,37.946287,6877.9003920000005,0.217,-3.995,180.027,1.0
7.9,128.181871,37.946237,6877.4770248,0.218,-3.995,180.027,1.0
7.9166,128.181871,37.946188,6877.0536576,0.219,-3.995,180.028,1.0
7.9333,128.181871,37.946139,6876.6299856000005,0.22,-3.995,180.028,1.0
7.95,128.181871,37.94609,6876.206313600001,0.221,-3.995,180.028,1.0
7.9666,128.181871,37.94604,6875.782641600001,0.222,-3.995,180.028,1.0
7.9833,128.181871,37.945991,6875.358969600001,0.223,-3.996,180.028,1.0
8.0,128.181871,37.945942,6874.934992800001,0.224,-3.996,180.028,1.0
8.0166,128.181871,37.945893,6874.5110159999995,0.225,-3.996,180.028,1.0
8.0333,128.181871,37.945843,6874.0870392,0.227,-3.996,180.028,1.0
8.05,128.181871,37.945794,6873.6630624,0.228,-3.995,180.028,1.0
8.0666,128.181871,37.945745,6873.2387808,0.229,-3.995,180.028,1.0
8.0833,128.181871,37.945695,6872.8144992,0.23,-3.995,180.028,1.0
8.1,128.181871,37.945646,6872.3902176,0.231,-3.995,180.029,1.0
8.1166,128.181871,37.945597,6871.9659360000005,0.232,-3.995,180.029,1.0
8.1333,128.181871,37.945547,6871.5413496,0.233,-3.995,180.029,1.0
8.15,128.181871,37.945498,6871.116763200001,0.234,-3.995,180.029,1.0
8.1666,128.181871,37.945449,6870.6921768,0.235,-3.995,180.029,1.0
8.1833,128.181871,37.945399,6870.2675904,0.236,-3.995,180.029,1.0
8.2,128.181871,37.94535,6869.8426992,0.237,-3.995,180.029,1.0
8.2166,128.181871,37.9453,6869.417808,0.239,-3.995,180.029,1.0
8.2333,128.181871,37.945251,6868.9929168,0.24,-3.995,180.029,1.0
8.25,128.181871,37.945202,6868.5680256,0.241,-3.995,180.029,1.0
8.2666,128.18187,37.945152,6868.1428295999995,0.242,-3.995,180.029,1.0
8.2833,128.18187,37.945103,6867.717938400001,0.243,-3.995,180.03,1.0
8.3,128.18187,37.945053,6867.292742400001,0.244,-3.995,180.03,1.0
8.3166,128.18187,37.945004,6866.867546400001,0.245,-3.994,180.03,1.0
8.3333,128.18187,37.944954,6866.442350400001,0.246,-3.994,180.03,1.0
8.35,128.18187,37.944905,6866.016849600001,0.248,-3.994,180.03,1.0
8.3666,128.18187,37.944855,6865.5913488,0.249,-3.994,180.03,1.0
8.3833,128.18187,37.944806,6865.1661527999995,0.25,-3.994,180.03,1.0
8.4,128.18187,37.944756,6864.740652,0.251,-3.994,180.03,1.0
8.4166,128.18187,37.944707,6864.3148464000005,0.252,-3.994,180.03,1.0
8.4333,128.18187,37.944657,6863.8893456000005,0.253,-3.994,180.03,1.0
8.45,128.18187,37.944608,6863.4638448000005,0.254,-3.994,180.031,1.0
8.4666,128.18187,37.944558,6863.0380392,0.256,-3.994,180.031,1.0
8.4833,128.18187,37.944509,6862.612233600001,0.257,-3.994,180.031,1.0
8.5,128.18187,37.944459,6862.186428000001,0.258,-3.994,180.031,1.0
8.5166,128.18187,37.94441,6861.7606224,0.259,-3.994,180.031,1.0
8.5333,128.18187,37.94436,6861.334512,0.26,-3.993,180.031,1.0
8.55,128.18187,37.94431,6860.9087064000005,0.261,-3.993,180.031,1.0
8.5666,128.18187,37.944261,6860.482596000001,0.263,-3.993,180.031,1.0
8.5833,128.18187,37.944211,6860.0564856,0.264,-3.993,180.031,1.0
8.6,128.181869,37.944162,6859.630375199999,0.265,-3.993,180.031,1.0
8.6166,128.181869,37.944112,6859.204264800001,0.266,-3.993,180.032,1.0
8.6333,128.181869,37.944062,6858.7781544,0.267,-3.993,180.032,1.0
8.65,128.181869,37.944013,6858.3517392,0.269,-3.993,180.032,1.0
8.6666,128.181869,37.943963,6857.925628800001,0.27,-3.993,180.032,1.0
8.6833,128.181869,37.943913,6857.4992136,0.271,-3.993,180.032,1.0
8.7,128.181869,37.943864,6857.0727984,0.272,-3.992,180.032,1.0
8.7166,128.181869,37.943814,6856.646383200001,0.273,-3.992,180.032,1.0
8.7333,128.181869,37.943764,6856.219968,0.275,-3.992,180.032,1.0
8.75,128.181869,37.943715,6855.7935528,0.276,-3.992,180.032,1.0
8.7666,128.181869,37.943665,6855.3668328,0.277,-3.992,180.032,1.0
8.7833,128.181869,37.943615,6854.9404176,0.278,-3.992,180.033,1.0
8.8,128.181869,37.943565,6854.513697600001,0.279,-3.992,180.033,1.0
8.8166,128.181869,37.943516,6854.087282400001,0.281,-3.992,180.033,1.0
8.8333,128.181869,37.943466,6853.6605624,0.282,-3.991,180.033,1.0
8.85,128.181869,37.943416,6853.233842400001,0.283,-3.991,180.033,1.0
8.8666,128.181869,37.943366,6852.8071224000005,0.284,-3.991,180.033,1.0
8.8833,128.181869,37.943316,6852.380097600001,0.286,-3.991,180.033,1.0
8.9,128.181868,37.943267,6851.953377600001,0.287,-3.991,180.033,1.0
8.9166,128.181868,37.943217,6851.5266576,0.288,-3.991,180.033,1.0
8.9333,128.181868,37.943167,6851.099632800001,0.289,-3.991,180.033,1.0
8.95,128.181868,37.943117,6850.6729128,0.291,-3.991,180.034,1.0
8.9666,128.181868,37.943067,6850.245888,0.292,-3.991,180.034,1.0
8.9833,128.181868,37.943017,6849.8188632,0.293,-3.99,180.034,1.0
9.0,128.181868,37.942968,6849.391838400001,0.294,-3.99,180.034,1.0
9.0166,128.181868,37.942918,6848.9648136000005,0.296,-3.99,180.034,1.0
9.0333,128.181868,37.942868,6848.5377888,0.297,-3.99,180.034,1.0
9.05,128.181868,37.942818,6848.110764,0.298,-3.99,180.034,1.0
9.0666,128.181868,37.942768,6847.6837392,0.299,-3.99,180.034,1.0
9.0833,128.181868,37.942718,6847.256409600001,0.301,-3.99,180.034,1.0
9.1,128.181868,37.942668,6846.8293848,0.302,-3.99,180.034,1.0
9.1166,128.181868,37.942618,6846.4020552,0.303,-3.989,180.035,1.0
9.1333,128.181868,37.942568,6845.9750304,0.305,-3.989,180.035,1.0
9.15,128.181868,37.942518,6845.547700800001,0.306,-3.989,180.035,1.0
9.1666,128.181868,37.942468,6845.1203712,0.307,-3.989,180.035,1.0
9.1833,128.181868,37.942419,6844.6930416000005,0.308,-3.989,180.035,1.0
9.2,128.181867,37.942369,6844.2660168,0.31,-3.989,180.035,1.0
9.2166,128.181867,37.942319,6843.8386872,0.311,-3.989,180.035,1.0
9.2333,128.181867,37.942269,6843.4110528,0.312,-3.989,180.035,1.0
9.25,128.181867,37.942219,6842.983723200001,0.314,-3.988,180.035,1.0
9.2666,128.181867,37.942169,6842.5563936,0.315,-3.988,180.036,1.0
9.2833,128.181867,37.942118,6842.129064000001,0.316,-3.988,180.036,1.0
9.3,128.181867,37.942068,6841.7017344,0.318,-3.988,180.036,1.0
9.3166,128.181867,37.942018,6841.2741000000005,0.319,-3.988,180.036,1.0
9.3333,128.181867,37.941968,6840.846770400001,0.32,-3.988,180.036,1.0
9.35,128.181867,37.941918,6840.419136,0.322,-3.988,180.036,1.0
9.3666,128.181867,37.941868,6839.991806400001,0.323,-3.987,180.036,1.0
9.3833,128.181867,37.941818,6839.564172,0.324,-3.987,180.036,1.0
9.4,128.181867,37.941768,6839.1365376,0.326,-3.987,180.036,1.0
9.4166,128.181867,37.941718,6838.7089032,0.327,-3.987,180.037,1.0
9.4333,128.181867,37.941668,6838.2815736,0.328,-3.987,180.037,1.0
9.45,128.181867,37.941618,6837.8539392,0.33,-3.987,180.037,1.0
9.4666,128.181867,37.941568,6837.4263048,0.331,-3.987,180.037,1.0
9.4833,128.181866,37.941517,6836.998670400001,0.332,-3.986,180.037,1.0
9.5,128.181866,37.941467,6836.571036,0.334,-3.986,180.037,1.0
9.5166,128.181866,37.941417,6836.1434016,0.335,-3.986,180.037,1.0
9.5333,128.181866,37.941367,6835.7157672,0.336,-3.986,180.037,1.0
9.55,128.181866,37.941317,6835.287828,0.338,-3.986,180.037,1.0
9.5666,128.181866,37.941267,6834.8601936,0.339,-3.986,180.038,1.0
9.5833,128.181866,37.941216,6834.4325592000005,0.341,-3.986,180.038,1.0
9.6,128.181866,37.941166,6834.0049248000005,0.342,-3.986,180.038,1.0
9.6166,128.181866,37.941116,6833.5769856,0.343,-3.985,180.038,1.0
9.6333,128.181866,37.941066,6833.149351200001,0.345,-3.985,180.038,1.0
9.65,128.181866,37.941015,6832.721412,0.346,-3.985,180.038,1.0
9.6666,128.181866,37.940965,6832.293777600001,0.348,-3.985,180.038,1.0
9.6833,128.181866,37.940915,6831.865838400001,0.349,-3.985,180.038,1.0
9.7,128.181866,37.940865,6831.438204,0.35,-3.985,180.038,1.0
9.7166,128.181866,37.940814,6831.0102648,0.352,-3.985,180.039,1.0
9.7333,128.181865,37.940764,6830.5826304,0.353,-3.984,180.039,1.0
9.75,128.181865,37.940714,6830.1546912,0.355,-3.984,180.039,1.0
9.7666,128.181865,37.940664,6829.7267520000005,0.356,-3.984,180.039,1.0
9.7833,128.181865,37.940613,6829.2991176000005,0.357,-3.984,180.039,1.0
9.8,128.181865,37.940563,6828.871178400001,0.359,-3.984,180.039,1.0
9.8166,128.181865,37.940513,6828.4432392,0.36,-3.984,180.039,1.0
9.8333,128.181865,37.940462,6828.0153,0.362,-3.983,180.039,1.0
9.85,128.181865,37.940412,6827.587360800001,0.363,-3.983,180.039,1.0
9.8666,128.181865,37.940362,6827.1597264,0.365,-3.983,180.04,1.0
9.8833,128.181865,37.940311,6826.7317872,0.366,-3.983,180.04,1.0
9.9,128.181865,37.940261,6826.303848,0.367,-3.983,180.04,1.0
9.9166,128.181865,37.94021,6825.875908800001,0.369,-3.983,180.04,1.0
9.9333,128.181865,37.94016,6825.447969600001,0.37,-3.983,180.04,1.0
9.95,128.181865,37.94011,6825.0200304,0.372,-3.983,180.04,1.0
9.9666,128.181865,37.940059,6824.5920912,0.373,-3.982,180.04,1.0
9.9833,128.181864,37.940009,6824.164152000001,0.375,-3.982,180.04,1.0
10.0,128.181864,37.939958,6823.7362128,0.376,-3.982,180.041,1.0
10.0166,128.181864,37.939908,6823.308273600001,0.378,-3.982,180.041,1.0
10.0333,128.181864,37.939857,6822.8803344,0.379,-3.982,180.041,1.0
10.05,128.181864,37.939807,6822.4520904,0.381,-3.982,180.041,1.0
10.0666,128.181864,37.939756,6822.0241512,0.382,-3.981,180.041,1.0
10.0833,128.181864,37.939706,6821.596212,0.384,-3.981,180.041,1.0
10.1,128.181864,37.939655,6821.1682728000005,0.385,-3.981,180.041,1.0
10.1166,128.181864,37.939605,6820.740333600001,0.387,-3.981,180.041,1.0
10.1333,128.181864,37.939554,6820.3123944,0.388,-3.981,180.042,1.0
10.15,128.181864,37.939504,6819.8841504,0.39,-3.981,180.042,1.0
10.1666,128.181864,37.939453,6819.456211200001,0.391,-3.981,180.042,1.0
10.1833,128.181864,37.939403,6819.0282720000005,0.393,-3.98,180.042,1.0
10.2,128.181864,37.939352,6818.600332800001,0.394,-3.98,180.042,1.0
10.2166,128.181864,37.939302,6818.1723936,0.396,-3.98,180.042,1.0
10.2333,128.181863,37.939251,6817.7441496,0.397,-3.98,180.042,1.0
10.25,128.181863,37.939201,6817.3162104,0.399,-3.98,180.042,1.0
10.2666,128.181863,37.93915,6816.8882712,0.4,-3.98,180.043,1.0
10.2833,128.181863,37.939099,6816.460027200001,0.402,-3.98,180.043,1.0
10.3,128.181863,37.939049,6816.032088000001,0.403,-3.979,180.043,1.0
10.3166,128.181863,37.938998,6815.6041488,0.405,-3.979,180.043,1.0
10.3333,128.181863,37.938948,6815.1759048,0.406,-3.979,180.043,1.0
10.35,128.181863,37.938897,6814.7479656000005,0.408,-3.979,180.043,1.0
10.3666,128.181863,37.938846,6814.3200264,0.409,-3.979,180.043,1.0
10.3833,128.181863,37.938796,6813.891782400001,0.411,-3.979,180.043,1.0
10.4,128.181863,37.938745,6813.4638432,0.412,-3.978,180.044,1.0
10.4166,128.181863,37.938694,6813.035904,0.414,-3.978,180.044,1.0
10.4333,128.181863,37.938644,6812.607660000001,0.415,-3.978,180.044,1.0
10.45,128.181862,37.938593,6812.1797208,0.417,-3.978,180.044,1.0
10.4666,128.181862,37.938542,6811.7517816,0.419,-3.978,180.044,1.0
10.4833,128.181862,37.938492,6811.3235376,0.42,-3.978,180.044,1.0
10.5,128.181862,37.938441,6810.8955984,0.422,-3.978,180.044,1.0
10.5166,128.181862,37.93839,6810.4676592000005,0.423,-3.977,180.044,1.0
10.5333,128.181862,37.938339,6810.039415200001,0.425,-3.977,180.045,1.0
10.55,128.181862,37.938289,6809.611476,0.426,-3.977,180.045,1.0
10.5666,128.181862,37.938238,6809.1835368,0.428,-3.977,180.045,1.0
10.5833,128.181862,37.938187,6808.7552928000005,0.43,-3.977,180.045,1.0
10.6,128.181862,37.938136,6808.3273536,0.431,-3.977,180.045,1.0
10.6166,128.181862,37.938085,6807.899109600001,0.433,-3.977,180.045,1.0
10.6333,128.181862,37.938035,6807.471170400001,0.434,-3.976,180.045,1.0
10.65,128.181862,37.937984,6807.0432312,0.436,-3.976,180.045,1.0
10.6666,128.181861,37.937933,6806.6149872000005,0.438,-3.976,180.046,1.0
10.6833,128.181861,37.937882,6806.187048,0.439,-3.976,180.046,1.0
10.7,128.181861,37.937831,6805.7591088,0.441,-3.976,180.046,1.0
10.7166,128.181861,37.937781,6805.3308648,0.442,-3.976,180.046,1.0
10.7333,128.181861,37.93773,6804.9029256,0.444,-3.976,180.046,1.0
10.75,128.181861,37.937679,6804.4749864000005,0.446,-3.975,180.046,1.0
10.7666,128.181861,37.937628,6804.046742400001,0.447,-3.975,180.046,1.0
10.7833,128.181861,37.937577,6803.6188032,0.449,-3.975,180.047,1.0
10.8,128.181861,37.937526,6803.190864,0.451,-3.975,180.047,1.0
10.8166,128.181861,37.937475,6802.76262,0.452,-3.975,180.047,1.0
10.8333,128.181861,37.937424,6802.3346808,0.454,-3.975,180.047,1.0
10.85,128.181861,37.937374,6801.906741600001,0.455,-3.974,180.047,1.0
10.8666,128.181861,37.937323,6801.4788024,0.457,-3.974,180.047,1.0
10.8833,128.18186,37.937272,6801.0505584,0.459,-3.974,180.047,1.0
10.9,128.18186,37.937221,6800.6226192,0.46,-3.974,180.048,1.0
10.9166,128.18186,37.93717,6800.19468,0.462,-3.974,180.048,1.0
10.9333,128.18186,37.937119,6799.766436,0.464,-3.974,180.048,1.0
10.95,128.18186,37.937068,6799.338496800001,0.465,-3.973,180.048,1.0
10.9666,128.18186,37.937017,6798.9105576,0.467,-3.973,180.048,1.0
10.9833,128.18186,37.936966,6798.4826184,0.469,-3.973,180.048,1.0
11.0,128.18186,37.936915,6798.0546792000005,0.47,-3.973,180.048,1.0
11.0166,128.18186,37.936864,6797.6264352,0.472,-3.973,180.048,1.0
11.0333,128.18186,37.936813,6797.198496000001,0.474,-3.973,180.049,1.0
11.05,128.18186,37.936762,6796.770556800001,0.475,-3.973,180.049,1.0
11.0666,128.18186,37.936711,6796.3426176,0.477,-3.972,180.049,1.0
11.0833,128.181859,37.93666,6795.9146784,0.479,-3.972,180.049,1.0
11.1,128.181859,37.936609,6795.4867392,0.481,-3.972,180.049,1.0
11.1166,128.181859,37.936558,6795.0584952,0.482,-3.972,180.049,1.0
11.1333,128.181859,37.936507,6794.630556000001,0.484,-3.972,180.049,1.0
11.15,128.181859,37.936456,6794.2026168,0.486,-3.972,180.05,1.0
11.1666,128.181859,37.936404,6793.7746776,0.487,-3.972,180.05,1.0
11.1833,128.181859,37.936353,6793.3467384000005,0.489,-3.971,180.05,1.0
11.2,128.181859,37.936302,6792.9187992,0.491,-3.971,180.05,1.0
11.2166,128.181859,37.936251,6792.490860000001,0.493,-3.971,180.05,1.0
11.2333,128.181859,37.9362,6792.0629208,0.494,-3.971,180.05,1.0
11.25,128.181859,37.936149,6791.6349816,0.496,-3.971,180.05,1.0
11.2666,128.181859,37.936098,6791.2070424,0.498,-3.971,180.051,1.0
11.2833,128.181858,37.936047,6790.7791032000005,0.499,-3.971,180.051,1.0
11.3,128.181858,37.935995,6790.351164000001,0.501,-3.97,180.051,1.0
11.3166,128.181858,37.935944,6789.923224800001,0.503,-3.97,180.051,1.0
11.3333,128.181858,37.935893,6789.4952856,0.505,-3.97,180.051,1.0
11.35,128.181858,37.935842,6789.0673464,0.506,-3.97,180.051,1.0
11.3666,128.181858,37.935791,6788.6394072,0.508,-3.97,180.051,1.0
11.3833,128.181858,37.935739,6788.211468,0.51,-3.97,180.052,1.0
11.4,128.181858,37.935688,6787.783528800001,0.512,-3.969,180.052,1.0
11.4166,128.181858,37.935637,6787.3555896,0.513,-3.969,180.052,1.0
11.4333,128.181858,37.935586,6786.927650400001,0.515,-3.969,180.052,1.0
11.45,128.181858,37.935535,6786.500016,0.517,-3.969,180.052,1.0
11.4666,128.181857,37.935483,6786.0720768,0.519,-3.969,180.052,1.0
11.4833,128.181857,37.935432,6785.6441376,0.521,-3.969,180.053,1.0
11.5,128.181857,37.935381,6785.2161984,0.522,-3.969,180.053,1.0
11.5166,128.181857,37.935329,6784.7882592000005,0.524,-3.968,180.053,1.0
11.5333,128.181857,37.935278,6784.360624800001,0.526,-3.968,180.053,1.0
11.55,128.181857,37.935227,6783.9326856,0.528,-3.968,180.053,1.0
11.5666,128.181857,37.935176,6783.504746400001,0.529,-3.968,180.053,1.0
11.5833,128.181857,37.935124,6783.077112,0.531,-3.968,180.053,1.0
11.6,128.181857,37.935073,6782.6491728,0.533,-3.968,180.054,1.0
11.6166,128.181857,37.935022,6782.221233600001,0.535,-3.968,180.054,1.0
11.6333,128.181857,37.93497,6781.7935992,0.537,-3.967,180.054,1.0
11.65,128.181856,37.934919,6781.36566,0.539,-3.967,180.054,1.0
11.6666,128.181856,37.934868,6780.9377208,0.54,-3.967,180.054,1.0
11.6833,128.181856,37.934816,6780.510086400001,0.542,-3.967,180.054,1.0
11.7,128.181856,37.934765,6780.082147200001,0.544,-3.967,180.054,1.0
11.7166,128.181856,37.934713,6779.6545128,0.546,-3.967,180.055,1.0
11.7333,128.181856,37.934662,6779.226573600001,0.548,-3.966,180.055,1.0
11.75,128.181856,37.934611,6778.7989392,0.549,-3.966,180.055,1.0
11.7666,128.181856,37.934559,6778.371,0.551,-3.966,180.055,1.0
11.7833,128.181856,37.934508,6777.943365600001,0.553,-3.966,180.055,1.0
11.8,128.181856,37.934456,6777.5154264,0.555,-3.966,180.055,1.0
11.8166,128.181856,37.934405,6777.087792,0.557,-3.966,180.056,1.0
11.8333,128.181855,37.934353,6776.6598527999995,0.559,-3.966,180.056,1.0
11.85,128.181855,37.934302,6776.2322184,0.561,-3.966,180.056,1.0
11.8666,128.181855,37.934251,6775.804584,0.562,-3.965,180.056,1.0
11.8833,128.181855,37.934199,6775.376644800001,0.564,-3.965,180.056,1.0
11.9,128.181855,37.934148,6774.949010400001,0.566,-3.965,180.056,1.0
11.9166,128.181855,37.934096,6774.521376,0.568,-3.965,180.056,1.0
11.9333,128.181855,37.934045,6774.093436800001,0.57,-3.965,180.057,1.0
11.95,128.181855,37.933993,6773.6658024,0.572,-3.965,180.057,1.0
11.9666,128.181855,37.933942,6773.238168,0.574,-3.964,180.057,1.0
11.9833,128.181855,37.93389,6772.810533600001,0.576,-3.964,180.057,1.0
12.0,128.181854,37.933838,6772.3825944,0.577,-3.964,180.057,1.0
12.0166,128.181854,37.933787,6771.954960000001,0.579,-3.964,180.057,1.0
12.0333,128.181854,37.933735,6771.5273256,0.581,-3.964,180.058,1.0
12.05,128.181854,37.933684,6771.0996912,0.583,-3.964,180.058,1.0
12.0666,128.181854,37.933632,6770.672056800001,0.585,-3.964,180.058,1.0
12.0833,128.181854,37.933581,6770.2444224,0.587,-3.964,180.058,1.0
12.1,128.181854,37.933529,6769.816788000001,0.589,-3.963,180.058,1.0
12.1166,128.181854,37.933477,6769.3891536,0.591,-3.963,180.058,1.0
12.1333,128.181854,37.933426,6768.961519200001,0.593,-3.963,180.059,1.0
12.15,128.181854,37.933374,6768.5338848,0.595,-3.963,180.059,1.0
12.1666,128.181853,37.933323,6768.1062504,0.597,-3.963,180.059,1.0
12.1833,128.181853,37.933271,6767.678616,0.598,-3.963,180.059,1.0
12.2,128.181853,37.933219,6767.2509816,0.6,-3.963,180.059,1.0
12.2166,128.181853,37.933168,6766.823347200001,0.602,-3.963,180.059,1.0
12.2333,128.181853,37.933116,6766.3957128,0.604,-3.962,180.06,1.0
12.25,128.181853,37.933064,6765.9680784,0.606,-3.962,180.06,1.0
12.2666,128.181853,37.933013,6765.540444,0.608,-3.962,180.06,1.0
12.2833,128.181853,37.932961,6765.1128096,0.61,-3.962,180.06,1.0
12.3,128.181853,37.932909,6764.6851752,0.612,-3.962,180.06,1.0
12.3166,128.181853,37.932858,6764.2578456,0.614,-3.962,180.06,1.0
12.3333,128.181852,37.932806,6763.830211200001,0.616,-3.962,180.061,1.0
12.35,128.181852,37.932754,6763.4025768,0.618,-3.961,180.061,1.0
12.3666,128.181852,37.932702,6762.974942400001,0.62,-3.961,180.061,1.0
12.3833,128.181852,37.932651,6762.5476128,0.622,-3.961,180.061,1.0
12.4,128.181852,37.932599,6762.119978400001,0.624,-3.961,180.061,1.0
12.4166,128.181852,37.932547,6761.692344,0.626,-3.961,180.061,1.0
12.4333,128.181852,37.932495,6761.2647096,0.628,-3.961,180.062,1.0
12.45,128.181852,37.932444,6760.83738,0.63,-3.961,180.062,1.0
12.4666,128.181852,37.932392,6760.4097456,0.632,-3.961,180.062,1.0
12.4833,128.181851,37.93234,6759.982416,0.634,-3.96,180.062,1.0
12.5,128.181851,37.932288,6759.5547816,0.636,-3.96,180.062,1.0
12.5166,128.181851,37.932236,6759.127147200001,0.638,-3.96,180.062,1.0
12.5333,128.181851,37.932185,6758.699817600001,0.64,-3.96,180.063,1.0
12.55,128.181851,37.932133,6758.272183200001,0.642,-3.96,180.063,1.0
12.5666,128.181851,37.932081,6757.8448536000005,0.644,-3.96,180.063,1.0
12.5833,128.181851,37.932029,6757.4172192000005,0.646,-3.96,180.063,1.0
12.6,128.181851,37.931977,6756.9898896,0.648,-3.959,180.063,1.0
12.6166,128.181851,37.931925,6756.5622552,0.65,-3.959,180.063,1.0
12.6333,128.18185,37.931873,6756.1349256,0.652,-3.959,180.064,1.0
12.65,128.18185,37.931822,6755.707596,0.654,-3.959,180.064,1.0
12.6666,128.18185,37.93177,6755.2799616,0.656,-3.959,180.064,1.0
12.6833,128.18185,37.931718,6754.852632,0.658,-3.959,180.064,1.0
12.7,128.18185,37.931666,6754.424997600001,0.66,-3.959,180.064,1.0
12.7166,128.18185,37.931614,6753.997668,0.662,-3.959,180.064,1.0
12.7333,128.18185,37.931562,6753.570338400001,0.664,-3.958,180.065,1.0
12.75,128.18185,37.93151,6753.142704,0.666,-3.958,180.065,1.0
12.7666,128.18185,37.931458,6752.715374400001,0.668,-3.958,180.065,1.0
12.7833,128.181849,37.931406,6752.2880448000005,0.67,-3.958,180.065,1.0
12.8,128.181849,37.931354,6751.8607152,0.672,-3.958,180.065,1.0
12.8166,128.181849,37.931302,6751.4330808,0.674,-3.958,180.066,1.0
12.8333,128.181849,37.93125,6751.0057512,0.677,-3.958,180.066,1.0
12.85,128.181849,37.931198,6750.5784216,0.679,-3.958,180.066,1.0
12.8666,128.181849,37.931146,6750.151092000001,0.681,-3.957,180.066,1.0
12.8833,128.181849,37.931094,6749.7237624,0.683,-3.957,180.066,1.0
12.9,128.181849,37.931042,6749.296432800001,0.685,-3.957,180.066,1.0
12.9166,128.181849,37.93099,6748.8687984,0.687,-3.957,180.067,1.0
12.9333,128.181848,37.930938,6748.441468800001,0.689,-3.957,180.067,1.0
12.95,128.181848,37.930886,6748.0141392,0.691,-3.957,180.067,1.0
12.9666,128.181848,37.930834,6747.5868096,0.693,-3.957,180.067,1.0
12.9833,128.181848,37.930782,6747.15948,0.695,-3.956,180.067,1.0
13.0,128.181848,37.93073,6746.7321504,0.697,-3.956,180.067,1.0
13.0166,128.181848,37.930678,6746.3048208,0.7,-3.956,180.068,1.0
13.0333,128.181848,37.930626,6745.877491200001,0.702,-3.956,180.068,1.0
13.0499,128.181848,37.930574,6745.4501616,0.704,-3.956,180.068,1.0
13.0666,128.181847,37.930522,6745.022832000001,0.706,-3.956,180.068,1.0
13.0833,128.181847,37.930469,6744.5955023999995,0.708,-3.956,180.068,1.0
13.1,128.181847,37.930417,6744.1684776,0.71,-3.956,180.069,1.0
13.1166,128.181847,37.930365,6743.741148,0.712,-3.955,180.069,1.0
13.1333,128.181847,37.930313,6743.3138184,0.714,-3.955,180.069,1.0
13.15,128.181847,37.930261,6742.8864888,0.717,-3.955,180.069,1.0
13.1666,128.181847,37.930209,6742.459159200001,0.719,-3.955,180.069,1.0
13.1833,128.181847,37.930157,6742.0318296,0.721,-3.955,180.069,1.0
13.2,128.181847,37.930104,6741.6045,0.723,-3.955,180.07,1.0
13.2166,128.181846,37.930052,6741.1774752,0.725,-3.955,180.07,1.0
13.2333,128.181846,37.93,6740.7501456,0.727,-3.955,180.07,1.0
13.25,128.181846,37.929948,6740.322816,0.73,-3.954,180.07,1.0
13.2666,128.181846,37.929896,6739.895486400001,0.732,-3.954,180.07,1.0
13.2833,128.181846,37.929843,6739.4684615999995,0.734,-3.954,180.071,1.0
13.3,128.181846,37.929791,6739.041132,0.736,-3.954,180.071,1.0
13.3166,128.181846,37.929739,6738.6138024,0.738,-3.954,180.071,1.0
13.3333,128.181846,37.929687,6738.186777600001,0.74,-3.954,180.071,1.0
13.35,128.181845,37.929634,6737.759448,0.743,-3.954,180.071,1.0
13.3666,128.181845,37.929582,6737.3324232,0.745,-3.953,180.072,1.0
13.3833,128.181845,37.92953,6736.9050936,0.747,-3.953,180.072,1.0
13.4,128.181845,37.929478,6736.477764,0.749,-3.953,180.072,1.0
13.4166,128.181845,37.929425,6736.0507392,0.751,-3.953,180.072,1.0
13.4333,128.181845,37.929373,6735.623409600001,0.754,-3.953,180.072,1.0
13.45,128.181845,37.929321,6735.1963848,0.756,-3.953,180.073,1.0
13.4666,128.181845,37.929268,6734.7690552,0.758,-3.953,180.073,1.0
13.4833,128.181844,37.929216,6734.3420304,0.76,-3.953,180.073,1.0
13.5,128.181844,37.929164,6733.914700800001,0.762,-3.952,180.073,1.0
13.5166,128.181844,37.929111,6733.487676,0.765,-3.952,180.073,1.0
13.5333,128.181844,37.929059,6733.0603464000005,0.767,-3.952,180.073,1.0
13.55,128.181844,37.929007,6732.6333216,0.769,-3.952,180.074,1.0
13.5666,128.181844,37.928954,6732.206296800001,0.771,-3.952,180.074,1.0
13.5833,128.181844,37.928902,6731.7789672,0.774,-3.952,180.074,1.0
13.6,128.181843,37.92885,6731.351942400001,0.776,-3.952,180.074,1.0
13.6166,128.181843,37.928797,6730.9249176,0.778,-3.952,180.074,1.0
13.6333,128.181843,37.928745,6730.497588000001,0.78,-3.952,180.075,1.0
13.65,128.181843,37.928692,6730.0705632,0.782,-3.951,180.075,1.0
13.6666,128.181843,37.92864,6729.643538400001,0.785,-3.951,180.075,1.0
13.6833,128.181843,37.928587,6729.2162088000005,0.787,-3.951,180.075,1.0
13.7,128.181843,37.928535,6728.789184000001,0.789,-3.951,180.075,1.0
13.7166,128.181843,37.928483,6728.3621592,0.792,-3.951,180.076,1.0
13.7333,128.181842,37.92843,6727.9351344,0.794,-3.951,180.076,1.0
13.75,128.181842,37.928378,6727.5078048000005,0.796,-3.951,180.076,1.0
13.7666,128.181842,37.928325,6727.08078,0.798,-3.95,180.076,1.0
13.7833,128.181842,37.928273,6726.653755200001,0.801,-3.95,180.076,1.0
13.8,128.181842,37.92822,6726.2267304,0.803,-3.95,180.077,1.0
13.8166,128.181842,37.928168,6725.7997056,0.805,-3.95,180.077,1.0
13.8333,128.181842,37.928115,6725.3726808,0.807,-3.95,180.077,1.0
13.85,128.181841,37.928063,6724.945351200001,0.81,-3.95,180.077,1.0
13.8666,128.181841,37.92801,6724.5183264,0.812,-3.95,180.077,1.0
13.8833,128.181841,37.927958,6724.0913016,0.814,-3.95,180.078,1.0
13.9,128.181841,37.927905,6723.6642768,0.817,-3.949,180.078,1.0
13.9166,128.181841,37.927852,6723.237252000001,0.819,-3.949,180.078,1.0
13.9333,128.181841,37.9278,6722.810227200001,0.821,-3.949,180.078,1.0
13.95,128.181841,37.927747,6722.383202399999,0.824,-3.949,180.078,1.0
13.9666,128.181841,37.927695,6721.9561776,0.826,-3.949,180.079,1.0
13.9833,128.18184,37.927642,6721.5291528,0.828,-3.949,180.079,1.0
14.0,128.18184,37.92759,6721.102128,0.831,-3.949,180.079,1.0
14.0166,128.18184,37.927537,6720.6751032,0.833,-3.949,180.079,1.0
14.0333,128.18184,37.927484,6720.248078400001,0.835,-3.948,180.079,1.0
14.05,128.18184,37.927432,6719.8213584000005,0.838,-3.948,180.08,1.0
14.0666,128.18184,37.927379,6719.394333600001,0.84,-3.948,180.08,1.0
14.0833,128.18184,37.927326,6718.9673088,0.842,-3.948,180.08,1.0
14.1,128.181839,37.927274,6718.540284000001,0.845,-3.948,180.08,1.0
14.1166,128.181839,37.927221,6718.1132592,0.847,-3.948,180.081,1.0
14.1333,128.181839,37.927168,6717.6862344,0.849,-3.948,180.081,1.0
14.15,128.181839,37.927116,6717.259209600001,0.852,-3.948,180.081,1.0
14.1666,128.181839,37.927063,6716.8324896,0.854,-3.948,180.081,1.0
14.1833,128.181839,37.92701,6716.405464800001,0.856,-3.947,180.081,1.0
14.2,128.181839,37.926958,6715.97844,0.859,-3.947,180.082,1.0
14.2166,128.181838,37.926905,6715.5514152000005,0.861,-3.947,180.082,1.0
14.2333,128.181838,37.926852,6715.1246952,0.863,-3.947,180.082,1.0
14.25,128.181838,37.9268,6714.697670400001,0.866,-3.947,180.082,1.0
14.2666,128.181838,37.926747,6714.2706456000005,0.868,-3.947,180.082,1.0
14.2833,128.181838,37.926694,6713.8436208,0.871,-3.947,180.083,1.0
14.3,128.181838,37.926641,6713.416900800001,0.873,-3.946,180.083,1.0
14.3166,128.181838,37.926589,6712.989876,0.875,-3.946,180.083,1.0
14.3333,128.181837,37.926536,6712.563156000001,0.878,-3.946,180.083,1.0
14.35,128.181837,37.926483,6712.1361312,0.88,-3.946,180.083,1.0
14.3666,128.181837,37.92643,6711.709106400001,0.883,-3.946,180.084,1.0
14.3833,128.181837,37.926377,6711.2823864,0.885,-3.946,180.084,1.0
14.4,128.181837,37.926325,6710.8553616,0.887,-3.946,180.084,1.0
14.4166,128.181837,37.926272,6710.4286416,0.89,-3.946,180.084,1.0
14.4333,128.181836,37.926219,6710.0016168,0.892,-3.946,180.085,1.0
14.45,128.181836,37.926166,6709.574592000001,0.895,-3.945,180.085,1.0
14.4666,128.181836,37.926113,6709.1478720000005,0.897,-3.945,180.085,1.0
14.4833,128.181836,37.92606,6708.720847200001,0.899,-3.945,180.085,1.0
14.5,128.181836,37.926008,6708.294127200001,0.902,-3.945,180.085,1.0
14.5166,128.181836,37.925955,6707.867407199999,0.904,-3.945,180.086,1.0
14.5333,128.181836,37.925902,6707.4403824,0.907,-3.945,180.086,1.0
14.55,128.181835,37.925849,6707.0136624,0.909,-3.945,180.086,1.0
14.5666,128.181835,37.925796,6706.5866376,0.912,-3.945,180.086,1.0
14.5833,128.181835,37.925743,6706.1599176,0.914,-3.944,180.087,1.0
14.6,128.181835,37.92569,6705.732892800001,0.917,-3.944,180.087,1.0
14.6166,128.181835,37.925637,6705.3061728,0.919,-3.944,180.087,1.0
14.6333,128.181835,37.925584,6704.8794528,0.921,-3.944,180.087,1.0
14.65,128.181834,37.925531,6704.4524280000005,0.924,-3.944,180.087,1.0
14.6666,128.181834,37.925478,6704.025708,0.926,-3.944,180.088,1.0
14.6833,128.181834,37.925426,6703.598988000001,0.929,-3.944,180.088,1.0
14.7,128.181834,37.925373,6703.1719632,0.931,-3.944,180.088,1.0
14.7166,128.181834,37.92532,6702.7452432,0.934,-3.943,180.088,1.0
14.7333,128.181834,37.925267,6702.3185232000005,0.936,-3.943,180.089,1.0
14.75,128.181834,37.925214,6701.8914984,0.939,-3.943,180.089,1.0
14.7666,128.181833,37.925161,6701.464778400001,0.941,-3.943,180.089,1.0
14.7833,128.181833,37.925108,6701.0380584,0.944,-3.943,180.089,1.0
14.8,128.181833,37.925055,6700.611338400001,0.946,-3.943,180.089,1.0
14.8166,128.181833,37.925002,6700.1846184000005,0.949,-3.943,180.09,1.0
14.8333,128.181833,37.924949,6699.7575936,0.951,-3.943,180.09,1.0
14.85,128.181833,37.924895,6699.330873600001,0.954,-3.943,180.09,1.0
14.8666,128.181832,37.924842,6698.9041536,0.956,-3.942,180.09,1.0
14.8833,128.181832,37.924789,6698.477433600001,0.959,-3.942,180.091,1.0
14.9,128.181832,37.924736,6698.050713600001,0.961,-3.942,180.091,1.0
