Time,Longitude,Latitude,Altitude,Roll (deg),Pitch (deg),Yaw (deg),Health
0.0,128.181881,37.968463,7002.830292000001,0.0,-0.003,179.999,1.0
0.0166,128.181881,37.968418,7002.8116992000005,0.0,-0.012,180.0,1.0
0.0333,128.181881,37.968374,7002.7912776,0.087,-0.026,180.011,1.0
0.05,128.181881,37.968329,7002.7690272,0.258,-0.043,180.034,1.0
0.0666,128.181881,37.968284,7002.744033600001,0.516,-0.062,180.064,1.0
0.0833,128.181881,37.968239,7002.716601600001,0.864,-0.083,180.097,1.0
0.1,128.181881,37.968194,7002.6861216,1.3,-0.105,180.132,1.0
0.1166,128.181881,37.968149,7002.6522888,1.824,-0.128,180.167,1.0
0.1333,128.181881,37.968104,7002.6144936,2.432,-0.153,180.201,1.0
0.15,128.181881,37.968059,7002.572736,3.122,-0.178,180.234,1.0
0.1666,128.181881,37.968014,7002.526406400001,3.89,-0.205,180.266,1.0
0.1833,128.181881,37.967968,7002.4761144,4.733,-0.232,180.296,1.0
0.2,128.181881,37.967923,7002.4221648,5.648,-0.261,180.326,1.0
0.2166,128.181881,37.967878,7002.363948,6.632,-0.291,180.354,1.0
0.2333,128.181881,37.967833,7002.302073600001,7.681,-0.321,180.38,1.0
0.25,128.181881,37.967788,7002.2359320000005,8.793,-0.353,180.406,1.0
0.2666,128.181881,37.967743,7002.166132800001,9.966,-0.387,180.43,1.0
0.2833,128.181881,37.967698,7002.0923712,11.196,-0.421,180.452,1.0
0.3,128.181881,37.967652,7002.014647200001,12.482,-0.457,180.473,1.0
0.3166,128.181881,37.967607,7001.933265600001,13.821,-0.494,180.493,1.0
0.3333,128.181881,37.967562,7001.8482264,15.21,-0.532,180.511,1.0
0.35,128.181881,37.967517,7001.7595296,16.649,-0.571,180.528,1.0
0.3666,128.181881,37.967472,7001.666870400001,18.135,-0.612,180.543,1.0
0.3833,128.181881,37.967426,7001.5705536000005,19.666,-0.653,180.556,1.0
0.4,128.181881,37.967381,7001.470884000001,21.24,-0.696,180.568,1.0
0.4166,128.181881,37.967336,7001.367252000001,22.856,-0.739,180.578,1.0
0.4333,128.181881,37.96729,7001.2602672,24.512,-0.784,180.587,1.0
0.45,128.181881,37.967245,7001.149624800001,26.206,-0.829,180.593,1.0
0.4666,128.181881,37.9672,7001.0356296,27.938,-0.875,180.598,1.0
0.4833,128.181881,37.967154,7000.9179768,29.706,-0.921,180.601,1.0
0.5,128.181881,37.967109,7000.7969712,31.509,-0.968,180.603,1.0
0.5166,128.181881,37.967064,7000.672308,33.344,-1.016,180.602,1.0
0.5333,128.181881,37.967018,7000.5442920000005,35.213,-1.064,180.6,1.0
0.55,128.181882,37.966973,7000.413228,37.112,-1.112,180.595,1.0
0.5666,128.181882,37.966928,7000.278506400001,39.042,-1.161,180.589,1.0
0.5833,128.181882,37.966882,7000.140432,41.001,-1.209,180.581,1.0
0.6,128.181882,37.966837,6999.9990048,42.988,-1.258,180.572,1.0
0.6166,128.181882,37.966791,6999.8545296,45.003,-1.306,180.56,1.0
0.6333,128.181882,37.966746,6999.706701600001,47.045,-1.354,180.547,1.0
0.65,128.181882,37.9667,6999.5558256,49.112,-1.402,180.532,1.0
0.6666,128.181882,37.966655,6999.4015968,51.205,-1.45,180.515,1.0
0.6833,128.181882,37.966609,6999.244015200001,53.322,-1.497,180.497,1.0
0.7,128.181882,37.966564,6999.0833856,55.463,-1.543,180.477,1.0
0.7166,128.181883,37.966518,6998.919708,57.628,-1.589,180.455,1.0
0.7333,128.181883,37.966472,6998.7529824,59.814,-1.634,180.432,1.0
0.75,128.181883,37.966427,6998.583208800001,62.023,-1.678,180.407,1.0
0.7666,128.181883,37.966381,6998.4103872000005,64.254,-1.721,180.381,1.0
0.7833,128.181883,37.966336,6998.2342128,66.505,-1.764,180.354,1.0
0.8,128.181883,37.96629,6998.055600000001,68.777,-1.805,180.326,1.0
0.8166,128.181883,37.966244,6997.8736344,71.068,-1.845,180.296,1.0
0.8333,128.181884,37.966199,6997.6889255999995,73.379,-1.883,180.265,1.0
0.85,128.181884,37.966153,6997.5011688,75.709,-1.921,180.234,1.0
0.8666,128.181884,37.966107,6997.310668800001,78.057,-1.957,180.201,1.0
0.8833,128.181884,37.966062,6997.1174256,80.424,-1.991,180.167,1.0
0.9,128.181884,37.966016,6996.9214392,82.808,-2.025,180.133,1.0
0.9166,128.181885,37.96597,6996.722404800001,85.209,-2.056,180.099,1.0
0.9333,128.181885,37.965924,6996.520932,87.626,-2.087,180.063,1.0
0.95,128.181885,37.965879,6996.316716,90.06,-2.116,180.028,1.0
0.9666,128.181885,37.965833,6996.110061599999,92.51,-2.143,179.992,1.0
0.9833,128.181886,37.965787,6995.900664000001,94.975,-2.169,179.956,1.0
1.0,128.181886,37.965741,6995.688828,97.455,-2.193,179.919,1.0
1.0166,128.181886,37.965695,6995.4745536,99.95,-2.216,179.883,1.0
1.0333,128.181887,37.96565,6995.258145600001,102.458,-2.238,179.846,1.0
1.05,128.181887,37.965604,6995.0389944,104.981,-2.258,179.81,1.0
1.0666,128.181887,37.965558,6994.817709600001,107.516,-2.277,179.774,1.0
1.0833,128.181888,37.965512,6994.5939864,110.064,-2.294,179.738,1.0
1.1,128.181888,37.965466,6994.3684344,112.624,-2.31,179.703,1.0
1.1166,128.181888,37.96542,6994.140444,115.197,-2.324,179.668,1.0
1.1333,128.181889,37.965374,6993.910624800001,117.78,-2.338,179.633,1.0
1.15,128.181889,37.965328,6993.678672,120.375,-2.35,179.599,1.0
1.1666,128.18189,37.965282,6993.4448904,122.979,-2.361,179.565,1.0
1.1833,128.18189,37.965236,6993.20928,125.595,-2.371,179.532,1.0
1.2,128.18189,37.96519,6992.971536,128.22,-2.38,179.5,1.0
1.2166,128.181891,37.965144,6992.732268000001,130.854,-2.387,179.468,1.0
1.2333,128.181891,37.965098,6992.491476,133.498,-2.394,179.436,1.0
1.25,128.181892,37.965052,6992.248550400001,136.15,-2.4,179.405,1.0
1.2666,128.181892,37.965006,6992.004405600001,138.811,-2.405,179.375,1.0
1.2833,128.181893,37.96496,6991.7587368,141.48,-2.408,179.346,1.0
1.3,128.181893,37.964914,6991.511544,144.156,-2.411,179.317,1.0
1.3166,128.181894,37.964868,6991.2628272,146.84,-2.413,179.289,1.0
1.3333,128.181894,37.964822,6991.0125864,149.531,-2.415,179.262,1.0
1.35,128.181895,37.964775,6990.7611264,152.228,-2.415,179.235,1.0
1.3666,128.181895,37.964729,6990.508447200001,154.931,-2.415,179.209,1.0
1.3833,128.181896,37.964683,6990.254244,157.639,-2.414,179.184,1.0
1.4,128.181896,37.964637,6989.9991264,160.353,-2.412,179.16,1.0
1.4166,128.181897,37.964591,6989.7424848,163.071,-2.409,179.136,1.0
1.4333,128.181897,37.964544,6989.4849288000005,165.793,-2.406,179.113,1.0
1.45,128.181898,37.964498,6989.2261536000005,168.518,-2.401,179.091,1.0
1.4666,128.181898,37.964452,6988.9658544,171.246,-2.397,179.07,1.0
1.4833,128.181899,37.964406,6988.704640800001,173.977,-2.391,179.05,1.0
1.5,128.181899,37.964359,6988.4425128,176.71,-2.384,179.03,1.0
1.5166,128.1819,37.964313,6988.178860800001,179.444,-2.377,179.012,1.0
1.5333,128.181901,37.964267,6987.9139896,-177.82,-2.369,178.994,1.0
1.55,128.181901,37.96422,6987.648204,-175.084,-2.361,178.978,1.0
1.5666,128.181902,37.964174,6987.3811992,-172.349,-2.351,178.962,1.0
1.5833,128.181902,37.964128,6987.112670400001,-169.615,-2.341,178.947,1.0
1.6,128.181903,37.964081,6986.8432272,-166.881,-2.33,178.934,1.0
1.6166,128.181903,37.964035,6986.572260000001,-164.15,-2.319,178.922,1.0
1.6333,128.181904,37.963988,6986.2997688000005,-161.42,-2.306,178.911,1.0
1.65,128.181904,37.963942,6986.0260584,-158.694,-2.293,178.901,1.0
1.6666,128.181905,37.963896,6985.7511288000005,-155.97,-2.28,178.893,1.0
1.6833,128.181905,37.963849,6985.4746752,-153.251,-2.266,178.886,1.0
1.7,128.181906,37.963803,6985.1963928000005,-150.535,-2.251,178.88,1.0
1.7166,128.181906,37.963756,6984.916586400001,-147.824,-2.236,178.876,1.0
1.7333,128.181907,37.96371,6984.6355608,-145.308,-2.232,178.892,1.0
1.75,128.181907,37.963663,6984.351792,-142.98,-2.241,178.927,1.0
1.7666,128.181908,37.963616,6984.0655848,-140.846,-2.258,178.972,1.0
1.7833,128.181908,37.96357,6983.776329599999,-138.909,-2.28,179.023,1.0
1.8,128.181909,37.963523,6983.4837216,-137.168,-2.305,179.075,1.0
1.8166,128.181909,37.963477,6983.187456000001,-135.619,-2.331,179.126,1.0
1.8333,128.18191,37.96343,6982.8878376,-134.255,-2.358,179.175,1.0
1.85,128.18191,37.963384,6982.584256800001,-133.069,-2.386,179.222,1.0
1.8666,128.181911,37.963337,6982.2767136,-132.054,-2.415,179.266,1.0
1.8833,128.181911,37.96329,6981.9649032,-131.204,-2.445,179.307,1.0
1.9,128.181912,37.963244,6981.6488256,-130.51,-2.477,179.345,1.0
1.9166,128.181913,37.963197,6981.3284808,-129.967,-2.51,179.38,1.0
1.9333,128.181913,37.96315,6981.003564000001,-129.57,-2.544,179.412,1.0
1.95,128.181914,37.963104,6980.673770400001,-129.311,-2.579,179.442,1.0
1.9666,128.181915,37.963057,6980.3394048,-129.185,-2.616,179.468,1.0
1.9833,128.181915,37.963011,6979.9998576,-129.188,-2.653,179.493,1.0
2.0,128.181916,37.962964,6979.655128800001,-129.314,-2.691,179.514,1.0
2.0166,128.181917,37.962917,6979.3049136,-129.558,-2.731,179.533,1.0
2.0333,128.181918,37.962871,6978.9501264,-129.915,-2.771,179.55,1.0
2.05,128.181919,37.962824,6978.5901576,-130.381,-2.812,179.564,1.0
2.0666,128.18192,37.962777,6978.225312,-130.952,-2.853,179.577,1.0
2.0833,128.181921,37.962731,6977.8552848,-131.623,-2.896,179.587,1.0
2.1,128.181922,37.962684,6977.4803808,-132.391,-2.939,179.596,1.0
2.1166,128.181923,37.962637,6977.100600000001,-133.25,-2.982,179.603,1.0
2.1333,128.181924,37.962591,6976.7156376,-134.198,-3.026,179.609,1.0
2.15,128.181925,37.962544,6976.3257984,-135.231,-3.071,179.614,1.0
2.1666,128.181926,37.962498,6975.9310824,-136.345,-3.116,179.617,1.0
2.1833,128.181927,37.962451,6975.5311848,-137.536,-3.162,179.62,1.0
2.2,128.181928,37.962404,6975.1261056,-138.802,-3.208,179.621,1.0
2.2166,128.181929,37.962358,6974.7161496,-140.138,-3.254,179.622,1.0
2.2333,128.18193,37.962311,6974.301012,-141.542,-3.301,179.623,1.0
2.25,128.181932,37.962264,6973.880997600001,-143.011,-3.348,179.623,1.0
2.2666,128.181933,37.962218,6973.455496800001,-144.542,-3.395,179.623,1.0
2.2833,128.181934,37.962171,6973.0251192000005,-146.13,-3.443,179.623,1.0
2.3,128.181935,37.962124,6972.5892552000005,-147.775,-3.49,179.623,1.0
2.3166,128.181937,37.962078,6972.148209600001,-149.473,-3.538,179.623,1.0
2.3333,128.181938,37.962031,6971.701982400001,-151.22,-3.585,179.623,1.0
2.35,128.181939,37.961984,6971.2502688,-153.016,-3.633,179.624,1.0
2.3666,128.181941,37.961938,6970.7933736,-154.856,-3.681,179.624,1.0
2.3833,128.181942,37.961891,6970.330992000001,-156.739,-3.728,179.626,1.0
2.4,128.181943,37.961844,6969.863124,-158.661,-3.776,179.628,1.0
2.4166,128.181945,37.961798,6969.3897696,-160.622,-3.823,179.63,1.0
2.4333,128.181946,37.961751,6968.910624000001,-162.617,-3.869,179.633,1.0
2.45,128.181948,37.961704,6968.4262968,-164.646,-3.915,179.637,1.0
2.4666,128.181949,37.961658,6967.9361784,-166.706,-3.961,179.641,1.0
2.4833,128.181951,37.961611,6967.440268800001,-168.794,-4.006,179.646,1.0
2.5,128.181952,37.961565,6966.9385680000005,-170.909,-4.051,179.652,1.0
2.5166,128.181953,37.961518,6966.4313808,-173.049,-4.095,179.658,1.0
2.5333,128.181955,37.961471,6965.9184024,-175.212,-4.138,179.666,1.0
2.55,128.181956,37.961425,6965.3996328,-177.396,-4.18,179.674,1.0
2.5666,128.181958,37.961378,6964.875072,-179.599,-4.221,179.682,1.0
2.5833,128.181959,37.961331,6964.344415200001,178.18,-4.261,179.691,1.0
2.6,128.181961,37.961285,6963.8079672,175.944,-4.3,179.701,1.0
2.6166,128.181962,37.961238,6963.265728,173.693,-4.338,179.712,1.0
2.6333,128.181964,37.961191,6962.717697600001,171.43,-4.375,179.722,1.0
2.65,128.181965,37.961145,6962.1635712,169.156,-4.41,179.734,1.0
2.6666,128.181967,37.961098,6961.6036536,166.872,-4.444,179.745,1.0
2.6833,128.181968,37.961051,6961.0376400000005,164.579,-4.477,179.757,1.0
2.7,128.181969,37.961005,6960.4658352,162.28,-4.508,179.77,1.0
2.7166,128.181971,37.960958,6959.8879344,159.974,-4.539,179.782,1.0
2.7333,128.181972,37.960911,6959.3045472,157.664,-4.567,179.794,1.0
2.75,128.181973,37.960865,6958.715064000001,155.351,-4.594,179.806,1.0
2.7666,128.181975,37.960818,6958.1194848,153.035,-4.62,179.818,1.0
2.7833,128.181976,37.960771,6957.518419200001,150.717,-4.644,179.83,1.0
2.8,128.181977,37.960725,6956.9115624,148.399,-4.667,179.842,1.0
2.8166,128.181979,37.960678,6956.2992192,146.082,-4.689,179.853,1.0
2.8333,128.18198,37.960631,6955.68078,143.765,-4.709,179.863,1.0
2.85,128.181981,37.960585,6955.057159200001,141.451,-4.728,179.873,1.0
2.8666,128.181982,37.960538,6954.4277472,139.139,-4.746,179.883,1.0
2.8833,128.181983,37.960491,6953.793153600001,136.831,-4.762,179.891,1.0
2.9,128.181985,37.960445,6953.1530736,134.527,-4.777,179.899,1.0
2.9166,128.181986,37.960398,6952.5075072,132.228,-4.792,179.905,1.0
2.9333,128.181987,37.960351,6951.859197600001,130.127,-4.822,179.895,1.0
2.95,128.181988,37.960305,6951.206316,128.219,-4.87,179.869,1.0
2.9666,128.181989,37.960258,6950.5491672,126.51,-4.928,179.834,1.0
2.9833,128.18199,37.960211,6949.888360800001,125.004,-4.991,179.795,1.0
3.0,128.18199,37.960165,6949.223592,123.7,-5.054,179.754,1.0
3.0166,128.181991,37.960118,6948.555165600001,122.592,-5.118,179.714,1.0
3.0333,128.181992,37.960071,6947.883691200001,121.674,-5.18,179.676,1.0
3.05,128.181993,37.960025,6947.208864,120.94,-5.241,179.64,1.0
3.0666,128.181994,37.959978,6946.5309888,120.379,-5.302,179.605,1.0
3.0833,128.181995,37.959931,6945.850370400001,119.987,-5.361,179.573,1.0
3.1,128.181996,37.959884,6945.1673136,119.754,-5.42,179.542,1.0
3.1166,128.181997,37.959838,6944.4818184000005,119.674,-5.477,179.513,1.0
3.1333,128.181997,37.959791,6943.7938848,119.741,-5.534,179.485,1.0
3.15,128.181998,37.959744,6943.1038176,119.948,-5.59,179.458,1.0
3.1666,128.181999,37.959697,6942.4119216,120.289,-5.646,179.432,1.0
3.1833,128.182,37.95965,6941.7181968,120.759,-5.7,179.407,1.0
3.2,128.182001,37.959604,6941.0226432,121.352,-5.753,179.383,1.0
3.2166,128.182002,37.959557,6940.325870400001,122.063,-5.805,179.359,1.0
3.2333,128.182003,37.95951,6939.627573600001,122.886,-5.856,179.335,1.0
3.25,128.182004,37.959463,6938.9274479999995,123.817,-5.906,179.312,1.0
3.2666,128.182005,37.959416,6938.2261032,124.85,-5.955,179.289,1.0
3.2833,128.182006,37.959369,6937.5229296,125.982,-6.002,179.266,1.0
3.3,128.182007,37.959322,6936.8185368,127.208,-6.049,179.243,1.0
3.3166,128.182008,37.959275,6936.112924800001,128.523,-6.094,179.22,1.0
3.3333,128.182009,37.959228,6935.405484000001,129.924,-6.139,179.198,1.0
3.35,128.18201,37.959181,6934.6971288,131.407,-6.182,179.175,1.0
3.3666,128.182011,37.959134,6933.9872496,132.968,-6.224,179.153,1.0
3.3833,128.182012,37.959087,6933.276151200001,134.603,-6.265,179.13,1.0
3.4,128.182013,37.95904,6932.564138400001,136.309,-6.306,179.107,1.0
3.4166,128.182014,37.958993,6931.850906400001,138.083,-6.345,179.085,1.0
3.4333,128.182015,37.958946,6931.1364552000005,139.921,-6.383,179.062,1.0
3.45,128.182016,37.958899,6930.4207848,141.82,-6.419,179.039,1.0
3.4666,128.182018,37.958852,6929.7045048,143.777,-6.455,179.016,1.0
3.4833,128.182019,37.958804,6928.987005600001,145.79,-6.49,178.993,1.0
3.5,128.18202,37.958757,6928.268592,147.855,-6.524,178.97,1.0
3.5166,128.182021,37.95871,6927.5495688,149.969,-6.556,178.946,1.0
3.5333,128.182022,37.958663,6926.8293264,152.131,-6.587,178.923,1.0
3.55,128.182023,37.958616,6926.108474400001,154.337,-6.618,178.899,1.0
3.5666,128.182025,37.958568,6925.3870128,156.585,-6.647,178.876,1.0
3.5833,128.182026,37.958521,6924.6646368,158.873,-6.674,178.852,1.0
3.6,128.182027,37.958474,6923.941346400001,161.198,-6.701,178.828,1.0
3.6166,128.182028,37.958426,6923.217751200001,163.558,-6.726,178.804,1.0
3.6333,128.18203,37.958379,6922.4932416,165.951,-6.749,178.78,1.0
3.65,128.182031,37.958332,6921.7678176,168.375,-6.771,178.756,1.0
3.6666,128.182032,37.958284,6921.0420888,170.827,-6.792,178.732,1.0
3.6833,128.182033,37.958237,6920.3154456,173.306,-6.811,178.708,1.0
3.7,128.182034,37.95819,6919.588192800001,175.809,-6.829,178.684,1.0
3.7166,128.182036,37.958142,6918.8603304,178.336,-6.845,178.66,1.0
3.7333,128.182037,37.958095,6918.1315536,-179.116,-6.859,178.636,1.0
3.75,128.182038,37.958047,6917.4018624,-176.549,-6.872,178.613,1.0
3.7666,128.182039,37.958,6916.6715616,-173.965,-6.883,178.59,1.0
3.7833,128.182041,37.957952,6915.940346400001,-171.364,-6.893,178.568,1.0
3.8,128.182042,37.957905,6915.2082168,-168.75,-6.9,178.546,1.0
3.8166,128.182043,37.957857,6914.4751728,-166.122,-6.906,178.526,1.0
3.8333,128.182044,37.95781,6913.741214400001,-163.483,-6.91,178.505,1.0
3.85,128.182046,37.957762,6913.0060368,-160.835,-6.913,178.486,1.0
3.8666,128.182047,37.957714,6912.2699448,-158.177,-6.913,178.468,1.0
3.8833,128.182048,37.957667,6911.532328800001,-155.512,-6.912,178.451,1.0
3.9,128.182049,37.957619,6910.7937984,-152.841,-6.91,178.436,1.0
3.9166,128.18205,37.957572,6910.053744,-150.165,-6.905,178.421,1.0
3.9333,128.182051,37.957524,6909.312165600001,-147.692,-6.913,178.43,1.0
3.95,128.182053,37.957476,6908.5687584,-145.416,-6.932,178.46,1.0
3.9666,128.182054,37.957429,6907.822608,-143.344,-6.96,178.503,1.0
3.9833,128.182055,37.957381,6907.073409600001,-141.48,-6.991,178.551,1.0
4.0,128.182056,37.957333,6906.3208584,-139.824,-7.023,178.6,1.0
4.0166,128.182057,37.957285,6905.564954400001,-138.37,-7.055,178.648,1.0
4.0333,128.182059,37.957238,6904.805392800001,-137.111,-7.087,178.692,1.0
4.05,128.18206,37.95719,6904.042173600001,-136.039,-7.12,178.734,1.0
4.0666,128.182061,37.957142,6903.274687200001,-135.145,-7.153,178.773,1.0
4.0833,128.182062,37.957094,6902.502933600001,-134.422,-7.187,178.81,1.0
4.1,128.182064,37.957046,6901.726608,-133.862,-7.223,178.843,1.0
4.1166,128.182065,37.956999,6900.946015200001,-133.458,-7.259,178.875,1.0
4.1333,128.182066,37.956951,6900.160545600001,-133.204,-7.297,178.904,1.0
4.15,128.182068,37.956903,6899.370199200001,-133.095,-7.335,178.93,1.0
4.1666,128.182069,37.956855,6898.5746712,-133.123,-7.374,178.955,1.0
4.1833,128.18207,37.956808,6897.7739616,-133.283,-7.414,178.977,1.0
4.2,128.182072,37.95676,6896.968070400001,-133.569,-7.455,178.997,1.0
4.2166,128.182073,37.956712,6896.1560832000005,-133.978,-7.497,179.015,1.0
4.2333,128.182075,37.956664,6895.339219200001,-134.502,-7.539,179.031,1.0
4.25,128.182076,37.956616,6894.5168688,-135.138,-7.582,179.045,1.0
4.2666,128.182078,37.956569,6893.689032,-135.881,-7.626,179.057,1.0
4.2833,128.182079,37.956521,6892.856013600001,-136.726,-7.67,179.069,1.0
4.3,128.182081,37.956473,6892.0178136,-137.669,-7.714,179.078,1.0
4.3166,128.182083,37.956425,6891.1741272,-138.706,-7.76,179.087,1.0
4.3333,128.182084,37.956377,6890.3249544,-139.832,-7.805,179.095,1.0
4.35,128.182086,37.95633,6889.470600000001,-141.044,-7.851,179.101,1.0
4.3666,128.182088,37.956282,6888.610759200001,-142.337,-7.898,179.107,1.0
4.3833,128.18209,37.956234,6887.7457368000005,-143.708,-7.945,179.113,1.0
4.4,128.182091,37.956186,6886.875228000001,-145.154,-7.991,179.118,1.0
4.4166,128.182093,37.956138,6885.999232800001,-146.67,-8.039,179.123,1.0
4.4333,128.182095,37.956091,6885.118056,-148.254,-8.086,179.127,1.0
4.45,128.182097,37.956043,6884.231088,-149.902,-8.133,179.132,1.0
4.4666,128.182099,37.955995,6883.338633600001,-151.611,-8.181,179.136,1.0
4.4833,128.182101,37.955947,6882.440388000001,-153.377,-8.228,179.141,1.0
4.5,128.182102,37.9559,6881.536960800001,-155.198,-8.275,179.146,1.0
4.5166,128.182104,37.955852,6880.627742400001,-157.07,-8.322,179.152,1.0
4.5333,128.182106,37.955804,6879.712732800001,-158.991,-8.369,179.157,1.0
4.55,128.182108,37.955756,6878.791932,-160.957,-8.416,179.164,1.0
4.5666,128.18211,37.955709,6877.8656448,-162.967,-8.462,179.171,1.0
4.5833,128.182112,37.955661,6876.9332616,-165.017,-8.507,179.178,1.0
4.6,128.182114,37.955613,6875.995087200001,-167.105,-8.552,179.186,1.0
4.6166,128.182116,37.955565,6875.0511216,-169.228,-8.596,179.195,1.0
4.6333,128.182118,37.955517,6874.101364800001,-171.384,-8.64,179.205,1.0
4.65,128.18212,37.95547,6873.145512,-173.571,-8.682,179.215,1.0
4.6666,128.182122,37.955422,6872.1835632,-175.786,-8.724,179.226,1.0
4.6833,128.182124,37.955374,6871.2155184,-178.027,-8.765,179.237,1.0
4.7,128.182126,37.955326,6870.2416824,179.707,-8.804,179.25,1.0
4.7166,128.182128,37.955279,6869.261750400001,177.419,-8.842,179.262,1.0
4.7333,128.18213,37.955231,6868.2754176,175.112,-8.879,179.276,1.0
4.75,128.182132,37.955183,6867.2832935999995,172.787,-8.915,179.289,1.0
4.7666,128.182134,37.955135,6866.2847688,170.446,-8.949,179.304,1.0
4.7833,128.182136,37.955088,6865.2804528,168.09,-8.982,179.318,1.0
4.8,128.182138,37.95504,6864.269736,165.721,-9.014,179.333,1.0
4.8166,128.18214,37.954992,6863.252923200001,163.341,-9.043,179.348,1.0
4.8333,128.182142,37.954944,6862.2312336,161.166,-9.08,179.336,1.0
4.85,128.182144,37.954897,6861.2046672,159.19,-9.124,179.3,1.0
4.8666,128.182146,37.954849,6860.173224000001,157.422,-9.172,179.248,1.0
4.8833,128.182148,37.954801,6859.136904,155.867,-9.221,179.192,1.0
4.9,128.182149,37.954753,6858.0966216,154.525,-9.27,179.135,1.0
4.9166,128.182151,37.954706,6857.0523768,153.39,-9.318,179.082,1.0
4.9333,128.182153,37.954658,6856.004169600001,152.454,-9.366,179.031,1.0
4.95,128.182155,37.95461,6854.952914400001,151.708,-9.413,178.983,1.0
4.9666,128.182157,37.954562,6853.898611200001,151.144,-9.46,178.938,1.0
4.9833,128.182159,37.954514,6852.84126,150.753,-9.507,178.895,1.0
5.0,128.18216,37.954467,6851.7817752,150.527,-9.555,178.854,1.0
5.0166,128.182162,37.954419,6850.719852000001,150.459,-9.601,178.814,1.0
5.0333,128.182164,37.954371,6849.6561,150.543,-9.648,178.775,1.0
5.05,128.182166,37.954323,6848.590824000001,150.771,-9.694,178.738,1.0
5.0666,128.182168,37.954275,6847.524328800001,151.137,-9.739,178.701,1.0
5.0833,128.18217,37.954227,6846.456614400001,151.634,-9.783,178.666,1.0
5.1,128.182172,37.954179,6845.3882904,152.258,-9.826,178.631,1.0
5.1166,128.182174,37.954131,6844.3196616,153.002,-9.867,178.596,1.0
5.1333,128.182175,37.954083,6843.2498136,153.86,-9.908,178.562,1.0
5.15,128.182177,37.954035,6842.179356000001,154.827,-9.947,178.528,1.0
5.1666,128.182179,37.953987,6841.1082888,155.899,-9.985,178.495,1.0
5.1833,128.182181,37.953939,6840.0363072,157.069,-10.021,178.462,1.0
5.2,128.182183,37.953891,6838.963716,158.334,-10.057,178.43,1.0
5.2166,128.182185,37.953843,6837.890515200001,159.688,-10.09,178.397,1.0
5.2333,128.182187,37.953795,6836.816400000001,161.127,-10.122,178.365,1.0
5.25,128.182189,37.953747,6835.7416752,162.648,-10.153,178.333,1.0
5.2666,128.182191,37.953699,6834.6663408,164.246,-10.182,178.301,1.0
5.2833,128.182193,37.953651,6833.590092,165.916,-10.21,178.269,1.0
5.3,128.182195,37.953602,6832.513233600001,167.656,-10.236,178.238,1.0
5.3166,128.182197,37.953554,6831.435765600001,169.462,-10.261,178.206,1.0
5.3333,128.182199,37.953506,6830.357688000001,171.33,-10.284,178.175,1.0
5.35,128.182201,37.953458,6829.278696,173.256,-10.305,178.145,1.0
5.3666,128.182203,37.953409,6828.1990944,175.238,-10.325,178.114,1.0
5.3833,128.182205,37.953361,6827.118883200001,177.273,-10.343,178.084,1.0
5.4,128.182207,37.953313,6826.0377576,179.357,-10.359,178.054,1.0
5.4166,128.182209,37.953264,6824.956022400001,-178.511,-10.374,178.024,1.0
5.4333,128.182211,37.953216,6823.873372800001,-176.337,-10.387,177.996,1.0
5.45,128.182213,37.953168,6822.7901136,-174.122,-10.399,177.967,1.0
5.4666,128.182215,37.953119,6821.7056352,-171.868,-10.408,177.939,1.0
5.4833,128.182217,37.953071,6820.620547200001,-169.579,-10.416,177.912,1.0
5.5,128.182219,37.953022,6819.5345448,-167.256,-10.422,177.886,1.0
5.5166,128.182221,37.952974,6818.4473232,-164.901,-10.426,177.86,1.0
5.5333,128.182223,37.952925,6817.3594920000005,-162.518,-10.428,177.836,1.0
5.55,128.182225,37.952877,6816.270136800001,-160.108,-10.429,177.813,1.0
5.5666,128.182227,37.952828,6815.1798672,-157.673,-10.428,177.79,1.0
5.5833,128.182229,37.95278,6814.088073600001,-155.216,-10.425,177.769,1.0
5.6,128.182231,37.952731,6812.995365600001,-152.737,-10.421,177.75,1.0
5.6166,128.182233,37.952683,6811.901133600001,-150.239,-10.414,177.732,1.0
5.6333,128.182235,37.952634,6810.8056824000005,-147.948,-10.421,177.74,1.0
5.65,128.182237,37.952585,6809.707792800001,-145.857,-10.443,177.773,1.0
5.6666,128.182239,37.952537,6808.6071600000005,-143.976,-10.472,177.82,1.0
5.6833,128.182241,37.952488,6807.503479200001,-142.31,-10.505,177.872,1.0
5.7,128.182243,37.952439,6806.3964456,-140.86,-10.538,177.924,1.0
5.7166,128.182245,37.952391,6805.2857544,-139.618,-10.57,177.973,1.0
5.7333,128.182246,37.952342,6804.1711008,-138.576,-10.601,178.018,1.0
5.75,128.182248,37.952293,6803.0527896,-137.724,-10.633,178.061,1.0
5.7666,128.18225,37.952245,6801.929906400001,-137.054,-10.666,178.1,1.0
5.7833,128.182252,37.952196,6800.802756000001,-136.557,-10.7,178.137,1.0
5.8,128.182255,37.952147,6799.6713384,-136.224,-10.735,178.171,1.0
5.8166,128.182257,37.952098,6798.5347392,-136.05,-10.771,178.203,1.0
5.8333,128.182259,37.95205,6797.393263200001,-136.026,-10.807,178.233,1.0
5.85,128.182261,37.952001,6796.246910400001,-136.147,-10.845,178.261,1.0
5.8666,128.182263,37.951952,6795.0947664,-136.407,-10.884,178.287,1.0
5.8833,128.182265,37.951904,6793.9374408,-136.798,-10.923,178.311,1.0
5.9,128.182267,37.951855,6792.774324000001,-137.317,-10.963,178.332,1.0
5.9166,128.18227,37.951806,6791.6051112000005,-137.956,-11.004,178.352,1.0
5.9333,128.182272,37.951758,6790.430412,-138.712,-11.046,178.37,1.0
5.95,128.182274,37.951709,6789.2499216,-139.578,-11.088,178.387,1.0
5.9666,128.182276,37.95166,6788.0639448,-140.55,-11.131,178.402,1.0
5.9833,128.182279,37.951611,6786.8721768000005,-141.624,-11.174,178.416,1.0
6.0,128.182281,37.951563,6785.6749224000005,-142.794,-11.218,178.429,1.0
6.0166,128.182284,37.951514,6784.4718768,-144.055,-11.263,178.441,1.0
6.0333,128.182286,37.951465,6783.263344800001,-145.405,-11.308,178.452,1.0
6.05,128.182288,37.951417,6782.0490216,-146.839,-11.353,178.463,1.0
6.0666,128.182291,37.951368,6780.829212,-148.352,-11.398,178.473,1.0
6.0833,128.182293,37.95132,6779.603611200001,-149.94,-11.444,178.483,1.0
6.1,128.182296,37.951271,6778.3722192000005,-151.601,-11.49,178.492,1.0
6.1166,128.182299,37.951222,6777.135036000001,-153.33,-11.536,178.502,1.0
6.1333,128.182301,37.951174,6775.8923664,-155.123,-11.582,178.511,1.0
6.15,128.182304,37.951125,6774.643600800001,-156.978,-11.628,178.521,1.0
6.1666,128.182306,37.951077,6773.389044,-158.89,-11.674,178.531,1.0
6.1833,128.182309,37.951028,6772.128696000001,-160.857,-11.719,178.541,1.0
6.2,128.182312,37.950979,6770.862556800001,-162.875,-11.764,178.552,1.0
6.2166,128.182314,37.950931,6769.5903216,-164.941,-11.809,178.563,1.0
6.2333,128.182317,37.950882,6768.3122952,-167.052,-11.853,178.575,1.0
6.25,128.18232,37.950834,6767.0281728,-169.206,-11.896,178.587,1.0
6.2666,128.182322,37.950785,6765.7379544000005,-171.398,-11.939,178.601,1.0
6.2833,128.182325,37.950737,6764.4419448,-173.628,-11.981,178.614,1.0
6.3,128.182328,37.950688,6763.1395344,-175.892,-12.022,178.628,1.0
6.3166,128.18233,37.95064,6761.8313328,-178.187,-12.062,178.643,1.0
6.3333,128.182333,37.950591,6760.5176448,179.722,-12.1,178.627,1.0
6.35,128.182335,37.950543,6759.1987752,177.83,-12.137,178.582,1.0
6.3666,128.182338,37.950494,6757.875333600001,176.148,-12.174,178.52,1.0
6.3833,128.182341,37.950446,6756.547320000001,174.683,-12.211,178.453,1.0
6.4,128.182343,37.950397,6755.215344,173.435,-12.248,178.389,1.0
6.4166,128.182346,37.950349,6753.8797104000005,172.397,-12.285,178.329,1.0
6.4333,128.182349,37.9503,6752.5404192000005,171.56,-12.323,178.273,1.0
6.45,128.182351,37.950252,6751.19808,170.914,-12.361,178.221,1.0
6.4666,128.182354,37.950203,6749.8533024,170.45,-12.4,178.171,1.0
6.4833,128.182357,37.950154,6748.5057816,170.158,-12.439,178.122,1.0
6.5,128.182359,37.950106,6747.156432000001,170.032,-12.479,178.076,1.0
6.5166,128.182362,37.950057,6745.8052536000005,170.062,-12.518,178.03,1.0
6.5333,128.182364,37.950009,6744.452551200001,170.243,-12.558,177.986,1.0
6.55,128.182367,37.94996,6743.0989344,170.567,-12.596,177.943,1.0
6.5666,128.18237,37.949912,6741.744708,171.028,-12.634,177.9,1.0
6.5833,128.182372,37.949863,6740.389872,171.619,-12.671,177.859,1.0
6.6,128.182375,37.949815,6739.0347312,172.334,-12.706,177.819,1.0
6.6166,128.182378,37.949766,6737.680200000001,173.167,-12.74,177.779,1.0
6.6333,128.18238,37.949717,6736.3229255999995,173.876,-12.786,177.774,1.0
6.65,128.182383,37.949669,6734.9641272,174.463,-12.86,177.803,1.0
6.6666,128.182386,37.94962,6733.602585600001,174.914,-12.981,177.854,1.0
6.6833,128.182388,37.949571,6732.2373864,175.219,-13.165,177.915,1.0
6.7,128.182391,37.949523,6730.867615200001,175.373,-13.427,177.982,1.0
6.7166,128.182394,37.949474,6729.4917479999995,175.382,-13.778,178.052,1.0
6.7333,128.182396,37.949425,6728.1091752,175.252,-14.223,178.127,1.0
6.75,128.182399,37.949377,6726.718677600001,174.991,-14.747,178.207,1.0
6.7666,128.182402,37.949328,6725.319036,174.607,-15.333,178.292,1.0
6.7833,128.182404,37.94928,6723.9096408000005,174.107,-15.958,178.384,1.0
6.8,128.182407,37.949231,6722.488968000001,173.498,-16.6,178.481,1.0
6.8166,128.182409,37.949183,6721.056408,172.788,-17.236,178.582,1.0
6.8333,128.182412,37.949134,6719.6110464,171.982,-17.843,178.686,1.0
6.85,128.182415,37.949086,6718.152273600001,171.087,-18.399,178.79,1.0
6.8666,128.182417,37.949037,6716.67948,170.109,-18.891,178.892,1.0
6.8833,128.18242,37.948989,6715.1911416,169.052,-19.327,178.993,1.0
6.9,128.182422,37.94894,6713.6869536,167.919,-19.72,179.094,1.0
6.9166,128.182425,37.948892,6712.166611200001,166.712,-20.081,179.198,1.0
6.9333,128.182427,37.948844,6710.6298096,165.434,-20.424,179.308,1.0
6.95,128.182429,37.948796,6709.0768536000005,164.084,-20.756,179.425,1.0
6.9666,128.182432,37.948747,6707.506828800001,162.667,-21.075,179.549,1.0
6.9833,128.182434,37.948699,6705.9203448,161.183,-21.381,179.679,1.0
7.0,128.182436,37.948651,6704.3170968,159.635,-21.674,179.815,1.0
7.0166,128.182438,37.948603,6702.6970848,158.025,-21.953,179.957,1.0
7.0333,128.18244,37.948555,6701.061528,156.423,-22.221,180.1,1.0
7.05,128.182442,37.948507,6699.4098168,154.838,-22.479,180.244,1.0
7.0666,128.182444,37.948459,6697.743170400001,153.27,-22.726,180.391,1.0
7.0833,128.182446,37.948412,6696.061284000001,151.718,-22.962,180.542,1.0
7.1,128.182448,37.948364,6694.3647672,150.178,-23.187,180.698,1.0
7.1166,128.182449,37.948316,6692.653620000001,148.649,-23.402,180.861,1.0
7.1333,128.182451,37.948268,6690.9290616,147.236,-23.611,181.022,1.0
7.15,128.182453,37.948221,6689.1907872,145.933,-23.815,181.181,1.0
7.1666,128.182454,37.948173,6687.439101600001,144.726,-24.013,181.341,1.0
7.1833,128.182455,37.948125,6685.674614400001,143.602,-24.202,181.506,1.0
7.2,128.182457,37.948078,6683.8976304,142.545,-24.383,181.675,1.0
7.2166,128.182458,37.94803,6682.10754,141.543,-24.556,181.849,1.0
7.2333,128.182459,37.947983,6680.3058672,140.639,-24.723,182.024,1.0
7.25,128.18246,37.947936,6678.4923072,139.822,-24.886,182.199,1.0
7.2666,128.182461,37.947888,6676.6665552,139.08,-25.044,182.373,1.0
7.2833,128.182462,37.947841,6674.8286112000005,138.4,-25.196,182.55,1.0
7.3,128.182463,37.947793,6672.9784752,137.77,-25.342,182.728,1.0
7.3166,128.182463,37.947746,6671.1158424000005,137.181,-25.482,182.909,1.0
7.3333,128.182464,37.947699,6669.2416272,136.641,-25.616,183.09,1.0
7.35,128.182464,37.947652,6667.3549152000005,136.143,-25.745,183.273,1.0
7.3666,128.182465,37.947605,6665.456316,135.679,-25.869,183.456,1.0
7.3833,128.182465,37.947557,6663.545524800001,135.242,-25.99,183.64,1.0
7.4,128.182465,37.94751,6661.622236800001,134.826,-26.106,183.824,1.0
7.4166,128.182465,37.947463,6659.6870616,134.428,-26.22,184.008,1.0
7.4333,128.182465,37.947416,6657.7390848,133.929,-26.311,184.184,1.0
7.45,128.182465,37.94737,6655.778916,133.34,-26.37,184.339,1.0
7.4666,128.182465,37.947323,6653.806555200001,132.668,-26.388,184.453,1.0
7.4833,128.182465,37.947276,6651.822612,131.917,-26.356,184.513,1.0
7.5,128.182464,37.947229,6649.8273912,131.097,-26.268,184.502,1.0
7.5166,128.182463,37.947182,6647.8215024,130.215,-26.115,184.407,1.0
7.5333,128.182463,37.947136,6645.804336,129.264,-25.914,184.247,1.0
7.55,128.182462,37.947089,6643.777111200001,128.237,-25.682,184.041,1.0
7.5666,128.182461,37.947042,6641.739523200001,127.127,-25.434,183.807,1.0
7.5833,128.18246,37.946996,6639.6924864,125.925,-25.184,183.564,1.0
7.6,128.182459,37.946949,6637.636915200001,124.623,-24.948,183.333,1.0
7.6166,128.182458,37.946903,6635.5725048,123.215,-24.739,183.132,1.0
7.6333,128.182456,37.946856,6633.5019984,121.931,-24.578,182.968,1.0
7.65,128.182455,37.94681,6631.4241768,120.76,-24.474,182.859,1.0
7.6666,128.182453,37.946763,6629.33904,119.701,-24.427,182.822,1.0
7.6833,128.182452,37.946717,6627.2475024,118.75,-24.435,182.877,1.0
7.7,128.18245,37.946671,6625.1492592,117.896,-24.496,183.034,1.0
7.7166,128.182448,37.946624,6623.0446152,117.117,-24.604,183.294,1.0
7.7333,128.182446,37.946578,6620.931132000001,116.201,-24.736,183.654,1.0
7.75,128.182444,37.946532,6618.810638400001,115.156,-24.883,184.099,1.0
7.7666,128.182442,37.946486,6616.682829599999,113.985,-25.041,184.61,1.0
7.7833,128.18244,37.94644,6614.547096,112.691,-25.208,185.17,1.0
7.8,128.182438,37.946394,6612.403437600001,111.286,-25.374,185.759,1.0
7.8166,128.182435,37.946348,6610.2521592,109.783,-25.531,186.355,1.0
7.8333,128.182432,37.946302,6608.093565600001,108.198,-25.672,186.937,1.0
7.85,128.182429,37.946256,6605.927352000001,106.548,-25.787,187.482,1.0
7.8666,128.182426,37.94621,6603.7541280000005,104.849,-25.873,187.967,1.0
7.8833,128.182423,37.946164,6601.5741984,103.115,-25.925,188.371,1.0
7.9,128.18242,37.946118,6599.388172800001,101.36,-25.943,188.67,1.0
7.9166,128.182416,37.946072,6597.196660800001,99.597,-25.928,188.843,1.0
7.9333,128.182413,37.946026,6595.000272,97.836,-25.883,188.871,1.0
7.95,128.182409,37.945981,6592.798701600001,96.067,-25.817,188.774,1.0
7.9666,128.182405,37.945935,6590.5931688,94.278,-25.739,188.578,1.0
7.9833,128.182401,37.945889,6588.3833688,92.457,-25.655,188.307,1.0
8.0,128.182397,37.945844,6586.1705208,90.59,-25.572,187.985,1.0
8.0166,128.182393,37.945798,6583.954624800001,88.663,-25.495,187.64,1.0
8.0333,128.182388,37.945752,6581.7359856,86.663,-25.425,187.295,1.0
8.05,128.182384,37.945707,6579.5155176,84.579,-25.363,186.976,1.0
8.0666,128.182379,37.945661,6577.292915999999,82.401,-25.308,186.707,1.0
8.0833,128.182374,37.945615,6575.0690952,80.119,-25.254,186.508,1.0
8.1,128.18237,37.94557,6572.8437504,77.737,-25.2,186.382,1.0
8.1166,128.182365,37.945524,6570.617491200001,75.263,-25.142,186.313,1.0
8.1333,128.18236,37.945479,6568.3903176,72.696,-25.074,186.318,1.0
8.15,128.182355,37.945433,6566.163144,70.036,-24.985,186.409,1.0
8.1666,128.182349,37.945388,6563.9362752,67.284,-24.864,186.597,1.0
8.1833,128.182344,37.945342,6561.710016,64.448,-24.702,186.879,1.0
8.2,128.182339,37.945297,6559.4846712,61.541,-24.497,187.237,1.0
8.2166,128.182333,37.945251,6557.2605456,58.579,-24.249,187.651,1.0
8.2333,128.182328,37.945206,6555.0385536,55.749,-23.971,188.107,1.0
8.25,128.182322,37.94516,6552.8180856,53.067,-23.669,188.584,1.0
8.2666,128.182316,37.945115,6550.5997512,50.532,-23.349,189.055,1.0
8.2833,128.18231,37.945069,6548.3832456,48.138,-23.019,189.497,1.0
8.3,128.182304,37.945024,6546.1691784,45.868,-22.684,189.9,1.0
8.3166,128.182298,37.944978,6543.9581592,43.703,-22.345,190.263,1.0
8.3333,128.182292,37.944933,6541.750797600001,41.758,-22.012,190.596,1.0
8.35,128.182286,37.944887,6539.546788799999,40.016,-21.687,190.901,1.0
8.3666,128.182279,37.944842,6537.3461328,38.472,-21.368,191.181,1.0
8.3833,128.182273,37.944796,6535.149744,37.117,-21.056,191.435,1.0
8.4,128.182267,37.944751,6532.9570128000005,35.92,-20.749,191.665,1.0
8.4166,128.18226,37.944705,6530.768244,34.853,-20.446,191.871,1.0
8.4333,128.182253,37.944659,6528.583742400001,33.931,-20.164,192.064,1.0
8.45,128.182246,37.944614,6526.403508,33.144,-19.902,192.245,1.0
8.4666,128.18224,37.944568,6524.227236000001,32.49,-19.658,192.416,1.0
8.4833,128.182233,37.944522,6522.0552312,31.969,-19.426,192.575,1.0
8.5,128.182226,37.944477,6519.8868840000005,31.577,-19.204,192.723,1.0
8.5166,128.182219,37.944431,6517.7224992,31.31,-18.99,192.861,1.0
8.5333,128.182212,37.944385,6515.562381600001,31.162,-18.796,192.983,1.0
8.55,128.182204,37.94434,6513.406836,31.128,-18.621,193.091,1.0
8.5666,128.182197,37.944294,6511.2558624,31.201,-18.461,193.189,1.0
8.5833,128.18219,37.944248,6509.109765600001,31.376,-18.312,193.279,1.0
8.6,128.182182,37.944202,6506.9682408,31.647,-18.171,193.364,1.0
8.6166,128.182175,37.944156,6504.8322024,32.011,-18.036,193.446,1.0
8.6333,128.182167,37.94411,6502.701040800001,32.461,-17.908,193.527,1.0
8.65,128.18216,37.944065,6500.575060800001,32.995,-17.784,193.607,1.0
8.6666,128.182152,37.944019,6498.4545672,33.606,-17.666,193.686,1.0
8.6833,128.182144,37.943973,6496.3398648,34.283,-17.552,193.765,1.0
8.7,128.182136,37.943927,6494.2315632,35.016,-17.443,193.842,1.0
8.7166,128.182128,37.943881,6492.1293576,35.794,-17.338,193.917,1.0
8.7333,128.18212,37.943835,6490.0341624,36.58,-17.228,193.996,1.0
8.75,128.182112,37.943789,6487.9459776,37.368,-17.114,194.079,1.0
8.7666,128.182103,37.943743,6485.865108,38.155,-16.998,194.166,1.0
8.7833,128.182095,37.943697,6483.7918584,38.94,-16.883,194.255,1.0
8.8,128.182086,37.943651,6481.725314400001,39.723,-16.771,194.347,1.0
8.8166,128.182077,37.943605,6479.6660856,40.504,-16.663,194.44,1.0
8.8333,128.182069,37.943559,6477.6147816,41.246,-16.552,194.538,1.0
8.85,128.18206,37.943513,6475.5714024,41.951,-16.439,194.638,1.0
8.8666,128.182051,37.943467,6473.5362528,42.623,-16.325,194.741,1.0
8.8833,128.182042,37.943421,6471.508418400001,43.265,-16.213,194.848,1.0
8.9,128.182032,37.943374,6469.488204,43.884,-16.104,194.958,1.0
8.9166,128.182023,37.943328,6467.4756096,44.484,-15.999,195.07,1.0
8.9333,128.182013,37.943282,6465.469416,44.967,-15.886,195.165,1.0
8.95,128.182003,37.943236,6463.471452000001,45.339,-15.768,195.243,1.0
8.9666,128.181994,37.94319,6461.4820224000005,45.593,-15.645,195.312,1.0
8.9833,128.181984,37.943144,6459.5011272,45.721,-15.523,195.377,1.0
9.0,128.181973,37.943098,6457.529376,45.722,-15.402,195.442,1.0
9.0166,128.181963,37.943051,6455.566464,45.599,-15.283,195.508,1.0
9.0333,128.181953,37.943005,6453.613000800001,45.359,-15.173,195.567,1.0
9.05,128.181942,37.942959,6451.6689864,45.007,-15.073,195.618,1.0
9.0666,128.181931,37.942913,6449.7350304,44.549,-14.977,195.666,1.0
9.0833,128.18192,37.942867,6447.8114376,43.989,-14.883,195.712,1.0
9.1,128.181909,37.942821,6445.8975984,43.329,-14.788,195.759,1.0
9.1166,128.181898,37.942774,6443.9941224,42.576,-14.69,195.806,1.0
9.1333,128.181887,37.942728,6442.1007048,41.731,-14.59,195.854,1.0
9.15,128.181875,37.942682,6440.2173456,40.799,-14.488,195.901,1.0
9.1666,128.181863,37.942636,6438.344959200001,39.782,-14.383,195.949,1.0
9.1833,128.181851,37.94259,6436.4826312000005,38.685,-14.274,195.996,1.0
9.2,128.18184,37.942543,6434.631276,37.509,-14.161,196.043,1.0
9.2166,128.181827,37.942497,6432.790893599999,36.257,-14.044,196.09,1.0
9.2333,128.181815,37.942451,6430.961484000001,34.932,-13.917,196.139,1.0
9.25,128.181803,37.942405,6429.143656800001,33.536,-13.78,196.19,1.0
9.2666,128.18179,37.942358,6427.3371072,32.071,-13.635,196.242,1.0
9.2833,128.181778,37.942312,6425.5421400000005,30.541,-13.484,196.292,1.0
9.3,128.181765,37.942266,6423.75906,28.947,-13.327,196.34,1.0
9.3166,128.181752,37.94222,6421.988172,27.292,-13.165,196.383,1.0
9.3333,128.181739,37.942173,6420.2300856,25.578,-12.989,196.427,1.0
9.35,128.181726,37.942127,6418.484496,23.805,-12.799,196.47,1.0
9.3666,128.181713,37.942081,6416.751708,21.977,-12.597,196.511,1.0
9.3833,128.1817,37.942034,6415.0323312,20.095,-12.387,196.546,1.0
9.4,128.181687,37.941988,6413.3254512,18.166,-12.172,196.575,1.0
9.4166,128.181673,37.941941,6411.6316776,16.197,-11.955,196.596,1.0
9.4333,128.18166,37.941895,6409.9504008,14.382,-11.759,196.631,1.0
9.45,128.181646,37.941849,6408.280706400001,12.715,-11.601,196.673,1.0
9.4666,128.181633,37.941802,6406.62168,11.208,-11.495,196.712,1.0
9.4833,128.181619,37.941755,6404.9721024,9.871,-11.457,196.737,1.0
9.5,128.181606,37.941709,6403.3316688,8.701,-11.501,196.742,1.0
9.5166,128.181592,37.941662,6401.6988552,7.696,-11.644,196.727,1.0
9.5333,128.181578,37.941616,6400.073052000001,6.845,-11.863,196.698,1.0
9.55,128.181564,37.941569,6398.4533448,6.138,-12.135,196.66,1.0
9.5666,128.181551,37.941522,6396.8388192,5.566,-12.44,196.619,1.0
9.5833,128.181537,37.941476,6395.228865600001,5.12,-12.754,196.578,1.0
9.6,128.181523,37.941429,6393.622569600001,4.793,-13.056,196.54,1.0
9.6166,128.181509,37.941382,6392.019626400001,4.578,-13.323,196.507,1.0
9.6333,128.181495,37.941336,6390.418512,4.47,-13.552,196.48,1.0
9.65,128.181481,37.941289,6388.8186168,4.464,-13.749,196.457,1.0
9.6666,128.181467,37.941242,6387.2190264,4.559,-13.924,196.438,1.0
9.6833,128.181453,37.941195,6385.619436,4.749,-14.083,196.42,1.0
9.7,128.181439,37.941149,6384.0189312,5.033,-14.232,196.404,1.0
9.7166,128.181425,37.941102,6382.4178168,5.406,-14.372,196.388,1.0
9.7333,128.181411,37.941055,6380.816092800001,5.867,-14.505,196.373,1.0
9.75,128.181397,37.941008,6379.2128448,6.411,-14.632,196.357,1.0
9.7666,128.181383,37.940961,6377.6086824,7.036,-14.753,196.342,1.0
9.7833,128.181369,37.940914,6376.0026912,7.739,-14.87,196.326,1.0
9.8,128.181355,37.940867,6374.3954808,8.517,-14.983,196.31,1.0
9.8166,128.181341,37.94082,6372.7864416,9.368,-15.092,196.294,1.0
9.8333,128.181327,37.940773,6371.1758784,10.288,-15.197,196.277,1.0
9.85,128.181313,37.940726,6369.5631816000005,11.276,-15.299,196.259,1.0
9.8666,128.181299,37.94068,6367.9486560000005,12.33,-15.399,196.241,1.0
9.8833,128.181284,37.940633,6366.3319968000005,13.446,-15.495,196.222,1.0
9.9,128.18127,37.940586,6364.713204000001,14.624,-15.59,196.202,1.0
9.9166,128.181256,37.940539,6363.092277600001,15.86,-15.682,196.181,1.0
9.9333,128.181242,37.940491,6361.4689128,17.154,-15.772,196.159,1.0
9.95,128.181227,37.940444,6359.8434144,18.504,-15.861,196.137,1.0
9.9666,128.181213,37.940397,6358.215477600001,19.907,-15.948,196.112,1.0
9.9833,128.181199,37.94035,6356.585102399999,21.362,-16.033,196.087,1.0
10.0,128.181184,37.940303,6354.9522888,22.868,-16.117,196.061,1.0
10.0166,128.18117,37.940256,6353.3170368,24.423,-16.199,196.033,1.0
10.0333,128.181156,37.940209,6351.6790416,26.026,-16.28,196.004,1.0
10.05,128.181141,37.940162,6350.038608,27.675,-16.36,195.973,1.0
10.0666,128.181127,37.940115,6348.3954312000005,29.369,-16.439,195.942,1.0
10.0833,128.181113,37.940067,6346.749511200001,31.108,-16.516,195.908,1.0
10.1,128.181098,37.94002,6345.1005432,32.889,-16.592,195.874,1.0
10.1166,128.181084,37.939973,6343.449136800001,34.712,-16.667,195.837,1.0
10.1333,128.181069,37.939926,6341.794987200001,36.576,-16.74,195.8,1.0
10.15,128.181055,37.939879,6340.1377896,38.48,-16.812,195.76,1.0
10.1666,128.18104,37.939831,6338.477544,40.422,-16.883,195.72,1.0
10.1833,128.181026,37.939784,6336.8145552000005,42.403,-16.952,195.677,1.0
10.2,128.181011,37.939737,6335.1488232,44.42,-17.02,195.634,1.0
10.2166,128.180997,37.93969,6333.479738400001,46.474,-17.086,195.588,1.0
10.2333,128.180982,37.939642,6331.807605600001,48.563,-17.151,195.542,1.0
10.25,128.180968,37.939595,6330.132424800001,50.687,-17.214,195.494,1.0
10.2666,128.180953,37.939548,6328.4545008000005,52.845,-17.275,195.444,1.0
10.2833,128.180939,37.9395,6326.772919200001,55.036,-17.334,195.394,1.0
10.3,128.180924,37.939453,6325.0885944,57.259,-17.392,195.342,1.0
10.3166,128.180909,37.939406,6323.400612,59.515,-17.448,195.289,1.0
10.3333,128.180895,37.939358,6321.7098864,61.801,-17.501,195.235,1.0
10.35,128.18088,37.939311,6320.0155032,64.119,-17.553,195.179,1.0
10.3666,128.180865,37.939263,6318.318072,66.466,-17.603,195.123,1.0
10.3833,128.180851,37.939216,6316.617288,68.842,-17.65,195.066,1.0
10.4,128.180836,37.939169,6314.9131512,71.247,-17.696,195.008,1.0
10.4166,128.180821,37.939121,6313.2056616,73.681,-17.739,194.95,1.0
10.4333,128.180807,37.939074,6311.495124000001,76.136,-17.775,194.911,1.0
10.45,128.180792,37.939026,6309.7815384000005,78.609,-17.802,194.902,1.0
10.4666,128.180777,37.938979,6308.064600000001,81.1,-17.824,194.916,1.0
10.4833,128.180763,37.938931,6306.3443088,83.614,-17.844,194.943,1.0
10.5,128.180748,37.938884,6304.620664800001,86.151,-17.864,194.973,1.0
10.5166,128.180733,37.938836,6302.8939728000005,88.711,-17.884,195.001,1.0
10.5333,128.180718,37.938789,6301.164232800001,91.277,-17.906,195.047,1.0
10.55,128.180703,37.938741,6299.4314448000005,93.836,-17.93,195.131,1.0
10.5666,128.180689,37.938694,6297.6949992,96.389,-17.959,195.252,1.0
10.5833,128.180674,37.938646,6295.955505600001,98.937,-17.995,195.395,1.0
10.6,128.180659,37.938598,6294.212354400001,101.486,-18.037,195.544,1.0
10.6166,128.180644,37.938551,6292.4655456,104.037,-18.085,195.689,1.0
10.6333,128.180629,37.938503,6290.7144696000005,106.467,-18.135,195.852,1.0
10.65,128.180614,37.938456,6288.9591264,108.774,-18.194,196.049,1.0
10.6666,128.180599,37.938408,6287.199516,110.971,-18.271,196.283,1.0
10.6833,128.180583,37.938361,6285.434724000001,113.079,-18.367,196.534,1.0
10.7,128.180568,37.938313,6283.6650552,115.118,-18.477,196.787,1.0
10.7166,128.180553,37.938266,6281.8902048,117.108,-18.599,197.031,1.0
10.7333,128.180537,37.938218,6280.1080392,118.921,-18.73,197.287,1.0
10.75,128.180522,37.938171,6278.319472800001,120.568,-18.878,197.571,1.0
10.7666,128.180506,37.938123,6276.523591200001,122.072,-19.05,197.882,1.0
10.7833,128.180491,37.938076,6274.7200896,123.462,-19.242,198.203,1.0
10.8,128.180475,37.938028,6272.9083584,124.765,-19.449,198.518,1.0
10.8166,128.180459,37.937981,6271.0890072,126.005,-19.662,198.818,1.0
10.8333,128.180443,37.937934,6269.259597600001,127.101,-19.886,199.123,1.0
10.85,128.180427,37.937887,6267.4204344,128.066,-20.122,199.437,1.0
10.8666,128.18041,37.937839,6265.570908,128.927,-20.365,199.752,1.0
10.8833,128.180394,37.937792,6263.7113232,129.704,-20.614,200.057,1.0
10.9,128.180378,37.937745,6261.8413752,130.419,-20.864,200.347,1.0
10.9166,128.180361,37.937698,6259.961064,131.089,-21.113,200.619,1.0
10.9333,128.180344,37.937651,6258.0685608,131.679,-21.356,200.879,1.0
10.95,128.180328,37.937604,6256.164170400001,132.202,-21.594,201.126,1.0
10.9666,128.180311,37.937557,6254.2485024,132.671,-21.827,201.362,1.0
10.9833,128.180294,37.93751,6252.320642400001,133.099,-22.057,201.585,1.0
11.0,128.180277,37.937464,6250.381200000001,133.493,-22.283,201.797,1.0
11.0166,128.180259,37.937417,6248.4295656,133.863,-22.507,201.999,1.0
11.0333,128.180242,37.93737,6246.4666536,134.261,-22.73,202.189,1.0
11.05,128.180225,37.937323,6244.4918544,134.69,-22.953,202.368,1.0
11.0666,128.180207,37.937277,6242.5054728000005,135.148,-23.174,202.538,1.0
11.0833,128.180189,37.93723,6240.5072040000005,135.635,-23.392,202.701,1.0
11.1,128.180172,37.937184,6238.4964384,136.145,-23.607,202.859,1.0
11.1166,128.180154,37.937138,6236.473176,136.675,-23.818,203.011,1.0
11.1333,128.180136,37.937091,6234.4368072,137.191,-24.024,203.16,1.0
11.15,128.180118,37.937045,6232.3867224000005,137.691,-24.227,203.306,1.0
11.1666,128.1801,37.936999,6230.323531200001,138.174,-24.427,203.448,1.0
11.1833,128.180082,37.936953,6228.246928800001,138.643,-24.626,203.585,1.0
11.2,128.180063,37.936906,6226.156915200001,139.099,-24.825,203.718,1.0
11.2166,128.180045,37.93686,6224.053490400001,139.546,-25.023,203.846,1.0
11.2333,128.180026,37.936815,6221.9351304,139.96,-25.219,203.972,1.0
11.25,128.180008,37.936769,6219.8027496,140.344,-25.415,204.096,1.0
11.2666,128.179989,37.936723,6217.6563479999995,140.702,-25.609,204.217,1.0
11.2833,128.17997,37.936677,6215.495620799999,141.039,-25.804,204.336,1.0
11.3,128.179951,37.936632,6213.3208728,141.36,-25.998,204.451,1.0
11.3166,128.179932,37.936586,6211.132104,141.666,-26.193,204.564,1.0
11.3333,128.179913,37.936541,6208.9280952,141.948,-26.388,204.674,1.0
11.35,128.179894,37.936495,6206.7097608,142.208,-26.581,204.784,1.0
11.3666,128.179875,37.93645,6204.476796000001,142.449,-26.775,204.892,1.0
11.3833,128.179855,37.936405,6202.2295056,142.676,-26.968,204.999,1.0
11.4,128.179836,37.936359,6199.9675848,142.891,-27.161,205.103,1.0
11.4166,128.179816,37.936314,6197.691338400001,143.096,-27.354,205.205,1.0
11.4333,128.179796,37.936269,6195.3998520000005,143.287,-27.547,205.307,1.0
11.45,128.179777,37.936224,6193.09404,143.465,-27.739,205.407,1.0
11.4666,128.179757,37.936179,6190.7732928000005,143.633,-27.93,205.507,1.0
11.4833,128.179737,37.936135,6188.437915200001,143.793,-28.122,205.606,1.0
11.5,128.179717,37.93609,6186.0879072,143.945,-28.313,205.703,1.0
11.5166,128.179697,37.936045,6183.7229640000005,144.092,-28.504,205.799,1.0
11.5333,128.179677,37.936001,6181.3433904,144.232,-28.694,205.895,1.0
11.55,128.179657,37.935956,6178.9488816,144.364,-28.884,205.99,1.0
11.5666,128.179636,37.935912,6176.5394376,144.491,-29.073,206.084,1.0
11.5833,128.179616,37.935868,6174.1153632000005,144.613,-29.262,206.178,1.0
11.6,128.179595,37.935824,6171.6763536,144.731,-29.451,206.271,1.0
11.6166,128.179575,37.935779,6169.2224088,144.845,-29.639,206.364,1.0
11.6333,128.179554,37.935735,6166.753528800001,144.955,-29.827,206.456,1.0
11.65,128.179534,37.935691,6164.2700184000005,145.061,-30.015,206.548,1.0
11.6666,128.179513,37.935648,6161.771268,145.164,-30.202,206.639,1.0
11.6833,128.179492,37.935604,6159.2578872,145.263,-30.389,206.731,1.0
11.7,128.179471,37.93556,6156.7292664,145.36,-30.576,206.822,1.0
11.7166,128.17945,37.935516,6154.186015200001,145.455,-30.762,206.912,1.0
11.7333,128.179429,37.935473,6151.6278288,145.546,-30.948,207.003,1.0
11.75,128.179408,37.935429,6149.0544024,145.635,-31.134,207.093,1.0
11.7666,128.179387,37.935386,6146.466345600001,145.721,-31.32,207.183,1.0
11.7833,128.179365,37.935343,6143.8630488,145.805,-31.505,207.273,1.0
11.8,128.179344,37.9353,6141.2451216,145.887,-31.69,207.363,1.0
11.8166,128.179322,37.935257,6138.6119544,145.967,-31.875,207.453,1.0
11.8333,128.179301,37.935214,6135.963852000001,146.045,-32.059,207.543,1.0
11.85,128.179279,37.935171,6133.3011192,146.12,-32.244,207.633,1.0
11.8666,128.179258,37.935128,6130.6231464,146.194,-32.428,207.723,1.0
11.8833,128.179236,37.935085,6127.9299336,146.266,-32.612,207.813,1.0
11.9,128.179214,37.935043,6125.2220904000005,146.336,-32.795,207.902,1.0
11.9166,128.179192,37.935,6122.499312,146.404,-32.979,207.992,1.0
11.9333,128.17917,37.934958,6119.7612936,146.471,-33.162,208.082,1.0
11.95,128.179149,37.934915,6117.00834,146.535,-33.345,208.172,1.0
11.9666,128.179126,37.934873,6114.240756000001,146.598,-33.528,208.262,1.0
11.9833,128.179104,37.934831,6111.457932,146.659,-33.711,208.353,1.0
12.0,128.179082,37.934789,6108.6601728000005,146.719,-33.894,208.443,1.0
12.0166,128.17906,37.934747,6105.847478400001,146.777,-34.077,208.533,1.0
12.0333,128.179038,37.934705,6103.019544,146.835,-34.258,208.625,1.0
12.05,128.179015,37.934663,6100.1769792000005,146.891,-34.44,208.718,1.0
12.0666,128.178993,37.934621,6097.3194792,146.946,-34.62,208.812,1.0
12.0833,128.17897,37.93458,6094.4467392,147.0,-34.801,208.906,1.0
12.1,128.178948,37.934538,6091.559368800001,147.051,-34.981,209.0,1.0
12.1166,128.178925,37.934497,6088.6567584,147.1,-35.161,209.094,1.0
12.1333,128.178903,37.934455,6085.7392128,147.147,-35.341,209.188,1.0
12.15,128.17888,37.934414,6082.807036800001,147.192,-35.522,209.283,1.0
12.1666,128.178857,37.934373,6079.8596208,147.235,-35.702,209.378,1.0
12.1833,128.178834,37.934332,6076.897574400001,147.276,-35.882,209.473,1.0
12.2,128.178812,37.934291,6073.920592800001,147.317,-36.061,209.568,1.0
12.2166,128.178789,37.93425,6070.9286759999995,147.355,-36.241,209.663,1.0
12.2333,128.178766,37.93421,6067.921824000001,147.392,-36.421,209.759,1.0
12.25,128.178743,37.934169,6064.900036800001,147.428,-36.6,209.854,1.0
12.2666,128.178719,37.934128,6061.8636192,147.462,-36.78,209.951,1.0
12.2833,128.178696,37.934088,6058.8122664,147.494,-36.959,210.047,1.0
12.3,128.178673,37.934048,6055.7459784,147.526,-37.139,210.144,1.0
12.3166,128.17865,37.934007,6052.6647552,147.556,-37.318,210.24,1.0
12.3333,128.178627,37.933967,6049.568901600001,147.584,-37.497,210.338,1.0
12.35,128.178603,37.933927,6046.4581128,147.612,-37.676,210.435,1.0
12.3666,128.17858,37.933887,6043.332693599999,147.637,-37.855,210.533,1.0
12.3833,128.178556,37.933848,6040.1923392,147.662,-38.033,210.631,1.0
12.4,128.178533,37.933808,6037.0373544,147.685,-38.212,210.73,1.0
12.4166,128.178509,37.933768,6033.8677392,147.707,-38.391,210.828,1.0
12.4333,128.178486,37.933729,6030.682884000001,147.73,-38.568,210.929,1.0
12.45,128.178462,37.933689,6027.4837032,147.752,-38.745,211.033,1.0
12.4666,128.178438,37.93365,6024.2695872,147.773,-38.92,211.138,1.0
12.4833,128.178415,37.933611,6021.0408408,147.793,-39.096,211.243,1.0
12.5,128.178391,37.933572,6017.7971592,147.81,-39.271,211.349,1.0
12.5166,128.178367,37.933533,6014.539152000001,147.825,-39.447,211.455,1.0
12.5333,128.178343,37.933494,6011.2662096,147.838,-39.622,211.562,1.0
12.55,128.178319,37.933455,6007.9786368000005,147.848,-39.798,211.668,1.0
12.5666,128.178295,37.933416,6004.6767384,147.857,-39.973,211.775,1.0
12.5833,128.178271,37.933378,6001.359904800001,147.864,-40.149,211.882,1.0
12.6,128.178247,37.933339,5998.028440800001,147.87,-40.324,211.989,1.0
12.6166,128.178223,37.933301,5994.682651200001,147.875,-40.499,212.097,1.0
12.6333,128.178199,37.933263,5991.3222312,147.878,-40.675,212.205,1.0
12.65,128.178175,37.933225,5987.9471808,147.88,-40.85,212.314,1.0
12.6666,128.17815,37.933187,5984.5575,147.881,-41.025,212.423,1.0
12.6833,128.178126,37.933149,5981.1534936,147.881,-41.2,212.532,1.0
12.7,128.178102,37.933111,5977.734856800001,147.879,-41.375,212.642,1.0
12.7166,128.178078,37.933073,5974.3018944000005,147.877,-41.55,212.752,1.0
12.7333,128.178053,37.933036,5970.854606400001,147.873,-41.725,212.863,1.0
12.75,128.178029,37.932998,5967.392688000001,147.868,-41.9,212.974,1.0
12.7666,128.178004,37.932961,5963.9161392,147.862,-42.075,213.086,1.0
12.7833,128.17798,37.932924,5960.425569600001,147.855,-42.249,213.198,1.0
12.8,128.177955,37.932887,5956.9203696,147.847,-42.424,213.31,1.0
12.8166,128.177931,37.93285,5953.4011488,147.838,-42.598,213.423,1.0
12.8333,128.177906,37.932813,5949.867297600001,147.828,-42.773,213.537,1.0
12.85,128.177881,37.932776,5946.3191208,147.816,-42.947,213.651,1.0
12.8666,128.177857,37.932739,5942.756618400001,147.803,-43.121,213.765,1.0
12.8833,128.177832,37.932703,5939.1800952,147.79,-43.296,213.88,1.0
12.9,128.177807,37.932667,5935.589246400001,147.775,-43.47,213.995,1.0
12.9166,128.177782,37.93263,5931.984072,147.759,-43.644,214.111,1.0
12.9333,128.177758,37.932594,5928.364572,147.742,-43.818,214.228,1.0
12.95,128.177733,37.932558,5924.7310512,147.724,-43.992,214.345,1.0
12.9666,128.177708,37.932522,5921.0835096,147.705,-44.166,214.462,1.0
12.9833,128.177683,37.932486,5917.421642400001,147.684,-44.339,214.581,1.0
13.0,128.177658,37.93245,5913.7457544,147.663,-44.513,214.699,1.0
13.0166,128.177633,37.932415,5910.0555408,147.64,-44.687,214.819,1.0
13.0333,128.177608,37.932379,5906.351306400001,147.617,-44.86,214.938,1.0
13.0499,128.177583,37.932344,5902.6330512,147.592,-45.034,215.059,1.0
13.0666,128.177558,37.932309,5898.90108,147.566,-45.207,215.18,1.0
13.0833,128.177533,37.932274,5895.154783200001,147.539,-45.381,215.302,1.0
13.1,128.177508,37.932239,5891.3944656,147.511,-45.554,215.424,1.0
13.1166,128.177483,37.932204,5887.620432000001,147.482,-45.727,215.547,1.0
13.1333,128.177457,37.932169,5883.832377600001,147.452,-45.9,215.67,1.0
13.15,128.177432,37.932134,5880.0303023999995,147.42,-46.073,215.795,1.0
13.1666,128.177407,37.9321,5876.214511200001,147.388,-46.246,215.92,1.0
13.1833,128.177382,37.932065,5872.3846992,147.354,-46.419,216.045,1.0
13.2,128.177356,37.932031,5868.5411712,147.319,-46.591,216.171,1.0
13.2166,128.177331,37.931997,5864.6836224,147.283,-46.764,216.298,1.0
13.2333,128.177306,37.931963,5860.8123576,147.246,-46.937,216.426,1.0
13.25,128.17728,37.931929,5856.9276816,147.208,-47.109,216.554,1.0
13.2666,128.177255,37.931895,5853.0289848,147.168,-47.281,216.683,1.0
13.2833,128.17723,37.931862,5849.116572,147.128,-47.454,216.813,1.0
13.3,128.177204,37.931828,5845.1904432,147.086,-47.626,216.943,1.0
13.3166,128.177179,37.931795,5841.2509032,147.043,-47.798,217.075,1.0
13.3333,128.177153,37.931761,5837.297647200001,146.999,-47.97,217.207,1.0
13.35,128.177128,37.931728,5833.3306752,146.954,-48.142,217.339,1.0
13.3666,128.177102,37.931695,5829.350292000001,146.907,-48.313,217.473,1.0
13.3833,128.177077,37.931662,5825.356192800001,146.86,-48.485,217.607,1.0
13.4,128.177051,37.931629,5821.3486824,146.811,-48.657,217.742,1.0
13.4166,128.177026,37.931597,5817.327760800001,146.761,-48.828,217.878,1.0
13.4333,128.177,37.931564,5813.2931232,146.71,-48.999,218.015,1.0
13.45,128.176974,37.931532,5809.245379200001,146.657,-49.171,218.152,1.0
13.4666,128.176949,37.9315,5805.1842240000005,146.603,-49.342,218.291,1.0
13.4833,128.176923,37.931467,5801.1093528,146.548,-49.513,218.43,1.0
13.5,128.176898,37.931435,5797.0213752,146.492,-49.684,218.57,1.0
13.5166,128.176872,37.931404,5792.9202912,146.435,-49.855,218.711,1.0
13.5333,128.176846,37.931372,5788.805491200001,146.376,-50.025,218.853,1.0
13.55,128.17682,37.93134,5784.6778896,146.316,-50.196,218.996,1.0
13.5666,128.176795,37.931309,5780.5368768,146.255,-50.366,219.14,1.0
13.5833,128.176769,37.931277,5776.3824528,146.193,-50.537,219.284,1.0
13.6,128.176743,37.931246,5772.2152272,146.129,-50.707,219.43,1.0
13.6166,128.176717,37.931215,5768.0345904000005,146.064,-50.877,219.576,1.0
13.6333,128.176692,37.931184,5763.841152000001,145.997,-51.047,219.724,1.0
13.65,128.176666,37.931153,5759.6343024,145.93,-51.217,219.872,1.0
13.6666,128.17664,37.931123,5755.414651200001,145.861,-51.386,220.022,1.0
13.6833,128.176614,37.931092,5751.1818936,145.79,-51.556,220.172,1.0
13.7,128.176588,37.931062,5746.936334399999,145.719,-51.725,220.324,1.0
13.7166,128.176562,37.931031,5742.6776688,145.646,-51.895,220.477,1.0
13.7333,128.176537,37.931001,5738.406201600001,145.571,-52.064,220.63,1.0
13.75,128.176511,37.930971,5734.121932800001,145.495,-52.233,220.785,1.0
13.7666,128.176485,37.930941,5729.8245576,145.418,-52.402,220.941,1.0
13.7833,128.176459,37.930911,5725.5143808,145.34,-52.57,221.097,1.0
13.8,128.176433,37.930882,5721.1917072,145.26,-52.739,221.255,1.0
13.8166,128.176407,37.930852,5716.856232,145.178,-52.907,221.414,1.0
13.8333,128.176381,37.930823,5712.507955200001,145.096,-53.076,221.575,1.0
13.85,128.176355,37.930794,5708.1468768,145.011,-53.244,221.736,1.0
13.8666,128.176329,37.930765,5703.773301600001,144.926,-53.412,221.899,1.0
13.8833,128.176304,37.930736,5699.3872296,144.839,-53.579,222.062,1.0
13.9,128.176278,37.930707,5694.988356000001,144.75,-53.747,222.227,1.0
13.9166,128.176252,37.930678,5690.5769856,144.66,-53.914,222.394,1.0
13.9333,128.176226,37.93065,5686.1534232,144.568,-54.082,222.561,1.0
13.95,128.1762,37.930621,5681.7170592,144.475,-54.249,222.73,1.0
13.9666,128.176174,37.930593,5677.2685032,144.38,-54.416,222.9,1.0
13.9833,128.176148,37.930565,5672.807145600001,144.284,-54.583,223.071,1.0
14.0,128.176122,37.930537,5668.3339008,144.186,-54.749,223.243,1.0
14.0166,128.176096,37.930509,5663.848159200001,144.087,-54.916,223.417,1.0
14.0333,128.17607,37.930482,5659.349920799999,143.986,-55.082,223.592,1.0
14.05,128.176044,37.930454,5654.8397952000005,143.883,-55.248,223.769,1.0
14.0666,128.176018,37.930427,5650.317172800001,143.779,-55.414,223.947,1.0
14.0833,128.175992,37.9304,5645.7823584,143.673,-55.579,224.126,1.0
14.1,128.175966,37.930372,5641.2356568000005,143.565,-55.745,224.307,1.0
14.1166,128.17594,37.930346,5636.6767632,143.456,-55.91,224.49,1.0
14.1333,128.175914,37.930319,5632.1056776000005,143.345,-56.075,224.673,1.0
14.15,128.175888,37.930292,5627.522704800001,143.232,-56.24,224.858,1.0
14.1666,128.175862,37.930265,5622.92754,143.118,-56.405,225.045,1.0
14.1833,128.175836,37.930239,5618.320488,143.002,-56.569,225.233,1.0
14.2,128.17581,37.930213,5613.7015488,142.884,-56.733,225.423,1.0
14.2166,128.175784,37.930187,5609.0707224,142.764,-56.897,225.615,1.0
14.2333,128.175758,37.930161,5604.4283136,142.643,-57.061,225.808,1.0
14.25,128.175732,37.930135,5599.7737128,142.52,-57.224,226.002,1.0
14.2666,128.175706,37.930109,5595.1075296,142.395,-57.388,226.198,1.0
14.2833,128.17568,37.930084,5590.429764,142.268,-57.551,226.396,1.0
14.3,128.175654,37.930058,5585.740111200001,142.139,-57.714,226.596,1.0
14.3166,128.175628,37.930033,5581.038876,142.008,-57.876,226.797,1.0
14.3333,128.175602,37.930008,5576.3260584,141.875,-58.038,227.0,1.0
14.35,128.175576,37.929983,5571.6016584,141.741,-58.201,227.205,1.0
14.3666,128.17555,37.929959,5566.865676,141.604,-58.362,227.411,1.0
