Time,Longitude,Latitude,Altitude,Roll (deg),Pitch (deg),Yaw (deg),Health
0.0,128.181881,37.923646,7000.146528,0.0,-0.003,0.0,1.0
0.0166,128.181881,37.923691,7000.1605488000005,0.0,-0.012,0.0,1.0
0.0333,128.181881,37.923736,7000.173960000001,0.0,-0.025,0.0,1.0
0.05,128.181881,37.923781,7000.186152000001,0.0,-0.039,0.0,1.0
0.0666,128.181881,37.923826,7000.1977344,0.0,-0.054,0.0,1.0
0.0833,128.181881,37.923871,7000.2084024,0.0,-0.069,359.999,1.0
0.1,128.181881,37.923916,7000.218460800001,0.0,-0.085,359.999,1.0
0.1166,128.181881,37.923961,7000.2276048,-0.004,-0.099,359.999,1.0
0.1333,128.181881,37.924005,7000.2361392,-0.012,-0.113,359.997,1.0
0.15,128.181881,37.924051,7000.2443688,-0.028,-0.126,359.995,1.0
0.1666,128.181881,37.924096,7000.251379200001,-0.048,-0.138,359.993,1.0
0.1833,128.181881,37.924141,7000.2580848,-0.07,-0.149,359.99,1.0
0.2,128.181881,37.924186,7000.263876,-0.096,-0.16,359.987,1.0
0.2166,128.181881,37.924231,7000.2690575999995,-0.127,-0.17,359.983,1.0
0.2333,128.181881,37.924276,7000.2733248,-0.163,-0.179,359.979,1.0
0.25,128.181881,37.924321,7000.2772872000005,-0.204,-0.187,359.975,1.0
0.2666,128.181881,37.924366,7000.28064,-0.251,-0.195,359.97,1.0
0.2833,128.181881,37.924411,7000.283078400001,-0.302,-0.202,359.965,1.0
0.3,128.181881,37.924456,7000.285212,-0.359,-0.209,359.96,1.0
0.3166,128.181881,37.924501,7000.2864312,-0.421,-0.216,359.955,1.0
0.3333,128.181881,37.924546,7000.2858216,-0.386,-0.227,359.952,1.0
0.35,128.181881,37.924591,7000.283688,-0.251,-0.24,359.953,1.0
0.3666,128.181881,37.924636,7000.2794208,-0.018,-0.257,359.956,1.0
0.3833,128.181881,37.924681,7000.274544,0.12,-0.275,359.947,1.0
0.4,128.181881,37.924727,7000.2690575999995,0.168,-0.294,359.925,1.0
0.4166,128.181881,37.924772,7000.2632664,0.121,-0.313,359.895,1.0
0.4333,128.181881,37.924817,7000.2574752,-0.022,-0.332,359.861,1.0
0.45,128.181881,37.924862,7000.2519888,-0.262,-0.351,359.826,1.0
0.4666,128.181881,37.924907,7000.2474168,-0.597,-0.369,359.791,1.0
0.4833,128.181881,37.924952,7000.243759200001,-1.025,-0.387,359.756,1.0
0.5,128.181881,37.924998,7000.2413208,-1.541,-0.404,359.722,1.0
0.5166,128.181881,37.925043,7000.241016,-2.141,-0.421,359.69,1.0
0.5333,128.181881,37.925088,7000.24254,-2.824,-0.437,359.658,1.0
0.55,128.181881,37.925133,7000.246197600001,-3.584,-0.452,359.627,1.0
0.5666,128.181881,37.925178,7000.2522936,-4.419,-0.466,359.598,1.0
0.5833,128.181881,37.925223,7000.2599136,-5.326,-0.48,359.569,1.0
0.6,128.181881,37.925269,7000.2696672,-6.3,-0.494,359.541,1.0
0.6166,128.181881,37.925314,7000.2815544000005,-7.34,-0.506,359.515,1.0
0.6333,128.181881,37.925359,7000.295270400001,-8.443,-0.519,359.489,1.0
0.65,128.181881,37.925404,7000.3108152,-9.606,-0.53,359.464,1.0
0.6666,128.181881,37.925449,7000.3281888,-10.825,-0.542,359.439,1.0
0.6833,128.181881,37.925495,7000.347391200001,-12.1,-0.553,359.416,1.0
0.7,128.181881,37.92554,7000.3681176,-13.426,-0.564,359.394,1.0
0.7166,128.18188,37.925585,7000.3906728,-14.803,-0.575,359.372,1.0
0.7333,128.18188,37.92563,7000.4150568000005,-16.227,-0.586,359.351,1.0
0.75,128.18188,37.925675,7000.440964800001,-17.697,-0.597,359.331,1.0
0.7666,128.18188,37.925721,7000.468396800001,-19.21,-0.607,359.311,1.0
0.7833,128.18188,37.925766,7000.4973528,-20.765,-0.618,359.293,1.0
0.8,128.18188,37.925811,7000.5275280000005,-22.359,-0.629,359.275,1.0
0.8166,128.18188,37.925856,7000.559532,-23.991,-0.64,359.258,1.0
0.8333,128.181879,37.925901,7000.5924504,-25.658,-0.651,359.241,1.0
0.85,128.181879,37.925947,7000.626892800001,-27.36,-0.662,359.226,1.0
0.8666,128.181879,37.925992,7000.662554400001,-29.095,-0.674,359.211,1.0
0.8833,128.181879,37.926037,7000.6994352,-30.861,-0.686,359.197,1.0
0.9,128.181878,37.926082,7000.7369256,-32.651,-0.698,359.184,1.0
0.9166,128.181878,37.926128,7000.7747208,-34.458,-0.709,359.173,1.0
0.9333,128.181878,37.926173,7000.8128208,-36.273,-0.721,359.163,1.0
0.95,128.181877,37.926218,7000.8512256,-38.091,-0.732,359.155,1.0
0.9666,128.181877,37.926263,7000.8890208,-39.906,-0.743,359.149,1.0
0.9833,128.181876,37.926309,7000.926816,-41.711,-0.753,359.145,1.0
1.0,128.181876,37.926354,7000.964306400001,-43.504,-0.763,359.142,1.0
1.0166,128.181875,37.926399,7001.000882400001,-45.278,-0.773,359.141,1.0
1.0333,128.181875,37.926444,7001.0368488,-47.03,-0.782,359.141,1.0
1.05,128.181874,37.92649,7001.071900800001,-48.757,-0.791,359.142,1.0
1.0666,128.181874,37.926535,7001.1057336,-50.456,-0.8,359.144,1.0
1.0833,128.181873,37.92658,7001.138652000001,-52.123,-0.809,359.147,1.0
1.1,128.181873,37.926625,7001.1700464000005,-53.756,-0.817,359.151,1.0
1.1166,128.181872,37.926671,7001.2002216,-55.352,-0.825,359.156,1.0
1.1333,128.181871,37.926716,7001.2288728,-56.909,-0.832,359.162,1.0
1.15,128.181871,37.926761,7001.2556952,-58.424,-0.839,359.168,1.0
1.1666,128.18187,37.926807,7001.2809936,-59.894,-0.846,359.175,1.0
1.1833,128.181869,37.926852,7001.3044632,-61.318,-0.852,359.182,1.0
1.2,128.181868,37.926897,7001.3257992,-62.693,-0.858,359.19,1.0
1.2166,128.181868,37.926943,7001.345001600001,-64.015,-0.863,359.199,1.0
1.2333,128.181867,37.926988,7001.362375199999,-65.284,-0.867,359.208,1.0
1.25,128.181866,37.927033,7001.377310400001,-66.496,-0.871,359.217,1.0
1.2666,128.181865,37.927079,7001.3898072,-67.65,-0.875,359.227,1.0
1.2833,128.181865,37.927124,7001.400170400001,-68.743,-0.878,359.237,1.0
1.3,128.181864,37.92717,7001.4080952,-69.773,-0.881,359.247,1.0
1.3166,128.181863,37.927215,7001.4132768,-70.737,-0.883,359.257,1.0
1.3333,128.181862,37.92726,7001.416020000001,-71.633,-0.885,359.268,1.0
1.35,128.181861,37.927306,7001.416020000001,-72.459,-0.886,359.278,1.0
1.3666,128.18186,37.927351,7001.4126672,-73.144,-0.883,359.291,1.0
1.3833,128.18186,37.927397,7001.4065712,-73.694,-0.875,359.304,1.0
1.4,128.181859,37.927442,7001.397732,-74.112,-0.865,359.319,1.0
1.4166,128.181858,37.927488,7001.38554,-74.4,-0.854,359.333,1.0
1.4333,128.181857,37.927533,7001.3703000000005,-74.562,-0.844,359.349,1.0
1.45,128.181856,37.927579,7001.3517071999995,-74.605,-0.833,359.364,1.0
1.4666,128.181856,37.927624,7001.3297616,-74.532,-0.823,359.38,1.0
1.4833,128.181855,37.92767,7001.304768,-74.351,-0.811,359.396,1.0
1.5,128.181854,37.927715,7001.2767264,-74.104,-0.799,359.413,1.0
1.5166,128.181854,37.927761,7001.245332,-73.791,-0.783,359.431,1.0
1.5333,128.181853,37.927806,7001.2108896,-73.403,-0.763,359.45,1.0
1.55,128.181852,37.927852,7001.175228000001,-73.107,-0.756,359.451,1.0
1.5666,128.181851,37.927898,7001.1368232,-72.886,-0.759,359.42,1.0
1.5833,128.181851,37.927943,7001.0962848,-72.756,-0.76,359.347,1.0
1.6,128.18185,37.927989,7001.0536128,-72.725,-0.753,359.219,1.0
1.6166,128.181849,37.928034,7001.009112,-72.796,-0.729,359.029,1.0
1.6333,128.181848,37.92808,7000.963087200001,-72.968,-0.686,358.769,1.0
1.65,128.181847,37.928126,7000.9155384000005,-73.24,-0.621,358.438,1.0
1.6666,128.181847,37.928171,7000.8670752,-73.607,-0.54,358.047,1.0
1.6833,128.181846,37.928217,7000.817088000001,-74.067,-0.445,357.608,1.0
1.7,128.181844,37.928263,7000.766796000001,-74.616,-0.344,357.137,1.0
1.7166,128.181843,37.928308,7000.7155896,-75.249,-0.24,356.65,1.0
1.7333,128.181842,37.928354,7000.6637736,-75.963,-0.141,356.164,1.0
1.75,128.181841,37.9284,7000.6116528,-76.753,-0.051,355.693,1.0
1.7666,128.181839,37.928445,7000.5592272,-77.617,0.026,355.256,1.0
1.7833,128.181838,37.928491,7000.506192000001,-78.549,0.086,354.867,1.0
1.8,128.181836,37.928537,7000.4525472000005,-79.548,0.127,354.542,1.0
1.8166,128.181834,37.928582,7000.398597600001,-80.609,0.148,354.297,1.0
1.8333,128.181832,37.928628,7000.343428800001,-81.732,0.147,354.147,1.0
1.85,128.18183,37.928674,7000.2870408,-82.914,0.126,354.099,1.0
1.8666,128.181828,37.928719,7000.2294336,-84.155,0.09,354.14,1.0
1.8833,128.181826,37.928765,7000.1703024,-85.453,0.044,354.256,1.0
1.9,128.181824,37.92881,7000.109342400001,-86.81,-0.007,354.429,1.0
1.9166,128.181821,37.928856,7000.0462488,-88.226,-0.061,354.644,1.0
1.9333,128.181819,37.928902,6999.9810216000005,-89.701,-0.114,354.884,1.0
1.95,128.181816,37.928947,6999.913356000001,-91.236,-0.164,355.131,1.0
1.9666,128.181813,37.928993,6999.842642400001,-92.83,-0.21,355.369,1.0
1.9833,128.181811,37.929039,6999.7691856,-94.485,-0.253,355.582,1.0
2.0,128.181808,37.929084,6999.6926808,-96.199,-0.293,355.758,1.0
2.0166,128.181805,37.92913,6999.613128000001,-97.971,-0.331,355.902,1.0
2.0333,128.181802,37.929175,6999.5299176,-99.8,-0.368,356.021,1.0
2.05,128.181799,37.929221,6999.4433544,-101.685,-0.403,356.12,1.0
2.0666,128.181796,37.929267,6999.352828800001,-103.621,-0.436,356.205,1.0
2.0833,128.181792,37.929312,6999.258645600001,-105.608,-0.468,356.279,1.0
2.1,128.181789,37.929358,6999.160804800001,-107.642,-0.498,356.343,1.0
2.1166,128.181786,37.929403,6999.058696800001,-109.722,-0.528,356.399,1.0
2.1333,128.181783,37.929449,6998.952626400001,-111.844,-0.557,356.449,1.0
2.15,128.181779,37.929495,6998.8422888,-114.008,-0.585,356.493,1.0
2.1666,128.181776,37.92954,6998.727684000001,-116.21,-0.614,356.532,1.0
2.1833,128.181772,37.929586,6998.6082024,-118.451,-0.642,356.567,1.0
2.2,128.181769,37.929632,6998.4847584,-120.728,-0.671,356.599,1.0
2.2166,128.181765,37.929677,6998.3561328000005,-123.04,-0.699,356.627,1.0
2.2333,128.181761,37.929723,6998.22324,-125.386,-0.729,356.652,1.0
2.25,128.181758,37.929768,6998.0851656,-127.764,-0.759,356.674,1.0
2.2666,128.181754,37.929814,6997.942214400001,-130.173,-0.789,356.694,1.0
2.2833,128.18175,37.92986,6997.794386400001,-132.611,-0.82,356.712,1.0
2.3,128.181746,37.929905,6997.6416816,-135.078,-0.851,356.728,1.0
2.3166,128.181742,37.929951,6997.4834904,-137.571,-0.884,356.742,1.0
2.3333,128.181739,37.929996,6997.3204224,-140.089,-0.917,356.755,1.0
2.35,128.181735,37.930042,6997.151868,-142.631,-0.951,356.767,1.0
2.3666,128.181731,37.930088,6996.978132,-145.195,-0.985,356.777,1.0
2.3833,128.181727,37.930133,6996.7989096,-147.779,-1.02,356.787,1.0
2.4,128.181723,37.930179,6996.614200800001,-150.382,-1.056,356.797,1.0
2.4166,128.181719,37.930225,6996.424310400001,-153.002,-1.092,356.805,1.0
2.4333,128.181715,37.93027,6996.2286288000005,-155.637,-1.129,356.814,1.0
2.45,128.181711,37.930316,6996.027460800001,-158.287,-1.165,356.823,1.0
2.4666,128.181707,37.930361,6995.820806400001,-160.949,-1.203,356.831,1.0
2.4833,128.181703,37.930407,6995.608360800001,-163.622,-1.24,356.84,1.0
2.5,128.181699,37.930453,6995.3901240000005,-166.304,-1.277,356.849,1.0
2.5166,128.181695,37.930498,6995.166096000001,-168.994,-1.314,356.858,1.0
2.5333,128.18169,37.930544,6994.9365816,-171.69,-1.351,356.868,1.0
2.55,128.181686,37.93059,6994.701276,-174.391,-1.388,356.878,1.0
2.5666,128.181682,37.930635,6994.4598744,-177.094,-1.424,356.888,1.0
2.5833,128.181678,37.930681,6994.2139008,-179.597,-1.459,356.886,1.0
2.6,128.181674,37.930726,6993.962745600001,178.093,-1.494,356.871,1.0
2.6166,128.18167,37.930772,6993.7073232,175.982,-1.528,356.85,1.0
2.6333,128.181666,37.930818,6993.447633600001,174.069,-1.563,356.825,1.0
2.65,128.181662,37.930863,6993.1821528,172.147,-1.598,356.814,1.0
2.6666,128.181658,37.930909,6992.9108808,170.22,-1.637,356.817,1.0
2.6833,128.181654,37.930955,6992.6335128,168.282,-1.682,356.83,1.0
2.7,128.18165,37.931,6992.3500488,166.325,-1.734,356.849,1.0
2.7166,128.181646,37.931046,6992.0614032,164.552,-1.81,356.865,1.0
2.7333,128.181642,37.931092,6991.7666616,162.953,-1.922,356.878,1.0
2.75,128.181638,37.931137,6991.467348,161.531,-2.055,356.893,1.0
2.7666,128.181634,37.931183,6991.1634624,160.285,-2.196,356.907,1.0
2.7833,128.18163,37.931229,6990.854700000001,159.212,-2.339,356.922,1.0
2.8,128.181626,37.931274,6990.541670400001,158.3,-2.483,356.932,1.0
2.8166,128.181622,37.93132,6990.224373600001,157.541,-2.627,356.937,1.0
2.8333,128.181618,37.931366,6989.903419200001,156.931,-2.774,356.939,1.0
2.85,128.181614,37.931411,6989.5785024,156.468,-2.923,356.939,1.0
2.8666,128.18161,37.931457,6989.2496232,156.148,-3.077,356.942,1.0
2.8833,128.181606,37.931503,6988.917086400001,155.967,-3.238,356.949,1.0
2.9,128.181602,37.931549,6988.581196800001,155.92,-3.408,356.963,1.0
2.9166,128.181598,37.931594,6988.2416496000005,156.001,-3.59,356.984,1.0
2.9333,128.181594,37.93164,6987.8987496,156.204,-3.788,357.013,1.0
2.95,128.18159,37.931686,6987.552496800001,156.523,-4.002,357.052,1.0
2.9666,128.181586,37.931732,6987.2028912000005,156.952,-4.235,357.099,1.0
2.9833,128.181582,37.931778,6986.850237600001,157.486,-4.485,357.154,1.0
3.0,128.181578,37.931824,6986.4942312,158.119,-4.748,357.213,1.0
3.0166,128.181574,37.931869,6986.1339576,158.846,-5.023,357.277,1.0
3.0333,128.18157,37.931915,6985.7697216,159.663,-5.31,357.343,1.0
3.05,128.181566,37.931961,6985.4009136,160.565,-5.607,357.41,1.0
3.0666,128.181563,37.932007,6985.026924000001,161.548,-5.914,357.477,1.0
3.0833,128.181559,37.932053,6984.6480576,162.607,-6.231,357.544,1.0
3.1,128.181555,37.932099,6984.263400000001,163.739,-6.56,357.609,1.0
3.1166,128.181551,37.932145,6983.8717320000005,164.919,-6.899,357.673,1.0
3.1333,128.181547,37.932191,6983.472444,166.119,-7.251,357.737,1.0
3.15,128.181543,37.932237,6983.0652312,167.311,-7.616,357.801,1.0
3.1666,128.181539,37.932283,6982.648874400001,168.475,-7.993,357.864,1.0
3.1833,128.181536,37.932329,6982.222764,169.592,-8.382,357.926,1.0
3.2,128.181532,37.932375,6981.7862904,170.647,-8.78,357.985,1.0
3.2166,128.181528,37.932421,6981.3391488,171.625,-9.18,358.039,1.0
3.2333,128.181525,37.932467,6980.880120000001,172.518,-9.575,358.087,1.0
3.25,128.181521,37.932512,6980.4085944,173.378,-9.961,358.124,1.0
3.2666,128.181517,37.932558,6979.924572,174.171,-10.336,358.152,1.0
3.2833,128.181513,37.932604,6979.4268336000005,174.868,-10.697,358.174,1.0
3.3,128.18151,37.93265,6978.915074400001,175.466,-11.046,358.191,1.0
3.3166,128.181506,37.932696,6978.3886848,175.958,-11.381,358.204,1.0
3.3333,128.181503,37.932742,6977.847055200001,176.34,-11.704,358.214,1.0
3.35,128.181499,37.932788,6977.290490400001,176.622,-12.0,358.224,1.0
3.3666,128.181495,37.932834,6976.718076,176.812,-12.258,358.237,1.0
3.3833,128.181492,37.93288,6976.129812,176.915,-12.473,358.253,1.0
3.4,128.181488,37.932926,6975.5253936,176.93,-12.646,358.271,1.0
3.4166,128.181485,37.932972,6974.9057352,176.858,-12.78,358.289,1.0
3.4333,128.181481,37.933017,6974.270227200001,176.701,-12.881,358.306,1.0
3.45,128.181478,37.933063,6973.619174400001,176.461,-12.956,358.322,1.0
3.4666,128.181474,37.933109,6972.9528816,176.141,-13.013,358.337,1.0
3.4833,128.181471,37.933155,6972.2716536,175.742,-13.057,358.352,1.0
3.5,128.181467,37.933201,6971.5751856,175.267,-13.091,358.365,1.0
3.5166,128.181464,37.933246,6970.863782400001,174.719,-13.117,358.379,1.0
3.5333,128.18146,37.933292,6970.1377488,174.1,-13.138,358.393,1.0
3.55,128.181457,37.933338,6969.3970848,173.411,-13.154,358.407,1.0
3.5666,128.181453,37.933384,6968.642400000001,172.655,-13.169,358.422,1.0
3.5833,128.18145,37.933429,6967.8736944,171.833,-13.182,358.438,1.0
3.6,128.181447,37.933475,6967.090968,170.948,-13.197,358.454,1.0
3.6166,128.181443,37.933521,6966.2945256,170.001,-13.215,358.472,1.0
3.6333,128.18144,37.933566,6965.4843672,168.994,-13.233,358.492,1.0
3.65,128.181437,37.933612,6964.661102399999,167.929,-13.251,358.512,1.0
3.6666,128.181433,37.933657,6963.8247312,166.807,-13.265,358.533,1.0
3.6833,128.18143,37.933703,6962.9755584,165.63,-13.277,358.553,1.0
3.7,128.181427,37.933749,6962.113584000001,164.4,-13.284,358.574,1.0
3.7166,128.181424,37.933794,6961.2391128,163.117,-13.288,358.596,1.0
3.7333,128.181421,37.93384,6960.3524496,161.783,-13.288,358.617,1.0
3.75,128.181418,37.933885,6959.4538992,160.399,-13.286,358.638,1.0
3.7666,128.181415,37.933931,6958.543156800001,158.967,-13.281,358.659,1.0
3.7833,128.181412,37.933976,6957.6211368,157.487,-13.275,358.681,1.0
3.8,128.181409,37.934022,6956.6878392,155.961,-13.267,358.702,1.0
3.8166,128.181406,37.934068,6955.743264000001,154.39,-13.259,358.725,1.0
3.8333,128.181403,37.934113,6954.787716,152.774,-13.25,358.747,1.0
3.85,128.1814,37.934158,6953.8215,151.115,-13.241,358.771,1.0
3.8666,128.181397,37.934204,6952.8449208,149.414,-13.232,358.795,1.0
3.8833,128.181394,37.934249,6951.858283200001,147.672,-13.223,358.82,1.0
3.9,128.181392,37.934295,6950.861892000001,145.889,-13.216,358.846,1.0
3.9166,128.181389,37.93434,6949.8554424,144.067,-13.209,358.874,1.0
3.9333,128.181387,37.934386,6948.8398488,142.207,-13.203,358.902,1.0
3.95,128.181384,37.934431,6947.814806400001,140.31,-13.199,358.933,1.0
3.9666,128.181382,37.934477,6946.780924800001,138.376,-13.195,358.964,1.0
3.9833,128.181379,37.934522,6945.7385088,136.408,-13.192,358.998,1.0
4.0,128.181377,37.934568,6944.6890824,134.61,-13.188,359.015,1.0
4.0166,128.181375,37.934613,6943.632645600001,132.978,-13.175,359.006,1.0
4.0333,128.181372,37.934658,6942.5695032,131.515,-13.147,358.971,1.0
4.05,128.18137,37.934704,6941.4996552,130.216,-13.109,358.919,1.0
4.0666,128.181368,37.934749,6940.424016,129.076,-13.066,358.856,1.0
4.0833,128.181366,37.934795,6939.3428904,128.088,-13.022,358.79,1.0
4.1,128.181364,37.93484,6938.256583200001,127.243,-12.981,358.721,1.0
4.1166,128.181362,37.934886,6937.1653992,126.53,-12.948,358.649,1.0
4.1333,128.18136,37.934931,6936.069948,125.945,-12.924,358.577,1.0
4.15,128.181358,37.934976,6934.9702296,125.483,-12.907,358.505,1.0
4.1666,128.181356,37.935022,6933.866244,125.144,-12.896,358.435,1.0
4.1833,128.181354,37.935067,6932.758600800001,124.925,-12.89,358.368,1.0
4.2,128.181352,37.935113,6931.6473000000005,124.824,-12.887,358.305,1.0
4.2166,128.18135,37.935158,6930.532646400001,124.836,-12.887,358.245,1.0
4.2333,128.181348,37.935204,6929.4149448,124.958,-12.889,358.189,1.0
4.25,128.181346,37.93525,6928.2941952,125.187,-12.892,358.136,1.0
4.2666,128.181344,37.935295,6927.1707024,125.517,-12.896,358.086,1.0
4.2833,128.181342,37.935341,6926.0447712,125.946,-12.902,358.039,1.0
4.3,128.18134,37.935386,6924.915792000001,126.469,-12.908,357.995,1.0
4.3166,128.181338,37.935432,6923.784374400001,127.083,-12.915,357.953,1.0
4.3333,128.181336,37.935478,6922.6502136,127.784,-12.922,357.912,1.0
4.35,128.181334,37.935523,6921.513614400001,128.568,-12.93,357.874,1.0
4.3666,128.181332,37.935569,6920.3745768,129.434,-12.938,357.837,1.0
4.3833,128.18133,37.935615,6919.232796,130.376,-12.946,357.802,1.0
4.4,128.181328,37.93566,6918.088881600001,131.393,-12.954,357.768,1.0
4.4166,128.181326,37.935706,6916.942224,132.481,-12.962,357.735,1.0
4.4333,128.181323,37.935752,6915.793128,133.636,-12.977,357.711,1.0
4.45,128.181321,37.935798,6914.6412887999995,134.853,-13.012,357.708,1.0
4.4666,128.181319,37.935843,6913.486706400001,136.127,-13.075,357.735,1.0
4.4833,128.181317,37.935889,6912.3287712,137.452,-13.179,357.802,1.0
4.5,128.181315,37.935935,6911.1665688,138.764,-13.331,357.916,1.0
4.5166,128.181313,37.935981,6909.9994896,139.976,-13.536,358.085,1.0
4.5333,128.181311,37.936027,6908.826619200001,141.031,-13.801,358.315,1.0
4.55,128.181309,37.936072,6907.6482624,141.934,-14.125,358.597,1.0
4.5666,128.181307,37.936118,6906.4628952,142.673,-14.499,358.918,1.0
4.5833,128.181305,37.936164,6905.2702128,143.251,-14.915,359.267,1.0
4.6,128.181303,37.93621,6904.069300800001,143.677,-15.358,359.631,1.0
4.6166,128.181301,37.936256,6902.8595496,143.958,-15.815,359.998,1.0
4.6333,128.1813,37.936301,6901.6406544,144.105,-16.268,0.358,1.0
4.65,128.181298,37.936347,6900.411396,144.141,-16.701,0.698,1.0
4.6666,128.181296,37.936393,6899.171469600001,144.073,-17.094,1.016,1.0
4.6833,128.181295,37.936439,6897.9208751999995,143.913,-17.432,1.301,1.0
4.7,128.181293,37.936485,6896.6590032,143.666,-17.7,1.54,1.0
4.7166,128.181292,37.93653,6895.3864632,143.34,-17.886,1.721,1.0
4.7333,128.18129,37.936576,6894.102950400001,142.94,-17.98,1.832,1.0
4.75,128.181289,37.936622,6892.8084648,142.468,-17.987,1.874,1.0
4.7666,128.181288,37.936667,6891.5027016,141.924,-17.921,1.858,1.0
4.7833,128.181287,37.936713,6890.1862704000005,141.309,-17.797,1.793,1.0
4.8,128.181286,37.936759,6888.859476,140.622,-17.631,1.692,1.0
4.8166,128.181285,37.936804,6887.5226232,139.861,-17.438,1.566,1.0
4.8333,128.181284,37.93685,6886.1763216,139.024,-17.234,1.427,1.0
4.85,128.181283,37.936896,6884.8205712,138.111,-17.031,1.287,1.0
4.8666,128.181282,37.936941,6883.4559816,137.118,-16.846,1.159,1.0
4.8833,128.181281,37.936987,6882.0825528,136.048,-16.683,1.048,1.0
4.9,128.181281,37.937032,6880.7008944,134.901,-16.541,0.953,1.0
4.9166,128.18128,37.937078,6879.311311200001,133.683,-16.417,0.871,1.0
4.9333,128.18128,37.937124,6877.914108,132.395,-16.308,0.8,1.0
4.95,128.181279,37.937169,6876.5095896,131.042,-16.211,0.736,1.0
4.9666,128.181279,37.937215,6875.098060800001,129.626,-16.124,0.679,1.0
4.9833,128.181278,37.93726,6873.6798264,128.151,-16.047,0.629,1.0
5.0,128.181278,37.937306,6872.2548864,126.62,-15.977,0.583,1.0
5.0166,128.181278,37.937351,6870.8235456,125.036,-15.914,0.542,1.0
5.0333,128.181278,37.937397,6869.3864136,123.4,-15.857,0.504,1.0
5.05,128.181277,37.937442,6867.9431856,121.717,-15.806,0.471,1.0
5.0666,128.181277,37.937488,6866.4941664,119.989,-15.761,0.441,1.0
5.0833,128.181277,37.937533,6865.039965600001,118.218,-15.719,0.415,1.0
5.1,128.181277,37.937579,6863.580278400001,116.406,-15.682,0.391,1.0
5.1166,128.181277,37.937625,6862.1154096,114.557,-15.649,0.37,1.0
5.1333,128.181277,37.93767,6860.6459688,112.671,-15.619,0.352,1.0
5.15,128.181278,37.937716,6859.1716512,110.753,-15.592,0.336,1.0
5.1666,128.181278,37.937761,6857.6930664,108.802,-15.567,0.322,1.0
5.1833,128.181278,37.937807,6856.210519200001,106.871,-15.548,0.308,1.0
5.2,128.181279,37.937852,6854.7240096000005,104.976,-15.534,0.295,1.0
5.2166,128.181279,37.937898,6853.233842400001,103.128,-15.525,0.282,1.0
5.2333,128.181279,37.937943,6851.7403224,101.336,-15.52,0.27,1.0
5.25,128.18128,37.937989,6850.2434496000005,99.605,-15.517,0.258,1.0
5.2666,128.18128,37.938034,6848.743528800001,97.942,-15.517,0.246,1.0
5.2833,128.181281,37.93808,6847.2402552,96.348,-15.518,0.235,1.0
5.3,128.181281,37.938126,6845.7339336000005,94.828,-15.52,0.225,1.0
5.3166,128.181282,37.938171,6844.224564,93.383,-15.524,0.215,1.0
5.3333,128.181282,37.938217,6842.7121464,92.014,-15.529,0.206,1.0
5.35,128.181283,37.938262,6841.1969856000005,90.721,-15.535,0.196,1.0
5.3666,128.181283,37.938308,6839.6790816,89.504,-15.541,0.188,1.0
5.3833,128.181284,37.938354,6838.1581295999995,88.364,-15.548,0.179,1.0
5.4,128.181284,37.938399,6836.6344344,87.301,-15.556,0.171,1.0
5.4166,128.181285,37.938445,6835.107996000001,86.315,-15.564,0.162,1.0
5.4333,128.181286,37.938491,6833.578509600001,85.405,-15.573,0.154,1.0
5.45,128.181286,37.938536,6832.0465848,84.572,-15.583,0.146,1.0
5.4666,128.181287,37.938582,6830.5119168,83.816,-15.593,0.138,1.0
5.4833,128.181287,37.938628,6828.9745056,83.222,-15.609,0.131,1.0
5.5,128.181288,37.938674,6827.4343512000005,82.784,-15.63,0.124,1.0
5.5166,128.181289,37.938719,6825.8914536,82.5,-15.655,0.117,1.0
5.5333,128.181289,37.938765,6824.3452032000005,82.367,-15.68,0.11,1.0
5.55,128.18129,37.938811,6822.7962096,82.381,-15.706,0.103,1.0
5.5666,128.181291,37.938857,6821.2438632,82.535,-15.732,0.096,1.0
5.5833,128.181291,37.938903,6819.688773600001,82.824,-15.758,0.088,1.0
5.6,128.181292,37.938948,6818.1303312,83.241,-15.785,0.081,1.0
5.6166,128.181292,37.938994,6816.5688408000005,83.781,-15.814,0.073,1.0
5.6333,128.181293,37.93904,6815.004912,84.361,-15.845,0.066,1.0
5.65,128.181293,37.939086,6813.4379352,84.985,-15.878,0.059,1.0
5.6666,128.181294,37.939132,6811.868520000001,85.669,-15.915,0.053,1.0
5.6833,128.181294,37.939178,6810.2963616,86.43,-15.957,0.047,1.0
5.7,128.181295,37.939224,6808.721155200001,87.282,-16.004,0.041,1.0
5.7166,128.181295,37.93927,6807.1432056,88.236,-16.054,0.035,1.0
5.7333,128.181296,37.939316,6805.562208,89.29,-16.105,0.029,1.0
5.75,128.181296,37.939362,6803.9781624,90.443,-16.156,0.023,1.0
5.7666,128.181297,37.939408,6802.3910688000005,91.69,-16.207,0.016,1.0
5.7833,128.181297,37.939454,6800.801536800001,93.029,-16.255,0.009,1.0
5.8,128.181297,37.9395,6799.208956800001,94.455,-16.303,0.001,1.0
5.8166,128.181298,37.939546,6797.613633600001,95.965,-16.35,359.993,1.0
5.8333,128.181298,37.939592,6796.0152624,97.554,-16.395,359.984,1.0
5.85,128.181298,37.939638,6794.4144528,99.22,-16.44,359.975,1.0
5.8666,128.181299,37.939685,6792.8112048,100.957,-16.483,359.965,1.0
5.8833,128.181299,37.939731,6791.2052136,102.764,-16.526,359.954,1.0
5.9,128.181299,37.939777,6789.5964792,104.638,-16.567,359.943,1.0
5.9166,128.181299,37.939823,6787.985306400001,106.574,-16.608,359.931,1.0
5.9333,128.1813,37.939869,6786.372,108.57,-16.647,359.919,1.0
5.95,128.1813,37.939916,6784.7559504,110.624,-16.685,359.906,1.0
5.9666,128.1813,37.939962,6783.1377672,112.732,-16.723,359.892,1.0
5.9833,128.1813,37.940008,6781.517145600001,114.888,-16.764,359.89,1.0
6.0,128.1813,37.940054,6779.8943904,117.087,-16.817,359.913,1.0
6.0166,128.181301,37.940101,6778.269196800001,119.324,-16.886,359.968,1.0
6.0333,128.181301,37.940147,6776.64126,121.594,-16.976,0.058,1.0
6.05,128.181301,37.940193,6775.0108848,123.895,-17.089,0.183,1.0
6.0666,128.181301,37.94024,6773.3777664,126.225,-17.226,0.338,1.0
6.0833,128.181301,37.940286,6771.7412952,128.554,-17.385,0.519,1.0
6.1,128.181301,37.940333,6770.1008616,130.86,-17.566,0.722,1.0
6.1166,128.181301,37.940379,6768.456465600001,133.118,-17.767,0.943,1.0
6.1333,128.181302,37.940425,6766.807192800001,135.312,-17.989,1.178,1.0
6.15,128.181302,37.940472,6765.152738400001,137.433,-18.23,1.42,1.0
6.1666,128.181302,37.940518,6763.492492800001,139.472,-18.486,1.664,1.0
6.1833,128.181303,37.940565,6761.8255416,141.424,-18.759,1.907,1.0
6.2,128.181303,37.940611,6760.1512752,143.283,-19.046,2.147,1.0
6.2166,128.181303,37.940657,6758.4693888,145.043,-19.348,2.384,1.0
6.2333,128.181304,37.940704,6756.778663200001,146.696,-19.667,2.618,1.0
6.25,128.181304,37.94075,6755.0784888,148.24,-20.001,2.849,1.0
6.2666,128.181305,37.940797,6753.367951200001,149.666,-20.353,3.078,1.0
6.2833,128.181306,37.940843,6751.6467456,150.976,-20.72,3.305,1.0
6.3,128.181306,37.940889,6749.9136528,152.164,-21.102,3.528,1.0
6.3166,128.181307,37.940936,6748.1686728,153.231,-21.492,3.744,1.0
6.3333,128.181308,37.940982,6746.411500800001,154.183,-21.88,3.948,1.0
6.35,128.181309,37.941028,6744.6412224000005,155.021,-22.262,4.139,1.0
6.3666,128.18131,37.941074,6742.859056800001,155.833,-22.637,4.31,1.0
6.3833,128.181311,37.94112,6741.0640896,156.606,-23.003,4.462,1.0
6.4,128.181312,37.941167,6739.2563208,157.317,-23.358,4.601,1.0
6.4166,128.181313,37.941213,6737.4342264,157.955,-23.7,4.729,1.0
6.4333,128.181315,37.941259,6735.597806400001,158.512,-24.03,4.849,1.0
6.45,128.181316,37.941305,6733.7467560000005,158.986,-24.35,4.96,1.0
6.4666,128.181317,37.941351,6731.8816848,159.383,-24.658,5.064,1.0
6.4833,128.181319,37.941397,6730.001983200001,159.714,-24.958,5.159,1.0
6.5,128.18132,37.941443,6728.107651200001,159.988,-25.249,5.247,1.0
6.5166,128.181322,37.941488,6726.198384000001,160.209,-25.531,5.328,1.0
6.5333,128.181323,37.941534,6724.2738768,160.376,-25.805,5.406,1.0
6.55,128.181325,37.94158,6722.333824800001,160.484,-26.071,5.481,1.0
6.5666,128.181327,37.941626,6720.377618400001,160.526,-26.329,5.561,1.0
6.5833,128.181328,37.941671,6718.404648,160.475,-26.576,5.648,1.0
6.6,128.18133,37.941717,6716.4170472000005,160.386,-26.816,5.739,1.0
6.6166,128.181332,37.941763,6714.413596800001,160.248,-27.049,5.832,1.0
6.6333,128.181334,37.941808,6712.3933824000005,160.047,-27.276,5.927,1.0
6.65,128.181336,37.941854,6710.3567088,159.764,-27.497,6.025,1.0
6.6666,128.181338,37.941899,6708.3032712,159.394,-27.702,6.12,1.0
6.6833,128.18134,37.941944,6706.233374400001,158.939,-27.881,6.208,1.0
6.7,128.181342,37.94199,6704.147323200001,158.404,-28.028,6.285,1.0
6.7166,128.181344,37.942035,6702.045117600001,157.793,-28.14,6.348,1.0
6.7333,128.181347,37.94208,6699.9270624,157.109,-28.216,6.396,1.0
6.75,128.181349,37.942125,6697.7934624,156.355,-28.256,6.429,1.0
6.7666,128.181351,37.94217,6695.6446224,155.533,-28.263,6.447,1.0
6.7833,128.181354,37.942215,6693.481152000001,154.645,-28.237,6.45,1.0
6.8,128.181357,37.94226,6691.3030512000005,153.694,-28.182,6.438,1.0
6.8166,128.181359,37.942305,6689.1112344,152.68,-28.099,6.412,1.0
6.8333,128.181362,37.94235,6686.905701600001,151.605,-27.991,6.371,1.0
6.85,128.181365,37.942395,6684.6870624,150.469,-27.86,6.317,1.0
6.8666,128.181367,37.942439,6682.4559264,149.273,-27.709,6.248,1.0
6.8833,128.18137,37.942484,6680.2129032,148.018,-27.539,6.165,1.0
6.9,128.181373,37.942529,6677.958297600001,146.704,-27.36,6.072,1.0
6.9166,128.181376,37.942573,6675.693938400001,145.549,-27.192,5.953,1.0
6.9333,128.181379,37.942618,6673.4198256,144.544,-27.043,5.812,1.0
6.95,128.181383,37.942663,6671.1365688000005,143.692,-26.912,5.662,1.0
6.9666,128.181386,37.942707,6668.8444728,142.995,-26.796,5.51,1.0
6.9833,128.181389,37.942752,6666.544452000001,142.453,-26.693,5.363,1.0
7.0,128.181392,37.942796,6664.2365064000005,142.061,-26.601,5.222,1.0
7.0166,128.181396,37.942841,6661.9212456000005,141.815,-26.52,5.089,1.0
7.0333,128.181399,37.942885,6659.599279200001,141.71,-26.447,4.964,1.0
7.05,128.181403,37.94293,6657.2712168,141.741,-26.383,4.847,1.0
7.0666,128.181406,37.942974,6654.9370584,141.904,-26.326,4.737,1.0
7.0833,128.181409,37.943019,6652.5974136,142.192,-26.275,4.633,1.0
7.1,128.181413,37.943063,6650.252282400001,142.601,-26.23,4.537,1.0
7.1166,128.181416,37.943108,6647.902884000001,143.126,-26.19,4.445,1.0
7.1333,128.18142,37.943152,6645.548608800001,143.763,-26.154,4.36,1.0
7.15,128.181424,37.943197,6643.1903712,144.508,-26.122,4.279,1.0
7.1666,128.181427,37.943241,6640.828476,145.356,-26.094,4.203,1.0
7.1833,128.181431,37.943286,6638.4632280000005,146.303,-26.068,4.131,1.0
7.2,128.181434,37.94333,6636.0946272,147.345,-26.044,4.062,1.0
7.2166,128.181438,37.943375,6633.722978400001,148.478,-26.023,3.997,1.0
7.2333,128.181441,37.943419,6631.347976800001,149.698,-26.003,3.936,1.0
7.25,128.181445,37.943464,6628.9696224,151.002,-25.985,3.877,1.0
7.2666,128.181448,37.943509,6626.5885248,152.387,-25.968,3.821,1.0
7.2833,128.181452,37.943553,6624.204684000001,153.847,-25.952,3.767,1.0
7.3,128.181455,37.943598,6621.817795200001,155.381,-25.937,3.716,1.0
7.3166,128.181459,37.943643,6619.4281632,156.985,-25.922,3.667,1.0
7.3333,128.181462,37.943687,6617.0354832,158.656,-25.909,3.619,1.0
7.35,128.181466,37.943732,6614.6403648000005,160.391,-25.895,3.574,1.0
7.3666,128.181469,37.943777,6612.242808,162.186,-25.882,3.531,1.0
7.3833,128.181473,37.943822,6609.842508,164.04,-25.869,3.489,1.0
7.4,128.181476,37.943866,6607.439464800001,165.949,-25.857,3.449,1.0
7.4166,128.18148,37.943911,6605.034288000001,167.911,-25.844,3.41,1.0
7.4333,128.181483,37.943956,6602.626368,169.922,-25.832,3.373,1.0
7.45,128.181487,37.944001,6600.216314400001,171.982,-25.819,3.337,1.0
7.4666,128.18149,37.944046,6597.8038224,174.087,-25.806,3.302,1.0
7.4833,128.181494,37.94409,6595.3882824,176.224,-25.793,3.27,1.0
7.5,128.181497,37.944135,6592.9696944,178.375,-25.78,3.241,1.0
7.5166,128.181501,37.94418,6590.5477536,-179.473,-25.767,3.215,1.0
7.5333,128.181504,37.944225,6588.122155200001,-177.331,-25.754,3.193,1.0
7.55,128.181508,37.94427,6585.6938136,-175.2,-25.741,3.174,1.0
7.5666,128.181512,37.944315,6583.261814400001,-173.083,-25.728,3.155,1.0
7.5833,128.181515,37.94436,6580.827072,-170.977,-25.716,3.138,1.0
7.6,128.181519,37.944405,6578.389281600001,-168.878,-25.703,3.121,1.0
7.6166,128.181522,37.94445,6575.948748,-166.779,-25.69,3.103,1.0
7.6333,128.181526,37.944495,6573.505776,-164.673,-25.677,3.085,1.0
7.65,128.181529,37.94454,6571.060365600001,-162.552,-25.663,3.066,1.0
7.6666,128.181533,37.944585,6568.6128216,-160.41,-25.649,3.047,1.0
7.6833,128.181536,37.94463,6566.163144,-158.24,-25.634,3.027,1.0
7.7,128.18154,37.944675,6563.7113328000005,-156.037,-25.618,3.008,1.0
7.7166,128.181543,37.94472,6561.257692800001,-153.8,-25.602,2.989,1.0
7.7333,128.181547,37.944765,6558.8016144,-151.531,-25.585,2.972,1.0
7.75,128.181551,37.944811,6556.3437072,-149.232,-25.567,2.956,1.0
7.7666,128.181554,37.944856,6553.8836664,-146.903,-25.549,2.941,1.0
7.7833,128.181558,37.944901,6551.4211872000005,-144.548,-25.529,2.929,1.0
7.8,128.181561,37.944946,6548.956574400001,-142.168,-25.51,2.919,1.0
7.8166,128.181565,37.944991,6546.489523200001,-139.765,-25.489,2.91,1.0
7.8333,128.181569,37.945037,6544.020033600001,-137.341,-25.468,2.904,1.0
7.85,128.181572,37.945082,6541.548410400001,-134.896,-25.446,2.9,1.0
7.8666,128.181576,37.945127,6539.0743488,-132.434,-25.424,2.898,1.0
7.8833,128.18158,37.945172,6536.597544,-129.95,-25.411,2.887,1.0
7.9,128.181583,37.945218,6534.1176912,-127.439,-25.416,2.851,1.0
7.9166,128.181587,37.945263,6531.6350952,-124.897,-25.446,2.779,1.0
7.9333,128.181591,37.945308,6529.1488416,-122.324,-25.5,2.665,1.0
7.95,128.181594,37.945354,6526.6592352,-119.732,-25.576,2.508,1.0
7.9666,128.181598,37.945399,6524.165361599999,-117.163,-25.676,2.303,1.0
7.9833,128.181602,37.945444,6521.6675256,-114.656,-25.796,2.05,1.0
8.0,128.181605,37.94549,6519.1651176000005,-112.247,-25.934,1.75,1.0
8.0166,128.181609,37.945535,6516.6578328000005,-109.971,-26.083,1.404,1.0
8.0333,128.181612,37.94558,6514.1456712,-107.852,-26.239,1.015,1.0
8.05,128.181616,37.945626,6511.628632800001,-105.915,-26.397,0.582,1.0
8.0666,128.181619,37.945671,6509.106108,-104.17,-26.553,0.108,1.0
8.0833,128.181622,37.945716,6506.578706400001,-102.627,-26.702,359.606,1.0
8.1,128.181625,37.945762,6504.045818400001,-101.289,-26.839,359.098,1.0
8.1166,128.181628,37.945807,6501.5077488,-100.059,-26.952,358.596,1.0
8.1333,128.181631,37.945852,6498.964497600001,-98.956,-27.045,358.111,1.0
8.15,128.181633,37.945897,6496.4163696000005,-97.995,-27.122,357.647,1.0
8.1666,128.181636,37.945943,6493.863974400001,-97.177,-27.189,357.206,1.0
8.1833,128.181638,37.945988,6491.3067024,-96.493,-27.247,356.787,1.0
8.2,128.18164,37.946033,6488.7448584,-95.928,-27.297,356.388,1.0
8.2166,128.181642,37.946079,6486.178442400001,-95.465,-27.339,356.007,1.0
8.2333,128.181644,37.946124,6483.608064,-95.084,-27.374,355.642,1.0
8.25,128.181646,37.946169,6481.0334184,-94.773,-27.401,355.292,1.0
8.2666,128.181647,37.946214,6478.454505600001,-94.522,-27.424,354.957,1.0
8.2833,128.181649,37.946259,6475.8716304,-94.323,-27.445,354.634,1.0
8.3,128.18165,37.946305,6473.285097600001,-94.172,-27.465,354.322,1.0
8.3166,128.181651,37.94635,6470.694297600001,-94.068,-27.486,354.022,1.0
8.3333,128.181652,37.946395,6468.09984,-94.006,-27.509,353.732,1.0
8.35,128.181652,37.94644,6465.502029599999,-93.981,-27.538,353.451,1.0
8.3666,128.181653,37.946485,6462.9002568000005,-93.991,-27.574,353.178,1.0
8.3833,128.181653,37.946531,6460.2945216,-94.041,-27.614,352.913,1.0
8.4,128.181653,37.946576,6457.684824000001,-94.132,-27.658,352.655,1.0
8.4166,128.181653,37.946621,6455.071468800001,-94.265,-27.703,352.402,1.0
8.4333,128.181653,37.946666,6452.453846400001,-94.438,-27.749,352.155,1.0
8.45,128.181652,37.946711,6449.832566399999,-94.649,-27.797,351.913,1.0
8.4666,128.181652,37.946756,6447.2067144,-94.894,-27.845,351.675,1.0
8.4833,128.181651,37.946801,6444.5769,-95.169,-27.895,351.441,1.0
8.5,128.18165,37.946846,6441.943123200001,-95.472,-27.945,351.21,1.0
8.5166,128.181649,37.946891,6439.3047744000005,-95.797,-27.996,350.983,1.0
8.5333,128.181647,37.946936,6436.6618536000005,-96.142,-28.047,350.759,1.0
8.55,128.181646,37.946981,6434.014665600001,-96.502,-28.1,350.537,1.0
8.5666,128.181644,37.947026,6431.362905600001,-96.874,-28.154,350.318,1.0
8.5833,128.181642,37.947071,6428.7065736,-97.255,-28.208,350.101,1.0
8.6,128.18164,37.947116,6426.045669600001,-97.643,-28.264,349.886,1.0
8.6166,128.181638,37.947161,6423.3798888,-98.033,-28.321,349.674,1.0
8.6333,128.181635,37.947206,6420.708926400001,-98.425,-28.38,349.463,1.0
8.65,128.181633,37.947251,6418.033392,-98.815,-28.44,349.254,1.0
8.6666,128.18163,37.947295,6415.3523712,-99.212,-28.502,349.046,1.0
8.6833,128.181627,37.94734,6412.6664736,-99.621,-28.566,348.841,1.0
8.7,128.181624,37.947385,6409.9753944,-100.05,-28.634,348.637,1.0
8.7166,128.18162,37.94743,6407.278524,-100.505,-28.705,348.434,1.0
8.7333,128.181617,37.947474,6404.576472,-100.99,-28.78,348.232,1.0
8.75,128.181613,37.947519,6401.868324000001,-101.509,-28.857,348.032,1.0
8.7666,128.181609,37.947564,6399.1546896,-102.062,-28.937,347.832,1.0
8.7833,128.181605,37.947608,6396.434959200001,-102.652,-29.02,347.633,1.0
8.8,128.181601,37.947653,6393.709132800001,-103.279,-29.105,347.434,1.0
8.8166,128.181596,37.947697,6390.9772104,-103.939,-29.194,347.236,1.0
8.8333,128.181591,37.947742,6388.2388872,-104.633,-29.284,347.038,1.0
8.85,128.181586,37.947786,6385.4941632,-105.357,-29.378,346.84,1.0
8.8666,128.181581,37.94783,6382.742428800001,-106.109,-29.475,346.643,1.0
8.8833,128.181576,37.947875,6379.9842936,-106.882,-29.574,346.446,1.0
8.9,128.181571,37.947919,6377.219148,-107.671,-29.676,346.249,1.0
8.9166,128.181565,37.947963,6374.446992,-108.47,-29.781,346.052,1.0
8.9333,128.181559,37.948007,6371.6678256,-109.273,-29.888,345.856,1.0
8.95,128.181554,37.948052,6368.8810392,-110.075,-29.997,345.66,1.0
8.9666,128.181547,37.948096,6366.087242400001,-110.87,-30.11,345.465,1.0
8.9833,128.181541,37.94814,6363.2858256,-111.654,-30.225,345.271,1.0
9.0,128.181535,37.948184,6360.4767888,-112.421,-30.343,345.077,1.0
9.0166,128.181528,37.948228,6357.660132,-113.169,-30.463,344.885,1.0
9.0333,128.181522,37.948272,6354.8355504,-113.893,-30.586,344.693,1.0
9.05,128.181515,37.948316,6352.003044,-114.591,-30.712,344.503,1.0
9.0666,128.181508,37.948359,6349.1626128,-115.262,-30.84,344.314,1.0
9.0833,128.1815,37.948403,6346.313952,-115.905,-30.971,344.126,1.0
9.1,128.181493,37.948447,6343.4570616,-116.521,-31.104,343.94,1.0
9.1166,128.181486,37.948491,6340.591941600001,-117.11,-31.24,343.756,1.0
9.1333,128.181478,37.948534,6337.7179824,-117.674,-31.378,343.573,1.0
9.15,128.18147,37.948578,6334.8357936,-118.213,-31.518,343.392,1.0
9.1666,128.181462,37.948621,6331.944765600001,-118.728,-31.66,343.213,1.0
9.1833,128.181454,37.948665,6329.0448983999995,-119.222,-31.804,343.036,1.0
9.2,128.181446,37.948708,6326.1358872,-119.694,-31.95,342.86,1.0
9.2166,128.181438,37.948752,6323.218341600001,-120.147,-32.097,342.687,1.0
9.2333,128.181429,37.948795,6320.291347200001,-120.583,-32.246,342.514,1.0
9.25,128.181421,37.948838,6317.355208800001,-121.001,-32.397,342.344,1.0
9.2666,128.181412,37.948881,6314.4099264,-121.404,-32.548,342.175,1.0
9.2833,128.181403,37.948924,6311.4551952,-121.792,-32.701,342.007,1.0
9.3,128.181394,37.948967,6308.491015200001,-122.166,-32.855,341.841,1.0
9.3166,128.181385,37.94901,6305.517386400001,-122.528,-33.009,341.676,1.0
9.3333,128.181376,37.949053,6302.534004,-122.879,-33.165,341.513,1.0
9.35,128.181366,37.949096,6299.5411728,-123.219,-33.322,341.351,1.0
9.3666,128.181357,37.949139,6296.538588,-123.549,-33.479,341.19,1.0
9.3833,128.181347,37.949182,6293.5259448,-123.87,-33.637,341.031,1.0
9.4,128.181337,37.949224,6290.503548,-124.181,-33.795,340.872,1.0
9.4166,128.181327,37.949267,6287.471397600001,-124.485,-33.955,340.715,1.0
9.4333,128.181317,37.94931,6284.428884000001,-124.78,-34.114,340.559,1.0
9.45,128.181307,37.949352,6281.3766168,-125.067,-34.274,340.404,1.0
9.4666,128.181297,37.949395,6278.3139864,-125.349,-34.435,340.25,1.0
9.4833,128.181286,37.949437,6275.240992800001,-125.623,-34.596,340.097,1.0
9.5,128.181275,37.949479,6272.157940800001,-125.893,-34.758,339.944,1.0
9.5166,128.181265,37.949521,6269.0645256,-126.159,-34.92,339.793,1.0
9.5333,128.181254,37.949563,6265.960442400001,-126.42,-35.082,339.643,1.0
9.55,128.181243,37.949605,6262.845996,-126.679,-35.245,339.493,1.0
9.5666,128.181232,37.949647,6259.7208816,-126.935,-35.408,339.344,1.0
9.5833,128.18122,37.949689,6256.5850992000005,-127.189,-35.572,339.196,1.0
9.6,128.181209,37.949731,6253.4389536,-127.441,-35.736,339.048,1.0
9.6166,128.181198,37.949773,6250.2818352,-127.691,-35.9,338.901,1.0
9.6333,128.181186,37.949815,6247.113744,-127.94,-36.064,338.755,1.0
9.65,128.181174,37.949856,6243.9352896,-128.186,-36.229,338.609,1.0
9.6666,128.181162,37.949898,6240.7458624,-128.431,-36.394,338.463,1.0
9.6833,128.18115,37.949939,6237.5454624,-128.673,-36.559,338.318,1.0
9.7,128.181138,37.94998,6234.3340896,-128.913,-36.725,338.173,1.0
9.7166,128.181126,37.950022,6231.111744,-129.149,-36.89,338.029,1.0
9.7333,128.181114,37.950063,6227.8784256,-129.382,-37.056,337.885,1.0
9.75,128.181101,37.950104,6224.6341344,-129.61,-37.222,337.742,1.0
9.7666,128.181089,37.950145,6221.378870400001,-129.835,-37.389,337.598,1.0
9.7833,128.181076,37.950186,6218.112328800001,-130.055,-37.555,337.455,1.0
9.8,128.181063,37.950227,6214.8348144,-130.271,-37.722,337.313,1.0
9.8166,128.18105,37.950268,6211.546327200001,-130.483,-37.888,337.171,1.0
9.8333,128.181037,37.950308,6208.2462576,-130.69,-38.055,337.029,1.0
9.85,128.181024,37.950349,6204.935215200001,-130.892,-38.222,336.888,1.0
9.8666,128.181011,37.95039,6201.6128952,-131.091,-38.389,336.747,1.0
9.8833,128.180997,37.95043,6198.278992800001,-131.285,-38.557,336.606,1.0
9.9,128.180984,37.95047,6194.9341176,-131.474,-38.724,336.465,1.0
9.9166,128.18097,37.950511,6191.577660000001,-131.659,-38.891,336.325,1.0
9.9333,128.180956,37.950551,6188.210229599999,-131.839,-39.059,336.185,1.0
9.95,128.180943,37.950591,6184.830912,-132.015,-39.226,336.045,1.0
9.9666,128.180929,37.950631,6181.4406216,-132.186,-39.393,335.905,1.0
9.9833,128.180915,37.950671,6178.038444,-132.353,-39.561,335.766,1.0
10.0,128.180901,37.950711,6174.6252936,-132.514,-39.728,335.627,1.0
10.0166,128.180886,37.950751,6171.200256000001,-132.671,-39.896,335.487,1.0
10.0333,128.180872,37.95079,6167.7639408000005,-132.822,-40.063,335.348,1.0
10.05,128.180857,37.95083,6164.3160431999995,-132.967,-40.23,335.209,1.0
10.0666,128.180843,37.950869,6160.8565632,-133.107,-40.397,335.07,1.0
10.0833,128.180828,37.950909,6157.385805600001,-133.24,-40.564,334.931,1.0
10.1,128.180813,37.950948,6153.9031608000005,-133.367,-40.73,334.791,1.0
10.1166,128.180799,37.950987,6150.4092384000005,-133.487,-40.897,334.652,1.0
10.1333,128.180784,37.951026,6146.9034288,-133.6,-41.063,334.512,1.0
10.15,128.180769,37.951065,6143.3863416,-133.705,-41.229,334.373,1.0
10.1666,128.180753,37.951104,6139.8573672,-133.803,-41.394,334.233,1.0
10.1833,128.180738,37.951143,6136.3171152,-133.892,-41.559,334.092,1.0
10.2,128.180723,37.951182,6132.764976,-133.974,-41.724,333.952,1.0
10.2166,128.180707,37.95122,6129.2012544,-133.944,-41.876,333.795,1.0
10.2333,128.180692,37.951259,6125.626560000001,-133.808,-42.014,333.621,1.0
10.25,128.180676,37.951297,6122.040892800001,-133.569,-42.145,333.438,1.0
10.2666,128.180661,37.951336,6118.4448624,-133.243,-42.272,333.253,1.0
10.2833,128.180645,37.951374,6114.838468800001,-132.849,-42.401,333.071,1.0
10.3,128.180629,37.951412,6111.220797600001,-132.407,-42.53,332.893,1.0
10.3166,128.180613,37.95145,6107.5921536000005,-131.938,-42.661,332.718,1.0
10.3333,128.180597,37.951488,6103.9525368,-131.46,-42.792,332.547,1.0
10.35,128.180581,37.951526,6100.301337600001,-130.988,-42.923,332.378,1.0
10.3666,128.180565,37.951564,6096.638556000001,-130.534,-43.053,332.211,1.0
10.3833,128.180548,37.951602,6092.964192,-130.104,-43.181,332.044,1.0
10.4,128.180532,37.95164,6089.2785504,-129.705,-43.308,331.877,1.0
10.4166,128.180515,37.951677,6085.5813264,-129.338,-43.434,331.709,1.0
10.4333,128.180498,37.951714,6081.872824800001,-129.006,-43.559,331.54,1.0
10.45,128.180482,37.951752,6078.1530456,-128.708,-43.683,331.369,1.0
10.4666,128.180465,37.951789,6074.421684000001,-128.442,-43.805,331.196,1.0
10.4833,128.180448,37.951826,6070.6793496,-128.205,-43.927,331.021,1.0
10.5,128.180431,37.951863,6066.9257376000005,-127.996,-44.049,330.844,1.0
10.5166,128.180413,37.9519,6063.1611528,-127.812,-44.169,330.664,1.0
10.5333,128.180396,37.951936,6059.3855952,-127.648,-44.289,330.483,1.0
10.55,128.180379,37.951973,6055.599064800001,-127.502,-44.409,330.299,1.0
10.5666,128.180361,37.95201,6051.8018664,-127.371,-44.529,330.114,1.0
10.5833,128.180343,37.952046,6047.9936952,-127.252,-44.649,329.928,1.0
10.6,128.180326,37.952082,6044.174856000001,-127.143,-44.77,329.74,1.0
10.6166,128.180308,37.952118,6040.3453488000005,-127.04,-44.89,329.55,1.0
10.6333,128.18029,37.952154,6036.5051736000005,-126.943,-45.011,329.36,1.0
10.65,128.180272,37.95219,6032.6543304,-126.851,-45.133,329.169,1.0
10.6666,128.180254,37.952226,6028.792819200001,-126.763,-45.254,328.977,1.0
10.6833,128.180235,37.952262,6024.9209448,-126.679,-45.378,328.786,1.0
10.7,128.180217,37.952298,6021.0384023999995,-126.597,-45.505,328.598,1.0
10.7166,128.180198,37.952333,6017.145496800001,-126.517,-45.636,328.413,1.0
10.7333,128.18018,37.952369,6013.242228,-126.443,-45.771,328.231,1.0
10.75,128.180161,37.952404,6009.327986400001,-126.376,-45.908,328.05,1.0
10.7666,128.180142,37.952439,6005.4033816,-126.321,-46.045,327.869,1.0
10.7833,128.180123,37.952474,6001.468108800001,-126.276,-46.183,327.687,1.0
10.8,128.180104,37.952509,5997.5224728,-126.241,-46.321,327.503,1.0
10.8166,128.180085,37.952544,5993.5661688,-126.214,-46.458,327.318,1.0
10.8333,128.180066,37.952579,5989.599501600001,-126.194,-46.595,327.132,1.0
10.85,128.180047,37.952613,5985.6224712,-126.179,-46.732,326.945,1.0
10.8666,128.180027,37.952648,5981.6350776,-126.167,-46.869,326.756,1.0
10.8833,128.180008,37.952682,5977.637016,-126.157,-47.006,326.567,1.0
10.9,128.179988,37.952716,5973.628896,-126.147,-47.143,326.376,1.0
10.9166,128.179968,37.95275,5969.610108,-126.135,-47.28,326.185,1.0
10.9333,128.179949,37.952784,5965.581261599999,-126.121,-47.416,325.992,1.0
10.95,128.179929,37.952818,5961.542052000001,-126.104,-47.552,325.799,1.0
10.9666,128.179909,37.952852,5957.492479200001,-126.081,-47.688,325.604,1.0
10.9833,128.179889,37.952886,5953.4328479999995,-126.053,-47.824,325.408,1.0
11.0,128.179869,37.952919,5949.3625488,-126.019,-47.959,325.212,1.0
11.0166,128.179848,37.952953,5945.282496000001,-125.978,-48.094,325.014,1.0
11.0333,128.179828,37.952986,5941.19208,-125.93,-48.229,324.815,1.0
11.05,128.179807,37.953019,5937.091300800001,-125.875,-48.363,324.616,1.0
11.0666,128.179787,37.953052,5932.9804632000005,-125.812,-48.496,324.415,1.0
11.0833,128.179766,37.953085,5928.8595672,-125.743,-48.629,324.214,1.0
11.1,128.179746,37.953118,5924.728308,-125.667,-48.761,324.011,1.0
11.1166,128.179725,37.953151,5920.5869904,-125.585,-48.893,323.807,1.0
11.1333,128.179704,37.953184,5916.4356144,-125.498,-49.024,323.603,1.0
11.15,128.179683,37.953216,5912.2738752,-125.406,-49.155,323.397,1.0
11.1666,128.179662,37.953248,5908.1023824,-125.311,-49.285,323.19,1.0
11.1833,128.179641,37.953281,5903.9205264,-125.211,-49.415,322.982,1.0
11.2,128.179619,37.953313,5899.728612,-125.108,-49.542,322.771,1.0
11.2166,128.179598,37.953345,5895.5266392,-125.003,-49.668,322.557,1.0
11.2333,128.179577,37.953377,5891.314608,-124.894,-49.787,322.337,1.0
11.25,128.179555,37.953408,5887.092518400001,-124.78,-49.902,322.111,1.0
11.2666,128.179533,37.95344,5882.8606752,-124.659,-50.014,321.882,1.0
11.2833,128.179512,37.953471,5878.619078400001,-124.53,-50.125,321.651,1.0
11.3,128.17949,37.953503,5874.3674232,-124.391,-50.236,321.419,1.0
11.3166,128.179468,37.953534,5870.1057096,-124.244,-50.346,321.187,1.0
11.3333,128.179446,37.953565,5865.834547200001,-124.09,-50.457,320.955,1.0
11.35,128.179424,37.953596,5861.5533264000005,-123.931,-50.568,320.722,1.0
11.3666,128.179402,37.953627,5857.2626568000005,-123.763,-50.678,320.487,1.0
11.3833,128.17938,37.953658,5852.962233600001,-123.586,-50.786,320.251,1.0
11.4,128.179358,37.953688,5848.6520568000005,-123.4,-50.894,320.014,1.0
11.4166,128.179335,37.953719,5844.3324312,-123.205,-51.0,319.775,1.0
11.4333,128.179313,37.953749,5840.003052000001,-123.002,-51.106,319.535,1.0
11.45,128.17929,37.953779,5835.664224000001,-122.792,-51.211,319.294,1.0
11.4666,128.179268,37.953809,5831.315947200001,-122.575,-51.316,319.051,1.0
11.4833,128.179245,37.953839,5826.9579168,-122.352,-51.42,318.808,1.0
11.5,128.179222,37.953869,5822.590742400001,-122.125,-51.523,318.564,1.0
11.5166,128.179199,37.953899,5818.2138144,-121.892,-51.626,318.318,1.0
11.5333,128.179176,37.953929,5813.827742400001,-121.656,-51.728,318.072,1.0
11.55,128.179153,37.953958,5809.4325264,-121.417,-51.829,317.824,1.0
11.5666,128.17913,37.953987,5805.027556800001,-121.176,-51.929,317.575,1.0
11.5833,128.179107,37.954016,5800.613748,-120.934,-52.029,317.325,1.0
11.6,128.179083,37.954046,5796.1904904,-120.69,-52.128,317.074,1.0
11.6166,128.17906,37.954074,5791.7580888,-120.445,-52.227,316.821,1.0
11.6333,128.179037,37.954103,5787.3168479999995,-120.2,-52.325,316.568,1.0
11.65,128.179013,37.954132,5782.8661584,-119.956,-52.422,316.313,1.0
11.6666,128.178989,37.95416,5778.4066296,-119.712,-52.519,316.057,1.0
11.6833,128.178966,37.954189,5773.9379568,-119.469,-52.615,315.799,1.0
11.7,128.178942,37.954217,5769.4604448,-119.227,-52.71,315.54,1.0
11.7166,128.178918,37.954245,5764.9737888,-118.987,-52.805,315.28,1.0
11.7333,128.178894,37.954273,5760.4785984,-118.749,-52.899,315.019,1.0
11.75,128.17887,37.954301,5755.974264,-118.512,-52.993,314.756,1.0
11.7666,128.178846,37.954329,5751.4613952,-118.278,-53.087,314.492,1.0
11.7833,128.178822,37.954356,5746.939687200001,-118.047,-53.18,314.227,1.0
11.8,128.178797,37.954383,5742.40914,-117.818,-53.272,313.961,1.0
11.8166,128.178773,37.954411,5737.8700584,-117.592,-53.364,313.693,1.0
11.8333,128.178748,37.954438,5733.322442400001,-117.368,-53.456,313.424,1.0
11.85,128.178724,37.954465,5728.766292,-117.147,-53.547,313.154,1.0
11.8666,128.178699,37.954492,5724.2016072,-116.928,-53.638,312.883,1.0
11.8833,128.178674,37.954518,5719.6280832,-116.712,-53.728,312.61,1.0
11.9,128.17865,37.954545,5715.0466344,-116.498,-53.818,312.336,1.0
11.9166,128.178625,37.954571,5710.4563464,-116.286,-53.907,312.061,1.0
11.9333,128.1786,37.954598,5705.857828800001,-116.076,-53.996,311.784,1.0
11.95,128.178575,37.954624,5701.2510816,-115.868,-54.085,311.507,1.0
11.9666,128.17855,37.95465,5696.636104800001,-115.662,-54.173,311.228,1.0
11.9833,128.178524,37.954676,5692.0125935999995,-115.457,-54.261,310.948,1.0
12.0,128.178499,37.954701,5687.3811576,-115.254,-54.349,310.666,1.0
12.0166,128.178474,37.954727,5682.741492,-115.051,-54.436,310.384,1.0
12.0333,128.178448,37.954752,5678.0935968,-114.85,-54.523,310.1,1.0
12.05,128.178423,37.954778,5673.4377768,-114.649,-54.61,309.815,1.0
12.0666,128.178397,37.954803,5668.774032,-114.449,-54.696,309.529,1.0
12.0833,128.178371,37.954828,5664.1020576,-114.249,-54.781,309.241,1.0
12.1,128.178346,37.954853,5659.4221584,-114.049,-54.867,308.953,1.0
12.1166,128.17832,37.954877,5654.7343344,-113.849,-54.952,308.663,1.0
12.1333,128.178294,37.954902,5650.0385856,-113.648,-55.036,308.372,1.0
12.15,128.178268,37.954926,5645.3352168,-113.448,-55.12,308.08,1.0
12.1666,128.178242,37.95495,5640.623923200001,-113.247,-55.204,307.786,1.0
12.1833,128.178215,37.954975,5635.9047048,-113.045,-55.287,307.492,1.0
12.2,128.178189,37.954999,5631.177866399999,-112.842,-55.371,307.196,1.0
12.2166,128.178163,37.955022,5626.443408,-112.637,-55.454,306.901,1.0
12.2333,128.178136,37.955046,5621.7013296,-112.431,-55.539,306.604,1.0
12.25,128.17811,37.955069,5616.9516312000005,-112.222,-55.625,306.308,1.0
12.2666,128.178083,37.955093,5612.1946176,-112.012,-55.711,306.011,1.0
12.2833,128.178057,37.955116,5607.4296792000005,-111.801,-55.797,305.714,1.0
12.3,128.17803,37.955139,5602.657425599999,-111.589,-55.884,305.416,1.0
12.3166,128.178003,37.955162,5597.877856800001,-111.377,-55.971,305.117,1.0
12.3333,128.177976,37.955185,5593.090668,-111.165,-56.058,304.817,1.0
12.35,128.177949,37.955207,5588.296164,-110.952,-56.145,304.516,1.0
12.3666,128.177922,37.95523,5583.4940400000005,-110.738,-56.232,304.213,1.0
12.3833,128.177895,37.955252,5578.6849056,-110.524,-56.318,303.91,1.0
12.4,128.177868,37.955274,5573.868456000001,-110.309,-56.404,303.605,1.0
12.4166,128.177841,37.955296,5569.044691200001,-110.094,-56.489,303.299,1.0
12.4333,128.177814,37.955318,5564.213916,-109.877,-56.573,302.992,1.0
12.45,128.177786,37.95534,5559.3758256,-109.659,-56.657,302.683,1.0
12.4666,128.177759,37.955361,5554.530724800001,-109.44,-56.74,302.372,1.0
12.4833,128.177731,37.955383,5549.6783088,-109.22,-56.822,302.06,1.0
12.5,128.177704,37.955404,5544.818882400001,-108.999,-56.903,301.746,1.0
12.5166,128.177676,37.955425,5539.952750400001,-108.777,-56.982,301.431,1.0
12.5333,128.177648,37.955446,5535.0793032,-108.554,-57.06,301.114,1.0
12.55,128.177621,37.955467,5530.1988456,-108.329,-57.137,300.794,1.0
12.5666,128.177593,37.955488,5525.311682400001,-108.103,-57.212,300.473,1.0
12.5833,128.177565,37.955508,5520.4175088,-107.876,-57.285,300.151,1.0
12.6,128.177537,37.955528,5515.5166296,-107.647,-57.357,299.826,1.0
12.6166,128.177509,37.955548,5510.6090448,-107.416,-57.426,299.499,1.0
12.6333,128.177481,37.955568,5505.6947544,-107.183,-57.494,299.171,1.0
12.65,128.177452,37.955588,5500.7734536,-106.948,-57.561,298.841,1.0
12.6666,128.177424,37.955608,5495.845752000001,-106.711,-57.625,298.509,1.0
12.6833,128.177396,37.955627,5490.9113448,-106.472,-57.688,298.175,1.0
12.7,128.177368,37.955647,5485.970232000001,-106.231,-57.749,297.84,1.0
12.7166,128.177339,37.955666,5481.0227184000005,-105.986,-57.809,297.503,1.0
12.7333,128.177311,37.955685,5476.0688040000005,-105.738,-57.868,297.166,1.0
12.75,128.177282,37.955704,5471.1084888,-105.486,-57.927,296.827,1.0
12.7666,128.177253,37.955723,5466.141772800001,-105.231,-57.984,296.487,1.0
12.7833,128.177225,37.955741,5461.168656000001,-104.972,-58.041,296.146,1.0
12.8,128.177196,37.95576,5456.189138400001,-104.711,-58.097,295.804,1.0
12.8166,128.177167,37.955778,5451.203524800001,-104.447,-58.152,295.461,1.0
12.8333,128.177138,37.955796,5446.2115104,-104.18,-58.206,295.116,1.0
12.85,128.177109,37.955814,5441.2137048,-103.91,-58.26,294.771,1.0
12.8666,128.17708,37.955832,5436.2094984,-103.638,-58.312,294.424,1.0
12.8833,128.177051,37.955849,5431.1991960000005,-103.364,-58.363,294.077,1.0
12.9,128.177022,37.955867,5426.183102399999,-103.087,-58.414,293.728,1.0
12.9166,128.176993,37.955884,5421.1609128,-102.808,-58.464,293.379,1.0
12.9333,128.176963,37.955901,5416.132932,-102.526,-58.512,293.028,1.0
12.95,128.176934,37.955918,5411.098855200001,-102.243,-58.56,292.677,1.0
12.9666,128.176905,37.955935,5406.0589872,-101.957,-58.607,292.324,1.0
12.9833,128.176875,37.955951,5401.013632800001,-101.67,-58.652,291.971,1.0
13.0,128.176846,37.955968,5395.9624872,-101.38,-58.697,291.616,1.0
13.0166,128.176816,37.955984,5390.905550400001,-101.089,-58.741,291.261,1.0
13.0333,128.176787,37.956,5385.8428224,-100.795,-58.784,290.904,1.0
13.0499,128.176757,37.956016,5380.774608,-100.5,-58.826,290.547,1.0
13.0666,128.176727,37.956032,5375.701212,-100.204,-58.866,290.189,1.0
13.0833,128.176697,37.956048,5370.622024800001,-99.905,-58.906,289.829,1.0
13.1,128.176668,37.956063,5365.537351200001,-99.606,-58.945,289.469,1.0
13.1166,128.176638,37.956078,5360.447496000001,-99.304,-58.983,289.108,1.0
13.1333,128.176608,37.956094,5355.3524592,-99.001,-59.02,288.747,1.0
13.15,128.176578,37.956109,5350.251936000001,-98.697,-59.056,288.384,1.0
13.1666,128.176548,37.956123,5345.1462312,-98.392,-59.091,288.021,1.0
13.1833,128.176518,37.956138,5340.0353448000005,-98.085,-59.125,287.656,1.0
13.2,128.176487,37.956152,5334.9192768,-97.777,-59.158,287.291,1.0
13.2166,128.176457,37.956167,5329.798332,-97.468,-59.189,286.926,1.0
13.2333,128.176427,37.956181,5324.672510400001,-97.157,-59.22,286.559,1.0
13.25,128.176396,37.956195,5319.5415072,-96.846,-59.25,286.192,1.0
13.2666,128.176366,37.956209,5314.4056272,-96.533,-59.279,285.824,1.0
13.2833,128.176336,37.956222,5309.264870400001,-96.219,-59.307,285.455,1.0
13.3,128.176305,37.956236,5304.1195416,-95.904,-59.333,285.086,1.0
13.3166,128.176275,37.956249,5298.969336,-95.589,-59.359,284.716,1.0
13.3333,128.176244,37.956262,5293.8145584,-95.272,-59.383,284.345,1.0
13.35,128.176213,37.956275,5288.654904,-94.954,-59.407,283.974,1.0
13.3666,128.176183,37.956288,5283.490982400001,-94.635,-59.429,283.602,1.0
13.3833,128.176152,37.9563,5278.322184000001,-94.315,-59.451,283.23,1.0
13.4,128.176121,37.956313,5273.149118400001,-93.995,-59.471,282.857,1.0
13.4166,128.17609,37.956325,5267.9717856,-93.673,-59.49,282.483,1.0
13.4333,128.176059,37.956337,5262.7898808,-93.35,-59.508,282.109,1.0
13.45,128.176028,37.956349,5257.6040136,-93.027,-59.525,281.735,1.0
13.4666,128.175997,37.956361,5252.4135744000005,-92.702,-59.541,281.36,1.0
13.4833,128.175966,37.956372,5247.219172800001,-92.377,-59.556,280.984,1.0
13.5,128.175935,37.956384,5242.020504,-92.05,-59.57,280.609,1.0
13.5166,128.175904,37.956395,5236.8178728,-91.723,-59.582,280.232,1.0
13.5333,128.175873,37.956406,5231.6112792,-91.394,-59.594,279.856,1.0
13.55,128.175841,37.956417,5226.4004184000005,-91.065,-59.604,279.479,1.0
13.5666,128.17581,37.956428,5221.1859,-90.734,-59.613,279.102,1.0
13.5833,128.175779,37.956438,5215.967724000001,-90.403,-59.621,278.725,1.0
13.6,128.175747,37.956448,5210.7452808,-90.071,-59.628,278.347,1.0
13.6166,128.175716,37.956459,5205.5194848,-89.737,-59.634,277.969,1.0
13.6333,128.175684,37.956469,5200.2900312,-89.403,-59.639,277.591,1.0
13.65,128.175653,37.956478,5195.056920000001,-89.068,-59.642,277.213,1.0
13.6666,128.175621,37.956488,5189.8201512000005,-88.732,-59.644,276.834,1.0
13.6833,128.175589,37.956498,5184.5800296,-88.395,-59.645,276.456,1.0
13.7,128.175558,37.956507,5179.336250400001,-88.057,-59.645,276.077,1.0
13.7166,128.175526,37.956516,5174.0894232,-87.718,-59.644,275.699,1.0
13.7333,128.175494,37.956525,5168.838938400001,-87.379,-59.642,275.32,1.0
13.75,128.175462,37.956534,5163.585405600001,-87.039,-59.638,274.942,1.0
13.7666,128.175431,37.956542,5158.328824800001,-86.698,-59.633,274.563,1.0
13.7833,128.175399,37.956551,5153.0688912000005,-86.357,-59.627,274.185,1.0
13.8,128.175367,37.956559,5147.805909600001,-86.015,-59.62,273.806,1.0
13.8166,128.175335,37.956567,5142.5401848,-85.673,-59.612,273.428,1.0
13.8333,128.175303,37.956575,5137.2711072,-85.33,-59.602,273.05,1.0
13.85,128.175271,37.956583,5131.9992864000005,-84.986,-59.592,272.672,1.0
13.8666,128.175238,37.95659,5126.7247224,-84.642,-59.58,272.294,1.0
13.8833,128.175206,37.956597,5121.4474152,-84.298,-59.567,271.916,1.0
13.9,128.175174,37.956605,5116.1673648000005,-83.954,-59.552,271.539,1.0
13.9166,128.175142,37.956612,5110.884876,-83.609,-59.537,271.162,1.0
13.9333,128.175109,37.956618,5105.599644,-83.264,-59.52,270.785,1.0
13.95,128.175077,37.956625,5100.311973600001,-82.919,-59.502,270.409,1.0
13.9666,128.175045,37.956631,5095.02156,-82.574,-59.483,270.032,1.0
13.9833,128.175012,37.956638,5089.7290128,-82.229,-59.463,269.657,1.0
14.0,128.17498,37.956644,5084.434332000001,-81.884,-59.442,269.281,1.0
14.0166,128.174947,37.95665,5079.136908,-81.539,-59.419,268.906,1.0
14.0333,128.174915,37.956655,5073.8376552,-81.194,-59.395,268.532,1.0
14.05,128.174882,37.956661,5068.5362688000005,-80.849,-59.371,268.158,1.0
14.0666,128.17485,37.956666,5063.2327488,-80.504,-59.344,267.785,1.0
14.0833,128.174817,37.956672,5057.9274000000005,-80.16,-59.317,267.412,1.0
14.1,128.174784,37.956677,5052.6199176,-79.816,-59.289,267.039,1.0
14.1166,128.174752,37.956681,5047.3106064,-79.472,-59.259,266.668,1.0
14.1333,128.174719,37.956686,5041.9994664,-79.129,-59.228,266.296,1.0
14.15,128.174686,37.956691,5036.686497600001,-78.786,-59.196,265.926,1.0
14.1666,128.174653,37.956695,5031.3720048000005,-78.443,-59.163,265.556,1.0
14.1833,128.17462,37.956699,5026.055988000001,-78.101,-59.128,265.187,1.0
14.2,128.174587,37.956703,5020.7384472,-77.76,-59.093,264.818,1.0
14.2166,128.174554,37.956707,5015.4193824,-77.419,-59.056,264.451,1.0
14.2333,128.174521,37.95671,5010.0987936,-77.078,-59.018,264.083,1.0
14.25,128.174488,37.956714,5004.7769856,-76.738,-58.979,263.717,1.0
14.2666,128.174455,37.956717,4999.4539584,-76.399,-58.939,263.352,1.0
14.2833,128.174422,37.95672,4994.1294072,-76.061,-58.898,262.987,1.0
14.3,128.174389,37.956723,4988.8039416,-75.723,-58.855,262.623,1.0
14.3166,128.174356,37.956725,4983.477561600001,-75.386,-58.812,262.26,1.0
14.3333,128.174323,37.956728,4978.149962400001,-75.05,-58.767,261.898,1.0
