Time,Longitude,Latitude,Altitude,Roll (deg),Pitch (deg),Yaw (deg),Health
0.0,128.181881,37.968463,7002.830292000001,0.0,-0.003,179.999,1.0
0.0166,128.181881,37.968418,7002.8116992000005,0.0,-0.012,180.0,1.0
0.0333,128.181881,37.968374,7002.791887200001,0.005,-0.026,180.0,1.0
0.05,128.181881,37.968329,7002.771160800001,0.014,-0.042,180.001,1.0
0.0666,128.181881,37.968284,7002.749824800001,0.023,-0.06,180.001,1.0
0.0833,128.181881,37.968239,7002.727574400001,0.031,-0.079,180.001,1.0
0.1,128.181881,37.968194,7002.704409600001,0.039,-0.098,180.001,1.0
0.1166,128.181881,37.968149,7002.6803304000005,0.045,-0.117,180.001,1.0
0.1333,128.181881,37.968104,7002.6553368,0.05,-0.134,180.001,1.0
0.15,128.181881,37.968059,7002.629733600001,0.055,-0.15,180.001,1.0
0.1666,128.181881,37.968014,7002.602911200001,0.058,-0.163,180.0,1.0
0.1833,128.181881,37.967969,7002.575479200001,0.061,-0.174,180.0,1.0
0.2,128.181881,37.967924,7002.5471328,0.064,-0.184,180.0,1.0
0.2166,128.181881,37.967879,7002.517872,0.066,-0.191,180.0,1.0
0.2333,128.181881,37.967834,7002.487696800001,0.067,-0.196,180.0,1.0
0.25,128.181881,37.967788,7002.456912,0.069,-0.199,180.0,1.0
0.2666,128.181881,37.967743,7002.4252128,0.07,-0.202,179.999,1.0
0.2833,128.181881,37.967698,7002.3922944000005,0.071,-0.202,179.999,1.0
0.3,128.181881,37.967653,7002.3590712,0.071,-0.202,179.999,1.0
0.3166,128.181881,37.967608,7002.324628800001,0.072,-0.202,179.999,1.0
0.3333,128.181881,37.967563,7002.2895768,0.073,-0.2,179.999,1.0
0.35,128.181881,37.967518,7002.253915200001,0.073,-0.199,179.999,1.0
0.3666,128.181881,37.967473,7002.2173391999995,0.073,-0.197,179.999,1.0
0.3833,128.181881,37.967428,7002.1798488,0.074,-0.195,179.999,1.0
0.4,128.181881,37.967382,7002.1417488,0.074,-0.194,180.0,1.0
0.4166,128.181881,37.967337,7002.1030392,0.074,-0.192,180.0,1.0
0.4333,128.181881,37.967292,7002.063415200001,0.075,-0.191,180.0,1.0
0.45,128.181881,37.967247,7002.0231816000005,0.075,-0.19,180.0,1.0
0.4666,128.181881,37.967202,7001.982338400001,0.075,-0.189,180.0,1.0
0.4833,128.181881,37.967157,7001.9405808,0.075,-0.188,180.0,1.0
0.5,128.181881,37.967111,7001.8982136,0.076,-0.187,180.0,1.0
0.5166,128.181881,37.967066,7001.8552368,0.076,-0.187,180.0,1.0
0.5333,128.181881,37.967021,7001.811650400001,0.076,-0.187,180.0,1.0
0.55,128.181881,37.966976,7001.7674544,0.077,-0.186,180.0,1.0
0.5666,128.181881,37.966931,7001.7226488,0.077,-0.186,180.0,1.0
0.5833,128.181881,37.966885,7001.6769288000005,0.077,-0.186,180.0,1.0
0.6,128.181881,37.96684,7001.630904000001,0.077,-0.186,180.0,1.0
0.6166,128.181881,37.966795,7001.584269600001,0.078,-0.187,180.0,1.0
0.6333,128.181881,37.96675,7001.5367208,0.078,-0.187,180.0,1.0
0.65,128.181881,37.966704,7001.4888672,0.078,-0.187,180.0,1.0
0.6666,128.181881,37.966659,7001.440404,0.079,-0.187,180.0,1.0
0.6833,128.181881,37.966614,7001.3913312,0.079,-0.187,180.0,1.0
0.7,128.181881,37.966568,7001.3419536,0.079,-0.187,180.0,1.0
0.7166,128.181881,37.966523,7001.2916616,0.08,-0.187,180.0,1.0
0.7333,128.181881,37.966478,7001.2410648000005,0.08,-0.186,180.0,1.0
0.75,128.181881,37.966432,7001.1898584,0.08,-0.186,180.0,1.0
0.7666,128.181881,37.966387,7001.138042400001,0.081,-0.186,180.0,1.0
0.7833,128.181881,37.966342,7001.0859216,0.081,-0.185,180.0,1.0
0.8,128.181881,37.966296,7001.0331912,0.081,-0.185,180.0,1.0
0.8166,128.181881,37.966251,7000.979851200001,0.082,-0.184,180.0,1.0
0.8333,128.181881,37.966206,7000.9262064,0.082,-0.184,180.001,1.0
0.85,128.181881,37.96616,7000.871952,0.082,-0.183,180.001,1.0
0.8666,128.181881,37.966115,7000.817392800001,0.083,-0.183,180.001,1.0
0.8833,128.181881,37.966069,7000.762224000001,0.083,-0.182,180.001,1.0
0.9,128.181881,37.966024,7000.706750400001,0.084,-0.182,180.001,1.0
0.9166,128.181881,37.965979,7000.6506672000005,0.084,-0.181,180.001,1.0
0.9333,128.181881,37.965933,7000.5942792000005,0.084,-0.181,180.001,1.0
0.95,128.181881,37.965888,7000.537586400001,0.085,-0.18,180.001,1.0
0.9666,128.181881,37.965842,7000.480284000001,0.085,-0.18,180.001,1.0
0.9833,128.181881,37.965797,7000.422372,0.086,-0.179,180.001,1.0
1.0,128.181881,37.965751,7000.364460000001,0.086,-0.178,180.001,1.0
1.0166,128.181881,37.965706,7000.305938400001,0.087,-0.178,180.001,1.0
1.0333,128.181881,37.96566,7000.247112,0.087,-0.177,180.0,1.0
1.05,128.181881,37.965615,7000.1876760000005,0.088,-0.176,180.0,1.0
1.0666,128.181881,37.965569,7000.12824,0.088,-0.176,180.0,1.0
1.0833,128.181881,37.965524,7000.0681944,0.088,-0.175,180.0,1.0
1.1,128.181881,37.965478,7000.007844,0.089,-0.174,180.0,1.0
1.1166,128.181881,37.965433,6999.9471888,0.089,-0.173,180.0,1.0
1.1333,128.181881,37.965387,6999.886228800001,0.09,-0.172,180.001,1.0
1.15,128.181881,37.965342,6999.8246592000005,0.09,-0.171,180.001,1.0
1.1666,128.181881,37.965296,6999.7630896,0.091,-0.17,180.001,1.0
1.1833,128.181881,37.96525,6999.700910400001,0.091,-0.169,180.001,1.0
1.2,128.18188,37.965205,6999.638731200001,0.092,-0.168,180.001,1.0
1.2166,128.18188,37.965159,6999.575942400001,0.092,-0.167,180.001,1.0
1.2333,128.18188,37.965114,6999.5131536,0.093,-0.167,180.001,1.0
1.25,128.18188,37.965068,6999.4497552,0.093,-0.166,180.001,1.0
1.2666,128.18188,37.965022,6999.386356800001,0.094,-0.165,180.001,1.0
1.2833,128.18188,37.964977,6999.3223488,0.095,-0.164,180.001,1.0
1.3,128.18188,37.964931,6999.2583408,0.095,-0.163,180.001,1.0
1.3166,128.18188,37.964886,6999.194028000001,0.096,-0.162,180.001,1.0
1.3333,128.18188,37.96484,6999.129410400001,0.096,-0.161,180.001,1.0
1.35,128.18188,37.964794,6999.064488000001,0.097,-0.16,180.001,1.0
1.3666,128.18188,37.964749,6998.999260800001,0.098,-0.159,180.001,1.0
1.3833,128.18188,37.964703,6998.9340336000005,0.098,-0.158,180.001,1.0
1.4,128.18188,37.964657,6998.868196800001,0.099,-0.157,180.001,1.0
1.4166,128.18188,37.964611,6998.802360000001,0.099,-0.156,180.001,1.0
1.4333,128.18188,37.964566,6998.7362184,0.1,-0.155,180.001,1.0
1.45,128.18188,37.96452,6998.6700768,0.101,-0.154,180.001,1.0
1.4666,128.18188,37.964474,6998.6036304,0.101,-0.152,180.001,1.0
1.4833,128.18188,37.964429,6998.536879200001,0.102,-0.151,180.001,1.0
1.5,128.18188,37.964383,6998.4698232,0.103,-0.15,180.001,1.0
1.5166,128.18188,37.964337,6998.4027672,0.103,-0.149,180.001,1.0
1.5333,128.18188,37.964291,6998.3354064000005,0.104,-0.148,180.001,1.0
1.55,128.18188,37.964245,6998.2677408,0.105,-0.147,180.001,1.0
1.5666,128.18188,37.9642,6998.200075199999,0.106,-0.146,180.001,1.0
1.5833,128.18188,37.964154,6998.1321048,0.106,-0.144,180.001,1.0
1.6,128.18188,37.964108,6998.0641344,0.107,-0.143,180.001,1.0
1.6166,128.18188,37.964062,6997.9958592,0.108,-0.142,180.001,1.0
1.6333,128.18188,37.964016,6997.927584000001,0.109,-0.141,180.001,1.0
1.65,128.18188,37.963971,6997.859004,0.109,-0.139,180.001,1.0
1.6666,128.18188,37.963925,6997.790119200001,0.11,-0.138,180.001,1.0
1.6833,128.18188,37.963879,6997.7212344,0.111,-0.137,180.001,1.0
1.7,128.18188,37.963833,6997.6523496,0.112,-0.136,180.001,1.0
1.7166,128.18188,37.963787,6997.58316,0.112,-0.134,180.001,1.0
1.7333,128.18188,37.963741,6997.513970400001,0.113,-0.133,180.001,1.0
1.75,128.18188,37.963695,6997.444476,0.114,-0.132,180.001,1.0
1.7666,128.18188,37.963649,6997.3749816,0.115,-0.131,180.001,1.0
1.7833,128.18188,37.963604,6997.3054872,0.116,-0.129,180.001,1.0
1.8,128.18188,37.963558,6997.235688000001,0.117,-0.128,180.001,1.0
1.8166,128.18188,37.963512,6997.165584000001,0.117,-0.127,180.001,1.0
1.8333,128.18188,37.963466,6997.0957848,0.118,-0.126,180.001,1.0
1.85,128.18188,37.96342,6997.0256808,0.119,-0.124,180.001,1.0
1.8666,128.18188,37.963374,6996.9555768,0.12,-0.123,180.001,1.0
1.8833,128.18188,37.963328,6996.885168000001,0.121,-0.122,180.001,1.0
1.9,128.18188,37.963282,6996.8147592000005,0.122,-0.12,180.001,1.0
1.9166,128.18188,37.963236,6996.7443504,0.123,-0.119,180.001,1.0
1.9333,128.18188,37.96319,6996.673941600001,0.124,-0.117,180.001,1.0
1.95,128.18188,37.963144,6996.603228000001,0.125,-0.116,180.001,1.0
1.9666,128.18188,37.963098,6996.532514400001,0.125,-0.115,180.001,1.0
1.9833,128.18188,37.963052,6996.461800800001,0.126,-0.113,180.001,1.0
2.0,128.18188,37.963006,6996.391087200001,0.127,-0.112,180.001,1.0
2.0166,128.18188,37.96296,6996.320068800001,0.128,-0.111,180.001,1.0
2.0333,128.18188,37.962914,6996.249050400001,0.129,-0.11,180.001,1.0
2.05,128.18188,37.962868,6996.178032000001,0.13,-0.109,180.001,1.0
2.0666,128.18188,37.962821,6996.107013600001,0.131,-0.108,180.001,1.0
2.0833,128.18188,37.962775,6996.0359952,0.132,-0.107,180.001,1.0
2.1,128.18188,37.962729,6995.964672,0.133,-0.107,180.001,1.0
2.1166,128.18188,37.962683,6995.8936536,0.134,-0.107,180.001,1.0
2.1333,128.18188,37.962637,6995.8223304,0.135,-0.107,180.001,1.0
2.15,128.18188,37.962591,6995.7510072,0.136,-0.107,180.001,1.0
2.1666,128.18188,37.962545,6995.679684000001,0.137,-0.107,180.002,1.0
2.1833,128.18188,37.962499,6995.608360800001,0.138,-0.107,180.002,1.0
2.2,128.18188,37.962452,6995.5367328,0.139,-0.107,180.002,1.0
2.2166,128.18188,37.962406,6995.4654096,0.14,-0.108,180.002,1.0
2.2333,128.18188,37.96236,6995.393781600001,0.141,-0.108,180.002,1.0
2.25,128.18188,37.962314,6995.3221536,0.142,-0.109,180.002,1.0
2.2666,128.18188,37.962268,6995.2505255999995,0.143,-0.109,180.002,1.0
2.2833,128.18188,37.962222,6995.178897600001,0.144,-0.11,180.002,1.0
2.3,128.18188,37.962175,6995.107269600001,0.145,-0.11,180.002,1.0
2.3166,128.18188,37.962129,6995.0356416,0.146,-0.111,180.002,1.0
2.3333,128.18188,37.962083,6994.964013600001,0.147,-0.111,180.002,1.0
2.35,128.18188,37.962037,6994.8920808,0.148,-0.111,180.002,1.0
2.3666,128.18188,37.96199,6994.8204528,0.149,-0.111,180.002,1.0
2.3833,128.18188,37.961944,6994.748520000001,0.15,-0.111,180.002,1.0
2.4,128.18188,37.961898,6994.6765872000005,0.151,-0.111,180.002,1.0
2.4166,128.18188,37.961852,6994.6049592,0.152,-0.111,180.002,1.0
2.4333,128.18188,37.961805,6994.5330264,0.153,-0.111,180.002,1.0
2.45,128.18188,37.961759,6994.4610936,0.154,-0.111,180.001,1.0
2.4666,128.18188,37.961713,6994.3891608,0.155,-0.111,180.001,1.0
2.4833,128.18188,37.961666,6994.317228000001,0.156,-0.111,180.001,1.0
2.5,128.18188,37.96162,6994.2452952,0.157,-0.111,180.001,1.0
2.5166,128.18188,37.961574,6994.1730576,0.158,-0.111,180.001,1.0
2.5333,128.18188,37.961527,6994.1011248,0.16,-0.11,180.001,1.0
2.55,128.181879,37.961481,6994.029192000001,0.161,-0.11,180.002,1.0
2.5666,128.181879,37.961434,6993.9572592,0.162,-0.109,180.002,1.0
2.5833,128.181879,37.961388,6993.8850216,0.163,-0.109,180.002,1.0
2.6,128.181879,37.961342,6993.8130888,0.164,-0.109,180.002,1.0
2.6166,128.181879,37.961295,6993.741156000001,0.165,-0.108,180.002,1.0
2.6333,128.181879,37.961249,6993.668918400001,0.167,-0.108,180.002,1.0
2.65,128.181879,37.961202,6993.5969856,0.168,-0.108,180.002,1.0
2.6666,128.181879,37.961156,6993.5250528,0.169,-0.107,180.002,1.0
2.6833,128.181879,37.96111,6993.452815200001,0.17,-0.107,180.002,1.0
2.7,128.181879,37.961063,6993.380882400001,0.171,-0.107,180.002,1.0
2.7166,128.181879,37.961017,6993.3086448,0.173,-0.107,180.002,1.0
2.7333,128.181879,37.96097,6993.236712,0.174,-0.106,180.002,1.0
2.75,128.181879,37.960924,6993.164779200001,0.175,-0.106,180.002,1.0
2.7666,128.181879,37.960877,6993.092541600001,0.176,-0.106,180.002,1.0
2.7833,128.181879,37.960831,6993.0206088,0.178,-0.105,180.002,1.0
2.8,128.181879,37.960784,6992.948676,0.179,-0.105,180.002,1.0
2.8166,128.181879,37.960738,6992.8767431999995,0.18,-0.104,180.002,1.0
2.8333,128.181879,37.960691,6992.804810400001,0.181,-0.104,180.002,1.0
2.85,128.181879,37.960645,6992.7328776,0.183,-0.103,180.002,1.0
2.8666,128.181879,37.960598,6992.6609448,0.184,-0.103,180.002,1.0
2.8833,128.181879,37.960551,6992.589012,0.185,-0.102,180.002,1.0
2.9,128.181879,37.960505,6992.517079200001,0.186,-0.102,180.002,1.0
2.9166,128.181879,37.960458,6992.4451464,0.188,-0.101,180.002,1.0
2.9333,128.181879,37.960412,6992.373213600001,0.189,-0.101,180.002,1.0
2.95,128.181879,37.960365,6992.3015856,0.19,-0.1,180.002,1.0
2.9666,128.181879,37.960318,6992.2296528,0.192,-0.099,180.002,1.0
2.9833,128.181879,37.960272,6992.158024800001,0.193,-0.099,180.002,1.0
3.0,128.181879,37.960225,6992.0860920000005,0.194,-0.098,180.002,1.0
3.0166,128.181879,37.960179,6992.014464000001,0.196,-0.097,180.002,1.0
3.0333,128.181879,37.960132,6991.942836,0.197,-0.097,180.002,1.0
3.05,128.181879,37.960085,6991.8712080000005,0.199,-0.096,180.002,1.0
3.0666,128.181879,37.960039,6991.79958,0.2,-0.095,180.002,1.0
3.0833,128.181879,37.959992,6991.727952000001,0.201,-0.095,180.002,1.0
3.1,128.181879,37.959945,6991.6566288,0.203,-0.094,180.002,1.0
3.1166,128.181879,37.959898,6991.585000800001,0.204,-0.093,180.002,1.0
3.1333,128.181879,37.959852,6991.513677600001,0.206,-0.092,180.002,1.0
3.15,128.181879,37.959805,6991.4423544,0.207,-0.091,180.002,1.0
3.1666,128.181879,37.959758,6991.3710312,0.208,-0.091,180.002,1.0
3.1833,128.181879,37.959711,6991.2997080000005,0.21,-0.09,180.002,1.0
3.2,128.181879,37.959665,6991.2283848,0.211,-0.089,180.002,1.0
3.2166,128.181879,37.959618,6991.1570616,0.213,-0.088,180.002,1.0
3.2333,128.181879,37.959571,6991.0860432,0.214,-0.087,180.002,1.0
3.25,128.181879,37.959524,6991.015024800001,0.216,-0.086,180.002,1.0
3.2666,128.181879,37.959478,6990.944006400001,0.217,-0.086,180.002,1.0
3.2833,128.181879,37.959431,6990.872988000001,0.219,-0.085,180.002,1.0
3.3,128.181879,37.959384,6990.801969600001,0.22,-0.084,180.002,1.0
3.3166,128.181879,37.959337,6990.731256000001,0.222,-0.083,180.002,1.0
3.3333,128.181879,37.95929,6990.660542400001,0.223,-0.082,180.002,1.0
3.35,128.181879,37.959243,6990.589828800001,0.225,-0.081,180.002,1.0
3.3666,128.181878,37.959196,6990.519115200001,0.227,-0.08,180.003,1.0
3.3833,128.181878,37.95915,6990.448401600001,0.228,-0.079,180.003,1.0
3.4,128.181878,37.959103,6990.377992800001,0.23,-0.078,180.003,1.0
3.4166,128.181878,37.959056,6990.307584000001,0.231,-0.077,180.003,1.0
3.4333,128.181878,37.959009,6990.2371752,0.233,-0.076,180.003,1.0
3.45,128.181878,37.958962,6990.1667664,0.234,-0.075,180.003,1.0
3.4666,128.181878,37.958915,6990.0966624,0.236,-0.074,180.003,1.0
3.4833,128.181878,37.958868,6990.0265584,0.238,-0.073,180.003,1.0
3.5,128.181878,37.958821,6989.9564544,0.239,-0.072,180.003,1.0
3.5166,128.181878,37.958774,6989.8863504,0.241,-0.071,180.003,1.0
3.5333,128.181878,37.958727,6989.8165512000005,0.242,-0.071,180.003,1.0
3.55,128.181878,37.95868,6989.746447200001,0.243,-0.07,180.003,1.0
3.5666,128.181878,37.958633,6989.6769527999995,0.245,-0.069,180.003,1.0
3.5833,128.181878,37.958586,6989.6071536,0.246,-0.068,180.003,1.0
3.6,128.181878,37.958539,6989.5376592,0.248,-0.067,180.002,1.0
3.6166,128.181878,37.958492,6989.467860000001,0.249,-0.066,180.002,1.0
3.6333,128.181878,37.958445,6989.398670400001,0.251,-0.065,180.002,1.0
3.65,128.181878,37.958398,6989.329176,0.252,-0.064,180.002,1.0
3.6666,128.181878,37.958351,6989.2599864,0.254,-0.063,180.002,1.0
3.6833,128.181878,37.958304,6989.1907968000005,0.255,-0.062,180.003,1.0
3.7,128.181878,37.958257,6989.1216072,0.257,-0.061,180.003,1.0
3.7166,128.181878,37.95821,6989.052722400001,0.259,-0.059,180.003,1.0
3.7333,128.181878,37.958163,6988.983837600001,0.26,-0.058,180.003,1.0
3.75,128.181878,37.958116,6988.9149528,0.262,-0.057,180.003,1.0
3.7666,128.181878,37.958068,6988.846372800001,0.264,-0.056,180.003,1.0
3.7833,128.181878,37.958021,6988.7777928000005,0.265,-0.055,180.003,1.0
3.8,128.181878,37.957974,6988.7092128,0.267,-0.054,180.003,1.0
3.8166,128.181878,37.957927,6988.6406328,0.268,-0.053,180.003,1.0
3.8333,128.181878,37.95788,6988.5723576,0.27,-0.052,180.003,1.0
3.85,128.181878,37.957833,6988.504082400001,0.272,-0.051,180.003,1.0
3.8666,128.181878,37.957785,6988.436112,0.273,-0.051,180.003,1.0
3.8833,128.181878,37.957738,6988.368141600001,0.275,-0.05,180.003,1.0
3.9,128.181878,37.957691,6988.3001712,0.277,-0.049,180.003,1.0
3.9166,128.181878,37.957644,6988.232505600001,0.278,-0.048,180.003,1.0
3.9333,128.181878,37.957597,6988.1645352000005,0.28,-0.047,180.003,1.0
3.95,128.181878,37.957549,6988.097174400001,0.282,-0.046,180.003,1.0
3.9666,128.181878,37.957502,6988.0295088,0.283,-0.044,180.003,1.0
3.9833,128.181878,37.957455,6987.962148,0.285,-0.043,180.003,1.0
4.0,128.181877,37.957408,6987.894787200001,0.287,-0.042,180.003,1.0
4.0166,128.181877,37.95736,6987.8277312,0.288,-0.041,180.003,1.0
4.0333,128.181877,37.957313,6987.7606752,0.29,-0.04,180.003,1.0
4.05,128.181877,37.957266,6987.694228800001,0.287,-0.04,180.002,1.0
4.0666,128.181877,37.957218,6987.627782400001,0.278,-0.041,180.0,1.0
4.0833,128.181877,37.957171,6987.5616408000005,0.265,-0.043,179.998,1.0
4.1,128.181877,37.957124,6987.495804,0.248,-0.045,179.996,1.0
4.1166,128.181877,37.957076,6987.4299672,0.227,-0.047,179.994,1.0
4.1333,128.181877,37.957029,6987.3641304,0.205,-0.048,179.992,1.0
4.15,128.181877,37.956982,6987.2985984,0.182,-0.049,179.99,1.0
4.1666,128.181877,37.956934,6987.2330664,0.159,-0.05,179.989,1.0
4.1833,128.181877,37.956887,6987.1678392,0.136,-0.049,179.988,1.0
4.2,128.181877,37.956839,6987.1023072,0.115,-0.048,179.986,1.0
4.2166,128.181877,37.956792,6987.03708,0.095,-0.047,179.985,1.0
4.2333,128.181877,37.956745,6986.9718528,0.077,-0.045,179.985,1.0
4.25,128.181877,37.956697,6986.9069304,0.061,-0.042,179.984,1.0
4.2666,128.181877,37.95665,6986.8417032,0.046,-0.04,179.983,1.0
4.2833,128.181877,37.956602,6986.7767808,0.033,-0.037,179.982,1.0
4.3,128.181877,37.956555,6986.7118584,0.021,-0.034,179.981,1.0
4.3166,128.181877,37.956507,6986.6472408,0.011,-0.031,179.98,1.0
4.3333,128.181877,37.95646,6986.582623200001,0.002,-0.028,179.98,1.0
4.35,128.181877,37.956412,6986.518005600001,-0.005,-0.026,179.979,1.0
4.3666,128.181877,37.956365,6986.453388000001,-0.012,-0.023,179.978,1.0
4.3833,128.181877,37.956317,6986.3890752,-0.018,-0.021,179.977,1.0
4.4,128.181877,37.95627,6986.3250672,-0.023,-0.019,179.977,1.0
4.4166,128.181877,37.956222,6986.2607544,-0.027,-0.017,179.976,1.0
4.4333,128.181877,37.956175,6986.197051200001,-0.031,-0.015,179.975,1.0
4.45,128.181877,37.956127,6986.1330431999995,-0.034,-0.013,179.975,1.0
4.4666,128.181877,37.95608,6986.06934,-0.036,-0.012,179.974,1.0
4.4833,128.181877,37.956032,6986.0056368000005,-0.038,-0.01,179.974,1.0
4.5,128.181877,37.955984,6985.942238400001,-0.04,-0.008,179.974,1.0
4.5166,128.181877,37.955937,6985.87884,-0.04,-0.007,179.973,1.0
4.5333,128.181876,37.955889,6985.8157464000005,-0.041,-0.005,179.973,1.0
4.55,128.181876,37.955841,6985.7526528,-0.041,-0.004,179.973,1.0
4.5666,128.181876,37.955794,6985.689864000001,-0.041,-0.002,179.973,1.0
4.5833,128.181876,37.955746,6985.6270752,-0.04,-0.001,179.973,1.0
4.6,128.181876,37.955698,6985.5642864,-0.039,0.0,179.972,1.0
4.6166,128.181876,37.955651,6985.5018024,-0.038,0.001,179.972,1.0
4.6333,128.181876,37.955603,6985.439623200001,-0.037,0.002,179.972,1.0
4.65,128.181876,37.955555,6985.377444,-0.035,0.004,179.972,1.0
4.6666,128.181876,37.955508,6985.3152648000005,-0.034,0.005,179.972,1.0
4.6833,128.181876,37.95546,6985.2533904,-0.032,0.007,179.972,1.0
4.7,128.181876,37.955412,6985.1918208,-0.031,0.008,179.972,1.0
4.7166,128.181876,37.955364,6985.1299464,-0.029,0.01,179.972,1.0
4.7333,128.181876,37.955317,6985.068681600001,-0.027,0.011,179.972,1.0
4.75,128.181876,37.955269,6985.0074168,-0.025,0.013,179.972,1.0
4.7666,128.181876,37.955221,6984.946152,-0.023,0.014,179.972,1.0
4.7833,128.181876,37.955173,6984.8854968000005,-0.021,0.015,179.972,1.0
4.8,128.181876,37.955126,6984.824536800001,-0.02,0.017,179.971,1.0
4.8166,128.181876,37.955078,6984.7638816,-0.018,0.018,179.971,1.0
4.8333,128.181876,37.95503,6984.7035312,-0.017,0.019,179.971,1.0
4.85,128.181876,37.954982,6984.6431808,-0.015,0.021,179.971,1.0
4.8666,128.181876,37.954934,6984.5831352000005,-0.014,0.022,179.971,1.0
4.8833,128.181876,37.954886,6984.5230896,-0.012,0.024,179.971,1.0
4.9,128.181876,37.954838,6984.4633488,-0.01,0.025,179.971,1.0
4.9166,128.181876,37.954791,6984.4036080000005,-0.009,0.027,179.971,1.0
4.9333,128.181876,37.954743,6984.344172,-0.008,0.028,179.971,1.0
4.95,128.181876,37.954695,6984.2850408,-0.006,0.029,179.97,1.0
4.9666,128.181876,37.954647,6984.225909600001,-0.005,0.031,179.97,1.0
4.9833,128.181876,37.954599,6984.166778400001,-0.004,0.032,179.97,1.0
5.0,128.181876,37.954551,6984.107952000001,-0.003,0.034,179.97,1.0
5.0166,128.181876,37.954503,6984.0494304,-0.002,0.035,179.97,1.0
5.0333,128.181876,37.954455,6983.9909088,-0.001,0.037,179.97,1.0
5.05,128.181876,37.954407,6983.932692,0.0,0.039,179.969,1.0
5.0666,128.181876,37.954359,6983.8744752,0.0,0.04,179.969,1.0
5.0833,128.181876,37.954311,6983.8165632,0.001,0.042,179.969,1.0
5.1,128.181876,37.954263,6983.758956000001,0.002,0.043,179.969,1.0
5.1166,128.181875,37.954215,6983.7013488,0.002,0.045,179.969,1.0
5.1333,128.181875,37.954167,6983.644046400001,0.003,0.047,179.968,1.0
5.15,128.181875,37.954119,6983.586744,0.004,0.048,179.968,1.0
5.1666,128.181875,37.954071,6983.5297464000005,0.004,0.05,179.968,1.0
5.1833,128.181875,37.954023,6983.4727488,0.005,0.052,179.968,1.0
5.2,128.181875,37.953975,6983.416665600001,0.006,0.069,179.968,1.0
5.2166,128.181875,37.953927,6983.361496800001,0.007,0.117,179.968,1.0
5.2333,128.181875,37.953879,6983.307242400001,0.009,0.211,179.968,1.0
5.25,128.181875,37.95383,6983.2551216,0.011,0.365,179.969,1.0
5.2666,128.181875,37.953782,6983.2054392,0.014,0.588,179.969,1.0
5.2833,128.181875,37.953734,6983.1588048,0.016,0.888,179.969,1.0
5.3,128.181875,37.953686,6983.115828000001,0.02,1.269,179.97,1.0
5.3166,128.181875,37.953638,6983.076813600001,0.023,1.716,179.97,1.0
5.3333,128.181875,37.95359,6983.0423712,0.026,2.214,179.971,1.0
5.35,128.181875,37.953542,6983.013110400001,0.03,2.745,179.972,1.0
5.3666,128.181875,37.953494,6982.9896408,0.034,3.29,179.972,1.0
5.3833,128.181875,37.953445,6982.972572000001,0.037,3.827,179.973,1.0
5.4,128.181875,37.953397,6982.9615992,0.041,4.338,179.973,1.0
5.4166,128.181875,37.953349,6982.957941600001,0.045,4.805,179.974,1.0
5.4333,128.181875,37.953301,6982.961904,0.048,5.227,179.975,1.0
5.45,128.181875,37.953253,6982.9737912,0.052,5.612,179.975,1.0
5.4666,128.181875,37.953205,6982.9942128,0.055,5.965,179.976,1.0
5.4833,128.181875,37.953156,6983.0231688,0.058,6.29,179.977,1.0
5.5,128.181875,37.953108,6983.0612688,0.062,6.593,179.977,1.0
5.5166,128.181875,37.95306,6983.1088176,0.065,6.875,179.978,1.0
5.5333,128.181875,37.953012,6983.165510400001,0.068,7.14,179.978,1.0
5.55,128.181875,37.952964,6983.2322616,0.071,7.39,179.979,1.0
5.5666,128.181875,37.952915,6983.3087663999995,0.074,7.626,179.98,1.0
5.5833,128.181875,37.952867,6983.3953296,0.077,7.85,179.98,1.0
5.6,128.181875,37.952819,6983.491951200001,0.08,8.063,179.981,1.0
5.6166,128.181875,37.952771,6983.598936,0.083,8.267,179.981,1.0
5.6333,128.181875,37.952723,6983.716284000001,0.086,8.463,179.981,1.0
5.65,128.181875,37.952675,6983.844300000001,0.089,8.65,179.982,1.0
5.6666,128.181875,37.952626,6983.982984000001,0.092,8.832,179.982,1.0
5.6833,128.181875,37.952578,6984.1320312,0.095,9.007,179.983,1.0
5.7,128.181875,37.95253,6984.292051200001,0.098,9.176,179.983,1.0
5.7166,128.181875,37.952482,6984.463044,0.101,9.341,179.983,1.0
5.7333,128.181875,37.952434,6984.6447048,0.104,9.501,179.983,1.0
5.75,128.181875,37.952386,6984.837033600001,0.107,9.656,179.984,1.0
5.7666,128.181874,37.952337,6985.04064,0.11,9.808,179.984,1.0
5.7833,128.181874,37.952289,6985.2552192,0.113,9.955,179.984,1.0
5.8,128.181874,37.952241,6985.4807712,0.116,10.1,179.984,1.0
5.8166,128.181874,37.952193,6985.717600800001,0.119,10.241,179.984,1.0
5.8333,128.181874,37.952145,6985.9650984,0.122,10.38,179.985,1.0
5.85,128.181874,37.952097,6986.223873600001,0.124,10.517,179.985,1.0
5.8666,128.181874,37.952049,6986.4939264,0.127,10.651,179.985,1.0
5.8833,128.181874,37.952001,6986.774952000001,0.13,10.784,179.985,1.0
5.9,128.181874,37.951953,6987.066950400001,0.133,10.915,179.985,1.0
5.9166,128.181874,37.951905,6987.3702264,0.136,11.045,179.985,1.0
5.9333,128.181874,37.951857,6987.68478,0.139,11.173,179.985,1.0
5.95,128.181874,37.951808,6988.0103064,0.142,11.3,179.985,1.0
5.9666,128.181874,37.95176,6988.346805600001,0.145,11.427,179.985,1.0
5.9833,128.181874,37.951712,6988.6948872,0.148,11.552,179.985,1.0
6.0,128.181874,37.951664,6989.0539416,0.151,11.677,179.985,1.0
6.0166,128.181874,37.951616,6989.423968800001,0.154,11.801,179.985,1.0
6.0333,128.181874,37.951568,6989.805273600001,0.157,11.925,179.985,1.0
6.05,128.181874,37.95152,6990.197856000001,0.16,12.048,179.985,1.0
6.0666,128.181874,37.951473,6990.601411200001,0.163,12.171,179.984,1.0
6.0833,128.181874,37.951425,6991.016244,0.166,12.293,179.984,1.0
6.1,128.181874,37.951377,6991.4420496,0.169,12.415,179.984,1.0
6.1166,128.181874,37.951329,6991.879132800001,0.172,12.537,179.984,1.0
6.1333,128.181874,37.951281,6992.3274936,0.175,12.658,179.984,1.0
6.15,128.181874,37.951233,6992.7868272000005,0.178,12.779,179.984,1.0
6.1666,128.181874,37.951185,6993.257133600001,0.181,12.9,179.984,1.0
6.1833,128.181874,37.951137,6993.7387176,0.184,13.021,179.983,1.0
6.2,128.181874,37.951089,6994.231274400001,0.188,13.142,179.983,1.0
6.2166,128.181874,37.951042,6994.7351088000005,0.191,13.262,179.983,1.0
6.2333,128.181874,37.950994,6995.249916,0.194,13.383,179.983,1.0
6.25,128.181874,37.950946,6995.775696000001,0.198,13.503,179.982,1.0
6.2666,128.181874,37.950898,6996.3127536,0.201,13.623,179.982,1.0
6.2833,128.181873,37.95085,6996.860784000001,0.204,13.744,179.982,1.0
6.3,128.181873,37.950803,6997.420092,0.208,13.864,179.982,1.0
6.3166,128.181873,37.950755,6997.9903728,0.211,13.984,179.981,1.0
6.3333,128.181873,37.950707,6998.5716264,0.215,14.104,179.981,1.0
6.35,128.181873,37.95066,6999.1638528,0.218,14.224,179.981,1.0
6.3666,128.181873,37.950612,6999.767052000001,0.222,14.343,179.981,1.0
6.3833,128.181873,37.950564,7000.3815288000005,0.226,14.463,179.98,1.0
6.4,128.181873,37.950517,7001.006978400001,0.229,14.583,179.98,1.0
6.4166,128.181873,37.950469,7001.643400800001,0.233,14.703,179.98,1.0
6.4333,128.181873,37.950421,7002.290796,0.237,14.822,179.979,1.0
6.45,128.181873,37.950374,7002.949164000001,0.241,14.942,179.979,1.0
6.4666,128.181873,37.950326,7003.618504800001,0.245,15.061,179.978,1.0
6.4833,128.181873,37.950279,7004.2988184000005,0.249,15.181,179.978,1.0
6.5,128.181873,37.950231,7004.9901048,0.253,15.301,179.978,1.0
6.5166,128.181873,37.950184,7005.692364,0.257,15.42,179.977,1.0
6.5333,128.181873,37.950136,7006.4055960000005,0.261,15.539,179.977,1.0
6.55,128.181873,37.950089,7007.1298008,0.265,15.659,179.976,1.0
6.5666,128.181873,37.950041,7007.864978400001,0.269,15.778,179.976,1.0
6.5833,128.181873,37.949994,7008.610824,0.273,15.898,179.976,1.0
6.6,128.181873,37.949946,7009.3676424000005,0.278,16.017,179.975,1.0
6.6166,128.181873,37.949899,7010.1354336,0.282,16.136,179.975,1.0
6.6333,128.181873,37.949852,7010.914197600001,0.287,16.255,179.974,1.0
6.65,128.181873,37.949804,7011.7039343999995,0.291,16.375,179.974,1.0
6.6666,128.181872,37.949757,7012.5043392,0.296,16.494,179.973,1.0
6.6833,128.181872,37.94971,7013.3157168,0.3,16.613,179.973,1.0
6.7,128.181872,37.949663,7014.1377624,0.305,16.732,179.972,1.0
6.7166,128.181872,37.949615,7014.9707808,0.31,16.851,179.972,1.0
6.7333,128.181872,37.949568,7015.814772000001,0.315,16.97,179.971,1.0
6.75,128.181872,37.949521,7016.6694312,0.319,17.089,179.971,1.0
6.7666,128.181872,37.949474,7017.5347584,0.324,17.208,179.97,1.0
6.7833,128.181872,37.949427,7018.4110584,0.33,17.327,179.97,1.0
6.8,128.181872,37.949379,7019.298331200001,0.335,17.446,179.969,1.0
6.8166,128.181872,37.949332,7020.1959672,0.34,17.565,179.968,1.0
6.8333,128.181872,37.949285,7021.104576,0.345,17.684,179.968,1.0
6.85,128.181872,37.949238,7022.0241576,0.35,17.803,179.967,1.0
6.8666,128.181872,37.949191,7022.9541024,0.356,17.921,179.967,1.0
6.8833,128.181872,37.949144,7023.895020000001,0.361,18.04,179.966,1.0
6.9,128.181872,37.949097,7024.846605600001,0.367,18.159,179.965,1.0
6.9166,128.181872,37.94905,7025.8088592,0.372,18.278,179.965,1.0
6.9333,128.181872,37.949003,7026.7820856,0.378,18.396,179.964,1.0
6.95,128.181872,37.948956,7027.7656752,0.384,18.515,179.963,1.0
6.9666,128.181871,37.948909,7028.759932800001,0.39,18.634,179.963,1.0
6.9833,128.181871,37.948863,7029.765163200001,0.396,18.752,179.962,1.0
7.0,128.181871,37.948816,7030.780756800001,0.402,18.871,179.961,1.0
7.0166,128.181871,37.948769,7031.807018400001,0.408,18.989,179.961,1.0
7.0333,128.181871,37.948722,7032.843948,0.414,19.108,179.96,1.0
7.05,128.181871,37.948675,7033.8915456,0.421,19.226,179.959,1.0
7.0666,128.181871,37.948629,7034.949811200001,0.427,19.345,179.958,1.0
7.0833,128.181871,37.948582,7036.018744800001,0.434,19.463,179.958,1.0
7.1,128.181871,37.948535,7037.0980416,0.44,19.581,179.957,1.0
7.1166,128.181871,37.948489,7038.188006400001,0.447,19.7,179.956,1.0
7.1333,128.181871,37.948442,7039.2886392,0.454,19.818,179.955,1.0
7.15,128.181871,37.948396,7040.3996352,0.46,19.936,179.954,1.0
7.1666,128.181871,37.948349,7041.521299200001,0.467,20.054,179.954,1.0
7.1833,128.181871,37.948303,7042.6533264,0.474,20.172,179.953,1.0
7.2,128.181871,37.948256,7043.7960216,0.482,20.291,179.952,1.0
7.2166,128.18187,37.94821,7044.94908,0.489,20.409,179.951,1.0
7.2333,128.18187,37.948163,7046.1128064,0.496,20.527,179.95,1.0
7.25,128.18187,37.948117,7047.2868960000005,0.504,20.645,179.949,1.0
7.2666,128.18187,37.94807,7048.4716536000005,0.511,20.763,179.948,1.0
7.2833,128.18187,37.948024,7049.666469600001,0.519,20.881,179.947,1.0
7.3,128.18187,37.947978,7050.8719536,0.527,20.999,179.946,1.0
7.3166,128.18187,37.947931,7052.087800800001,0.535,21.117,179.945,1.0
7.3333,128.18187,37.947885,7053.314011200001,0.543,21.235,179.944,1.0
7.35,128.18187,37.947839,7054.5508896,0.551,21.352,179.943,1.0
7.3666,128.18187,37.947793,7055.7978264,0.559,21.47,179.942,1.0
7.3833,128.18187,37.947747,7057.0554312,0.568,21.588,179.941,1.0
7.4,128.18187,37.947701,7058.3230944,0.576,21.706,179.94,1.0
7.4166,128.18187,37.947654,7059.6011208,0.585,21.823,179.939,1.0
7.4333,128.181869,37.947608,7060.889815200001,0.593,21.941,179.938,1.0
7.45,128.181869,37.947562,7062.1885680000005,0.602,22.059,179.937,1.0
7.4666,128.181869,37.947516,7063.497379200001,0.611,22.176,179.936,1.0
7.4833,128.181869,37.94747,7064.8168584000005,0.62,22.294,179.935,1.0
7.5,128.181869,37.947425,7066.146396,0.63,22.411,179.934,1.0
7.5166,128.181869,37.947379,7067.486296800001,0.639,22.529,179.932,1.0
7.5333,128.181869,37.947333,7068.8365608,0.648,22.646,179.931,1.0
7.55,128.181869,37.947287,7070.196883200001,0.658,22.764,179.93,1.0
7.5666,128.181869,37.947241,7071.5675688,0.668,22.881,179.929,1.0
7.5833,128.181869,37.947195,7072.9483128,0.678,22.998,179.927,1.0
7.6,128.181869,37.94715,7074.339420000001,0.688,23.116,179.926,1.0
7.6166,128.181868,37.947104,7075.7405856000005,0.698,23.233,179.925,1.0
7.6333,128.181868,37.947058,7077.151809600001,0.708,23.35,179.924,1.0
7.65,128.181868,37.947013,7078.5733968,0.719,23.467,179.922,1.0
7.6666,128.181868,37.946967,7080.0047376,0.729,23.585,179.921,1.0
7.6833,128.181868,37.946922,7081.4464416,0.74,23.702,179.919,1.0
7.7,128.181868,37.946876,7082.8985088,0.751,23.819,179.918,1.0
7.7166,128.181868,37.946831,7084.3603296,0.762,23.936,179.917,1.0
7.7333,128.181868,37.946785,7085.8322088,0.773,24.053,179.915,1.0
7.75,128.181868,37.94674,7087.314451200001,0.784,24.17,179.914,1.0
7.7666,128.181867,37.946695,7088.806447200001,0.796,24.287,179.912,1.0
7.7833,128.181867,37.946649,7090.3085016,0.808,24.404,179.911,1.0
7.8,128.181867,37.946604,7091.8206144000005,0.819,24.52,179.909,1.0
7.8166,128.181867,37.946559,7093.3427856,0.831,24.637,179.908,1.0
7.8333,128.181867,37.946514,7094.875015200001,0.844,24.754,179.906,1.0
7.85,128.181867,37.946468,7096.4169984,0.856,24.871,179.904,1.0
7.8666,128.181867,37.946423,7097.96904,0.868,24.987,179.903,1.0
7.8833,128.181867,37.946378,7099.53114,0.881,25.104,179.901,1.0
7.9,128.181867,37.946333,7101.1029935999995,0.894,25.221,179.899,1.0
7.9166,128.181866,37.946288,7102.6846008,0.907,25.337,179.898,1.0
7.9333,128.181866,37.946243,7104.2762664,0.92,25.454,179.896,1.0
7.95,128.181866,37.946198,7105.8779904,0.933,25.57,179.895,1.0
7.9666,128.181866,37.946153,7107.489468000001,0.946,25.687,179.893,1.0
7.9833,128.181866,37.946108,7109.1106992,0.959,25.803,179.892,1.0
8.0,128.181866,37.946064,7110.7416840000005,0.973,25.92,179.891,1.0
8.0166,128.181866,37.946019,7112.382727200001,0.986,26.036,179.889,1.0
8.0333,128.181866,37.945974,7114.033524,1.0,26.152,179.888,1.0
8.05,128.181865,37.945929,7115.6937696,1.014,26.269,179.887,1.0
8.0666,128.181865,37.945885,7117.364073600001,1.028,26.385,179.887,1.0
8.0833,128.181865,37.94584,7119.0441312,1.042,26.501,179.886,1.0
8.1,128.181865,37.945796,7120.733942400001,1.056,26.617,179.885,1.0
8.1166,128.181865,37.945751,7122.4335072,1.071,26.733,179.884,1.0
8.1333,128.181865,37.945707,7124.1425208,1.086,26.85,179.884,1.0
8.15,128.181865,37.945662,7125.861288000001,1.1,26.966,179.884,1.0
8.1666,128.181864,37.945618,7127.5898088,1.116,27.082,179.883,1.0
8.1833,128.181864,37.945573,7129.328083200001,1.131,27.197,179.883,1.0
8.2,128.181864,37.945529,7131.075806400001,1.146,27.313,179.883,1.0
8.2166,128.181864,37.945485,7132.833283200001,1.162,27.429,179.883,1.0
8.2333,128.181864,37.94544,7134.6002088000005,1.178,27.545,179.883,1.0
8.25,128.181864,37.945396,7136.376888000001,1.194,27.661,179.883,1.0
8.2666,128.181863,37.945352,7138.1630159999995,1.21,27.777,179.883,1.0
8.2833,128.181863,37.945308,7139.958592800001,1.227,27.892,179.883,1.0
8.3,128.181863,37.945264,7141.7639232,1.244,28.008,179.884,1.0
8.3166,128.181863,37.94522,7143.5787024,1.26,28.124,179.884,1.0
8.3333,128.181863,37.945176,7145.4029304,1.277,28.239,179.885,1.0
8.35,128.181863,37.945132,7147.2366071999995,1.295,28.355,179.886,1.0
8.3666,128.181862,37.945088,7149.079732800001,1.312,28.47,179.886,1.0
8.3833,128.181862,37.945044,7150.932612,1.329,28.586,179.887,1.0
8.4,128.181862,37.945,7152.7946352,1.347,28.701,179.888,1.0
8.4166,128.181862,37.944957,7154.6661072,1.365,28.816,179.889,1.0
8.4333,128.181862,37.944913,7156.547028000001,1.383,28.932,179.89,1.0
8.45,128.181862,37.944869,7158.437092800001,1.401,29.047,179.891,1.0
8.4666,128.181861,37.944826,7160.336911200001,1.419,29.162,179.893,1.0
8.4833,128.181861,37.944782,7162.245873600001,1.438,29.277,179.894,1.0
8.5,128.181861,37.944738,7164.16398,1.456,29.393,179.895,1.0
8.5166,128.181861,37.944695,7166.09184,1.475,29.508,179.897,1.0
8.5333,128.181861,37.944652,7168.0285392,1.494,29.623,179.899,1.0
8.55,128.18186,37.944608,7169.9746872000005,1.513,29.738,179.9,1.0
8.5666,128.18186,37.944565,7171.930284000001,1.532,29.853,179.902,1.0
8.5833,128.18186,37.944521,7173.895024800001,1.551,29.968,179.904,1.0
8.6,128.18186,37.944478,7175.868909600001,1.571,30.083,179.906,1.0
8.6166,128.18186,37.944435,7177.851938400001,1.59,30.197,179.908,1.0
8.6333,128.181859,37.944392,7179.844111200001,1.61,30.312,179.91,1.0
8.65,128.181859,37.944349,7181.8457328,1.63,30.427,179.912,1.0
8.6666,128.181859,37.944306,7183.8561936,1.649,30.542,179.915,1.0
8.6833,128.181859,37.944263,7185.8761032,1.669,30.656,179.917,1.0
8.7,128.181858,37.94422,7187.904852000001,1.689,30.771,179.92,1.0
8.7166,128.181858,37.944177,7189.942744800001,1.71,30.885,179.922,1.0
8.7333,128.181858,37.944134,7191.9897816,1.73,31.0,179.925,1.0
8.75,128.181858,37.944091,7194.0459624000005,1.75,31.114,179.928,1.0
8.7666,128.181858,37.944048,7196.1109824000005,1.771,31.229,179.93,1.0
8.7833,128.181857,37.944005,7198.185146400001,1.791,31.343,179.933,1.0
8.8,128.181857,37.943963,7200.2681496000005,1.812,31.458,179.936,1.0
8.8166,128.181857,37.94392,7202.3602968000005,1.832,31.572,179.939,1.0
8.8333,128.181857,37.943878,7204.461588000001,1.853,31.686,179.943,1.0
8.85,128.181856,37.943835,7206.571413600001,1.874,31.8,179.946,1.0
8.8666,128.181856,37.943792,7208.690383200001,1.895,31.915,179.949,1.0
8.8833,128.181856,37.94375,7210.818192000001,1.916,32.029,179.953,1.0
8.9,128.181855,37.943708,7212.9551448,1.937,32.143,179.956,1.0
8.9166,128.181855,37.943665,7215.100632000001,1.958,32.258,179.96,1.0
8.9333,128.181855,37.943623,7217.255263200001,1.979,32.373,179.963,1.0
8.95,128.181855,37.943581,7219.418428800001,2.0,32.488,179.967,1.0
8.9666,128.181854,37.943539,7221.590738400001,2.021,32.603,179.971,1.0
8.9833,128.181854,37.943496,7223.771582400001,2.042,32.719,179.975,1.0
9.0,128.181854,37.943454,7225.961570400001,2.064,32.836,179.979,1.0
9.0166,128.181854,37.943412,7228.160092800001,2.085,32.953,179.983,1.0
9.0333,128.181853,37.94337,7230.367149600001,2.106,33.07,179.988,1.0
9.05,128.181853,37.943328,7232.5833504,2.127,33.188,179.992,1.0
9.0666,128.181853,37.943286,7234.808085600001,2.149,33.306,179.997,1.0
9.0833,128.181852,37.943245,7237.041660000001,2.17,33.424,180.001,1.0
9.1,128.181852,37.943203,7239.283768800001,2.191,33.542,180.006,1.0
9.1166,128.181852,37.943161,7241.5347168,2.213,33.661,180.011,1.0
9.1333,128.181851,37.943119,7243.794199200001,2.234,33.78,180.016,1.0
9.15,128.181851,37.943078,7246.062216,2.255,33.9,180.021,1.0
9.1666,128.181851,37.943036,7248.339072,2.277,34.019,180.026,1.0
9.1833,128.18185,37.942995,7250.6247672,2.298,34.139,180.031,1.0
9.2,128.18185,37.942953,7252.918692,2.319,34.259,180.036,1.0
9.2166,128.18185,37.942912,7255.221456000001,2.34,34.379,180.042,1.0
9.2333,128.181849,37.94287,7257.5327544,2.361,34.499,180.047,1.0
9.25,128.181849,37.942829,7259.852587200001,2.382,34.62,180.053,1.0
9.2666,128.181849,37.942788,7262.181259200001,2.403,34.74,180.058,1.0
9.2833,128.181848,37.942746,7264.518160800001,2.424,34.861,180.064,1.0
9.3,128.181848,37.942705,7266.863596800001,2.445,34.982,180.07,1.0
9.3166,128.181848,37.942664,7269.217872,2.466,35.103,180.076,1.0
9.3333,128.181847,37.942623,7271.5803768000005,2.487,35.224,180.082,1.0
9.35,128.181847,37.942582,7273.951416,2.508,35.345,180.088,1.0
9.3666,128.181847,37.942541,7276.3309896,2.528,35.466,180.094,1.0
9.3833,128.181846,37.9425,7278.719097600001,2.549,35.588,180.1,1.0
9.4,128.181846,37.942459,7281.1154352,2.569,35.709,180.107,1.0
9.4166,128.181845,37.942419,7283.5203071999995,2.59,35.83,180.113,1.0
9.4333,128.181845,37.942378,7285.9337136,2.61,35.952,180.12,1.0
9.45,128.181845,37.942337,7288.3556544,2.63,36.074,180.126,1.0
9.4666,128.181844,37.942297,7290.785824800001,2.65,36.195,180.133,1.0
9.4833,128.181844,37.942256,7293.224224800001,2.67,36.317,180.14,1.0
9.5,128.181843,37.942216,7295.6711592,2.69,36.439,180.146,1.0
9.5166,128.181843,37.942175,7298.126628000001,2.71,36.561,180.153,1.0
9.5333,128.181842,37.942135,7300.5903264,2.73,36.683,180.16,1.0
9.55,128.181842,37.942094,7303.062254400001,2.749,36.805,180.167,1.0
9.5666,128.181842,37.942054,7305.542412,2.769,36.927,180.175,1.0
9.5833,128.181841,37.942014,7308.031104000001,2.788,37.049,180.182,1.0
9.6,128.181841,37.941974,7310.5280256,2.807,37.171,180.189,1.0
9.6166,128.18184,37.941934,7313.033176800001,2.827,37.294,180.197,1.0
9.6333,128.18184,37.941894,7315.5465576,2.846,37.416,180.204,1.0
9.65,128.181839,37.941854,7318.068472800001,2.864,37.539,180.212,1.0
9.6666,128.181839,37.941814,7320.5983128,2.883,37.661,180.219,1.0
9.6833,128.181838,37.941774,7323.136382400001,2.902,37.784,180.227,1.0
9.7,128.181838,37.941734,7325.6826816,2.92,37.906,180.235,1.0
9.7166,128.181837,37.941694,7328.237210400001,2.939,38.029,180.243,1.0
9.7333,128.181837,37.941655,7330.799968800001,2.957,38.152,180.251,1.0
9.75,128.181836,37.941615,7333.370956800001,2.975,38.275,180.259,1.0
9.7666,128.181836,37.941575,7335.949869600001,2.993,38.398,180.267,1.0
9.7833,128.181835,37.941536,7338.537012,3.011,38.521,180.275,1.0
9.8,128.181835,37.941496,7341.1323840000005,3.028,38.644,180.284,1.0
9.8166,128.181834,37.941457,7343.7356808,3.046,38.767,180.292,1.0
9.8333,128.181834,37.941418,7346.3472071999995,3.063,38.89,180.3,1.0
9.85,128.181833,37.941378,7348.9669632000005,3.08,39.014,180.309,1.0
9.8666,128.181833,37.941339,7351.5943392,3.097,39.137,180.318,1.0
9.8833,128.181832,37.9413,7354.2299448,3.114,39.26,180.326,1.0
9.9,128.181832,37.941261,7356.87378,3.131,39.384,180.335,1.0
9.9166,128.181831,37.941222,7359.525540000001,3.148,39.507,180.344,1.0
9.9333,128.181831,37.941183,7362.1852248000005,3.164,39.631,180.353,1.0
9.95,128.18183,37.941144,7364.8528344,3.181,39.755,180.362,1.0
9.9666,128.18183,37.941105,7367.528673600001,3.197,39.879,180.371,1.0
9.9833,128.181829,37.941066,7370.2121328,3.213,40.002,180.38,1.0
10.0,128.181828,37.941027,7372.9038216,3.229,40.126,180.389,1.0
10.0166,128.181828,37.940989,7375.6031304,3.244,40.25,180.398,1.0
10.0333,128.181827,37.94095,7378.310668800001,3.26,40.374,180.408,1.0
10.05,128.181827,37.940912,7381.0258272,3.275,40.499,180.417,1.0
10.0666,128.181826,37.940873,7383.748910400001,3.29,40.623,180.426,1.0
10.0833,128.181825,37.940835,7386.4799184,3.305,40.747,180.436,1.0
10.1,128.181825,37.940796,7389.2188512,3.32,40.871,180.446,1.0
10.1166,128.181824,37.940758,7391.9654040000005,3.335,40.996,180.455,1.0
10.1333,128.181824,37.94072,7394.720186400001,3.35,41.12,180.465,1.0
10.15,128.181823,37.940681,7397.482284000001,3.364,41.245,180.475,1.0
10.1666,128.181822,37.940643,7400.252306400001,3.378,41.37,180.485,1.0
10.1833,128.181822,37.940605,7403.0302536,3.392,41.494,180.495,1.0
10.2,128.181821,37.940567,7405.8158207999995,3.406,41.619,180.505,1.0
10.2166,128.18182,37.940529,7408.6093128,3.42,41.744,180.515,1.0
10.2333,128.18182,37.940491,7411.410424800001,3.433,41.869,180.525,1.0
10.25,128.181819,37.940454,7414.219156800001,3.447,41.994,180.535,1.0
10.2666,128.181818,37.940416,7417.035508800001,3.46,42.119,180.545,1.0
10.2833,128.181818,37.940378,7419.859785600001,3.473,42.244,180.556,1.0
10.3,128.181817,37.940341,7422.6913776,3.486,42.37,180.566,1.0
10.3166,128.181816,37.940303,7425.5308944,3.499,42.495,180.577,1.0
10.3333,128.181816,37.940266,7428.3780312,3.511,42.62,180.587,1.0
10.35,128.181815,37.940228,7431.232788000001,3.524,42.746,180.598,1.0
10.3666,128.181814,37.940191,7434.09486,3.536,42.871,180.608,1.0
10.3833,128.181814,37.940154,7436.964856800001,3.548,42.997,180.619,1.0
10.4,128.181813,37.940116,7439.842168800001,3.56,43.123,180.63,1.0
10.4166,128.181812,37.940079,7442.727100800001,3.572,43.249,180.641,1.0
10.4333,128.181811,37.940042,7445.6196528,3.584,43.374,180.652,1.0
10.45,128.181811,37.940005,7448.519520000001,3.595,43.5,180.663,1.0
10.4666,128.18181,37.939968,7451.4270072,3.606,43.626,180.674,1.0
10.4833,128.181809,37.939931,7454.3421144,3.617,43.752,180.685,1.0
10.5,128.181808,37.939894,7457.2645368,3.628,43.879,180.696,1.0
10.5166,128.181808,37.939858,7460.194274400001,3.639,44.005,180.707,1.0
10.5333,128.181807,37.939821,7463.1316320000005,3.65,44.131,180.718,1.0
10.55,128.181806,37.939784,7466.076304800001,3.66,44.258,180.73,1.0
10.5666,128.181805,37.939748,7469.028292800001,3.671,44.384,180.741,1.0
10.5833,128.181805,37.939711,7471.987900800001,3.681,44.511,180.752,1.0
10.6,128.181804,37.939675,7474.954824,3.691,44.637,180.764,1.0
10.6166,128.181803,37.939638,7477.9287576,3.701,44.764,180.775,1.0
10.6333,128.181802,37.939602,7480.910311200001,3.71,44.891,180.787,1.0
10.65,128.181801,37.939566,7483.89918,3.72,45.018,180.799,1.0
10.6666,128.181801,37.93953,7486.895364000001,3.729,45.145,180.81,1.0
10.6833,128.1818,37.939494,7489.8988632,3.739,45.272,180.822,1.0
10.7,128.181799,37.939458,7492.909372800001,3.748,45.399,180.834,1.0
10.7166,128.181798,37.939422,7495.927197600001,3.757,45.526,180.846,1.0
10.7333,128.181797,37.939386,7498.952337600001,3.766,45.654,180.858,1.0
10.75,128.181796,37.93935,7501.984792800001,3.774,45.781,180.87,1.0
10.7666,128.181795,37.939314,7505.0242584,3.783,45.908,180.882,1.0
10.7833,128.181795,37.939279,7508.0707344,3.791,46.036,180.894,1.0
10.8,128.181794,37.939243,7511.1248304,3.799,46.164,180.906,1.0
10.8166,128.181793,37.939207,7514.185632000001,3.808,46.291,180.918,1.0
10.8333,128.181792,37.939172,7517.2537488,3.816,46.419,180.931,1.0
10.85,128.181791,37.939137,7520.3288760000005,3.823,46.547,180.943,1.0
10.8666,128.18179,37.939101,7523.411318400001,3.831,46.675,180.955,1.0
10.8833,128.181789,37.939066,7526.5007712,3.839,46.803,180.968,1.0
10.9,128.181788,37.939031,7529.596929599999,3.846,46.931,180.98,1.0
10.9166,128.181788,37.938996,7532.7004032,3.853,47.06,180.993,1.0
10.9333,128.181787,37.938961,7535.8108872,3.86,47.188,181.005,1.0
10.95,128.181786,37.938926,7538.928381600001,3.868,47.316,181.018,1.0
10.9666,128.181785,37.938891,7542.052886400001,3.874,47.445,181.03,1.0
10.9833,128.181784,37.938856,7545.1844016000005,3.881,47.573,181.043,1.0
11.0,128.181783,37.938821,7548.3226224,3.888,47.702,181.056,1.0
11.0166,128.181782,37.938787,7551.4678536,3.894,47.831,181.069,1.0
11.0333,128.181781,37.938752,7554.6200952,3.901,47.96,181.082,1.0
11.05,128.18178,37.938717,7557.7790424,3.907,48.089,181.095,1.0
11.0666,128.181779,37.938683,7560.945000000001,3.913,48.218,181.108,1.0
11.0833,128.181778,37.938648,7564.1179680000005,3.919,48.347,181.121,1.0
11.1,128.181777,37.938614,7567.2976416,3.925,48.476,181.134,1.0
11.1166,128.181776,37.93858,7570.4840208,3.931,48.605,181.147,1.0
11.1333,128.181775,37.938546,7573.677410400001,3.936,48.735,181.16,1.0
11.15,128.181774,37.938512,7576.8772008000005,3.942,48.864,181.173,1.0
11.1666,128.181773,37.938478,7580.084001600001,3.947,48.994,181.186,1.0
11.1833,128.181772,37.938444,7583.2978128,3.953,49.123,181.2,1.0
11.2,128.181771,37.93841,7586.518024800001,3.958,49.253,181.213,1.0
11.2166,128.18177,37.938376,7589.744942400001,3.963,49.383,181.226,1.0
11.2333,128.181769,37.938342,7592.978565600001,3.968,49.513,181.24,1.0
11.25,128.181768,37.938308,7596.2188944,3.973,49.643,181.253,1.0
11.2666,128.181767,37.938275,7599.465928800001,3.978,49.773,181.267,1.0
11.2833,128.181766,37.938241,7602.7196688,3.982,49.903,181.281,1.0
11.3,128.181765,37.938208,7605.9801144,3.987,50.034,181.294,1.0
11.3166,128.181764,37.938175,7609.246960800001,3.991,50.164,181.308,1.0
11.3333,128.181763,37.938141,7612.520208,3.996,50.295,181.322,1.0
11.35,128.181762,37.938108,7615.8001608,4.0,50.425,181.335,1.0
11.3666,128.181761,37.938075,7619.086819200001,4.004,50.556,181.349,1.0
11.3833,128.181759,37.938042,7622.379878400001,4.008,50.687,181.363,1.0
11.4,128.181758,37.938009,7625.6796432,4.012,50.818,181.377,1.0
11.4166,128.181757,37.937976,7628.985504,4.016,50.949,181.391,1.0
11.4333,128.181756,37.937943,7632.298070400001,4.02,51.08,181.405,1.0
11.45,128.181755,37.93791,7635.617037600001,4.024,51.211,181.419,1.0
11.4666,128.181754,37.937877,7638.942710400001,4.027,51.342,181.433,1.0
11.4833,128.181753,37.937845,7642.274479200001,4.031,51.474,181.447,1.0
11.5,128.181752,37.937812,7645.6126488,4.034,51.605,181.462,1.0
11.5166,128.181751,37.93778,7648.9572192000005,4.038,51.737,181.476,1.0
11.5333,128.181749,37.937747,7652.3081904,4.041,51.868,181.49,1.0
11.55,128.181748,37.937715,7655.6655624,4.044,52.0,181.504,1.0
11.5666,128.181747,37.937683,7659.0290304,4.047,52.132,181.519,1.0
11.5833,128.181746,37.937651,7662.3988992,4.05,52.264,181.533,1.0
11.6,128.181745,37.937619,7665.775168800001,4.053,52.396,181.548,1.0
11.6166,128.181744,37.937587,7669.1575344,4.056,52.528,181.562,1.0
11.6333,128.181743,37.937555,7672.546300800001,4.059,52.66,181.577,1.0
11.65,128.181741,37.937523,7675.9411632,4.062,52.792,181.591,1.0
11.6666,128.18174,37.937491,7679.3421216,4.064,52.924,181.606,1.0
11.6833,128.181739,37.937459,7682.7494808,4.067,53.056,181.621,1.0
11.7,128.181738,37.937428,7686.162936000001,4.069,53.188,181.635,1.0
11.7166,128.181737,37.937396,7689.5824872,4.072,53.321,181.65,1.0
11.7333,128.181735,37.937365,7693.0081344,4.074,53.453,181.665,1.0
11.75,128.181734,37.937333,7696.439877600001,4.076,53.585,181.68,1.0
11.7666,128.181733,37.937302,7699.8777168,4.079,53.718,181.695,1.0
11.7833,128.181732,37.937271,7703.321347200001,4.081,53.851,181.71,1.0
11.8,128.181731,37.93724,7706.771378400001,4.083,53.983,181.725,1.0
11.8166,128.181729,37.937208,7710.227200800001,4.085,54.116,181.74,1.0
11.8333,128.181728,37.937177,7713.6891192,4.087,54.249,181.755,1.0
11.85,128.181727,37.937147,7717.157133600001,4.089,54.382,181.77,1.0
11.8666,128.181726,37.937116,7720.6309392,4.09,54.515,181.785,1.0
11.8833,128.181724,37.937085,7724.110536,4.092,54.648,181.8,1.0
11.9,128.181723,37.937054,7727.596228800001,4.094,54.781,181.815,1.0
11.9166,128.181722,37.937024,7731.0877128,4.096,54.915,181.831,1.0
11.9333,128.181721,37.936993,7734.585292800001,4.097,55.048,181.846,1.0
11.95,128.181719,37.936963,7738.0883592,4.099,55.182,181.861,1.0
11.9666,128.181718,37.936932,7741.5975216,4.1,55.315,181.877,1.0
11.9833,128.181717,37.936902,7745.1124752,4.102,55.449,181.892,1.0
12.0,128.181715,37.936872,7748.633220000001,4.103,55.583,181.908,1.0
12.0166,128.181714,37.936842,7752.159451200001,4.104,55.717,181.923,1.0
12.0333,128.181713,37.936812,7755.691778400001,4.106,55.851,181.939,1.0
12.05,128.181711,37.936782,7759.229592000001,4.107,55.985,181.955,1.0
12.0666,128.18171,37.936752,7762.773196800001,4.108,56.119,181.97,1.0
12.0833,128.181709,37.936722,7766.322592800001,4.109,56.253,181.986,1.0
12.1,128.181708,37.936692,7769.8774752,4.111,56.388,182.002,1.0
12.1166,128.181706,37.936663,7773.437844,4.112,56.522,182.018,1.0
12.1333,128.181705,37.936633,7777.004004,4.113,56.657,182.034,1.0
12.15,128.181704,37.936604,7780.575955200001,4.114,56.792,182.05,1.0
12.1666,128.181702,37.936574,7784.153392800001,4.115,56.927,182.066,1.0
12.1833,128.181701,37.936545,7787.736012,4.116,57.062,182.082,1.0
12.2,128.1817,37.936516,7791.3244224,4.117,57.197,182.098,1.0
12.2166,128.181698,37.936486,7794.918624000001,4.118,57.332,182.114,1.0
12.2333,128.181697,37.936457,7798.5180072,4.118,57.467,182.131,1.0
12.25,128.181695,37.936428,7802.1228768,4.119,57.603,182.147,1.0
12.2666,128.181694,37.9364,7805.7332328,4.12,57.738,182.163,1.0
12.2833,128.181693,37.936371,7809.348770400001,4.121,57.874,182.18,1.0
12.3,128.181691,37.936342,7812.9700992,4.122,58.01,182.196,1.0
12.3166,128.18169,37.936313,7816.5966096,4.122,58.145,182.213,1.0
12.3333,128.181689,37.936285,7820.228301600001,4.123,58.281,182.229,1.0
12.35,128.181687,37.936256,7823.86548,4.124,58.417,182.246,1.0
12.3666,128.181686,37.936228,7827.5081448,4.124,58.554,182.262,1.0
12.3833,128.181684,37.9362,7831.1559912,4.125,58.69,182.279,1.0
12.4,128.181683,37.936171,7834.809019200001,4.125,58.827,182.296,1.0
12.4166,128.181682,37.936143,7838.467228800001,4.126,58.963,182.313,1.0
12.4333,128.18168,37.936115,7842.130924800001,4.127,59.1,182.33,1.0
12.45,128.181679,37.936087,7845.799497600001,4.127,59.237,182.347,1.0
12.4666,128.181677,37.936059,7849.473556800001,4.128,59.374,182.364,1.0
12.4833,128.181676,37.936031,7853.152492800001,4.128,59.511,182.381,1.0
12.5,128.181675,37.936004,7856.8369152000005,4.129,59.648,182.398,1.0
12.5166,128.181673,37.935976,7860.526214400001,4.129,59.785,182.415,1.0
12.5333,128.181672,37.935948,7864.220695200001,4.13,59.923,182.432,1.0
12.55,128.18167,37.935921,7867.9200528,4.13,60.06,182.45,1.0
12.5666,128.181669,37.935893,7871.624592000001,4.13,60.198,182.467,1.0
12.5833,128.181667,37.935866,7875.334312800001,4.131,60.336,182.485,1.0
12.6,128.181666,37.935839,7879.048910400001,4.131,60.473,182.502,1.0
12.6166,128.181664,37.935812,7882.7683848,4.132,60.612,182.52,1.0
12.6333,128.181663,37.935785,7886.4930408,4.132,60.75,182.537,1.0
12.65,128.181661,37.935758,7890.222573600001,4.132,60.888,182.555,1.0
12.6666,128.18166,37.935731,7893.956983200001,4.133,61.026,182.573,1.0
12.6833,128.181659,37.935704,7897.696269600001,4.133,61.165,182.591,1.0
12.7,128.181657,37.935677,7901.440432800001,4.133,61.304,182.609,1.0
12.7166,128.181656,37.935651,7905.189472800001,4.134,61.443,182.627,1.0
12.7333,128.181654,37.935624,7908.9433896,4.134,61.582,182.645,1.0
12.75,128.181653,37.935598,7912.701878400001,4.135,61.721,182.663,1.0
12.7666,128.181651,37.935571,7916.465244,4.135,61.86,182.681,1.0
12.7833,128.18165,37.935545,7920.2334864,4.135,61.999,182.7,1.0
12.8,128.181648,37.935519,7924.0066056000005,4.136,62.139,182.718,1.0
12.8166,128.181647,37.935493,7927.783992000001,4.136,62.278,182.736,1.0
12.8333,128.181645,37.935467,7931.56656,4.136,62.418,182.755,1.0
12.85,128.181644,37.935441,7935.353395200001,4.137,62.558,182.773,1.0
12.8666,128.181642,37.935415,7939.1451072,4.137,62.698,182.792,1.0
12.8833,128.181641,37.935389,7942.941391200001,4.137,62.838,182.811,1.0
12.9,128.181639,37.935363,7946.742247200001,4.138,62.979,182.83,1.0
12.9166,128.181638,37.935338,7950.5476751999995,4.138,63.119,182.849,1.0
12.9333,128.181636,37.935312,7954.3576752,4.138,63.26,182.868,1.0
12.95,128.181635,37.935287,7958.172247200001,4.139,63.401,182.887,1.0
12.9666,128.181633,37.935262,7961.9913912,4.139,63.542,182.906,1.0
12.9833,128.181632,37.935236,7965.8148024,4.139,63.683,182.925,1.0
13.0,128.18163,37.935211,7969.6427856,4.14,63.824,182.945,1.0
13.0166,128.181628,37.935186,7973.475340800001,4.14,63.965,182.964,1.0
13.0333,128.181627,37.935161,7977.3121632,4.141,64.107,182.983,1.0
13.0499,128.181625,37.935136,7981.1535576,4.141,64.248,183.003,1.0
13.0666,128.181624,37.935112,7984.999219200001,4.142,64.39,183.023,1.0
13.0833,128.181622,37.935087,7988.849148,4.142,64.532,183.043,1.0
13.1,128.181621,37.935062,7992.7033440000005,4.143,64.674,183.062,1.0
13.1166,128.181619,37.935038,7996.562112,4.143,64.816,183.082,1.0
13.1333,128.181618,37.935013,8000.4251472000005,4.144,64.959,183.102,1.0
13.15,128.181616,37.934989,8004.292144800001,4.144,65.101,183.123,1.0
13.1666,128.181614,37.934965,8008.163714400001,4.145,65.244,183.143,1.0
13.1833,128.181613,37.93494,8012.039246400001,4.145,65.387,183.163,1.0
13.2,128.181611,37.934916,8015.919045600001,4.146,65.53,183.184,1.0
13.2166,128.18161,37.934892,8019.8028072,4.146,65.673,183.204,1.0
13.2333,128.181608,37.934868,8023.6911408000005,4.147,65.817,183.225,1.0
13.25,128.181607,37.934845,8027.583132000001,4.148,65.96,183.246,1.0
13.2666,128.181605,37.934821,8031.4793904,4.148,66.104,183.267,1.0
13.2833,128.181604,37.934797,8035.379916,4.149,66.249,183.288,1.0
13.3,128.181602,37.934774,8039.284404,4.15,66.394,183.309,1.0
13.3166,128.1816,37.93475,8043.1928544,4.151,66.539,183.33,1.0
13.3333,128.181599,37.934727,8047.1052672000005,4.151,66.684,183.352,1.0
13.35,128.181597,37.934704,8051.021642400001,4.152,66.83,183.373,1.0
13.3666,128.181596,37.93468,8054.94198,4.153,66.976,183.395,1.0
13.3833,128.181594,37.934657,8058.8659752,4.154,67.122,183.417,1.0
13.4,128.181592,37.934634,8062.794237600001,4.155,67.269,183.439,1.0
13.4166,128.181591,37.934611,8066.7261576,4.156,67.416,183.461,1.0
13.4333,128.181589,37.934589,8070.66204,4.157,67.563,183.484,1.0
13.45,128.181588,37.934566,8074.6018848,4.157,67.711,183.506,1.0
13.4666,128.181586,37.934543,8078.545387200001,4.158,67.859,183.529,1.0
13.4833,128.181584,37.934521,8082.4925472,4.159,68.007,183.552,1.0
13.5,128.181583,37.934498,8086.443669600001,4.16,68.156,183.575,1.0
13.5166,128.181581,37.934476,8090.3984496,4.161,68.305,183.598,1.0
13.5333,128.18158,37.934454,8094.3568872000005,4.162,68.454,183.621,1.0
13.55,128.181578,37.934431,8098.318982400001,4.163,68.604,183.645,1.0
13.5666,128.181576,37.934409,8102.28504,4.165,68.754,183.668,1.0
13.5833,128.181575,37.934387,8106.254450400001,4.166,68.904,183.692,1.0
13.6,128.181573,37.934365,8110.2275184,4.167,69.054,183.716,1.0
13.6166,128.181572,37.934344,8114.2039392,4.168,69.205,183.74,1.0
13.6333,128.18157,37.934322,8118.1843224,4.169,69.356,183.765,1.0
13.65,128.181568,37.9343,8122.1680584000005,4.17,69.507,183.789,1.0
13.6666,128.181567,37.934279,8126.155147200001,4.171,69.659,183.814,1.0
13.6833,128.181565,37.934257,8130.1458936,4.173,69.811,183.839,1.0
13.7,128.181564,37.934236,8134.140297600001,4.174,69.963,183.864,1.0
13.7166,128.181562,37.934215,8138.1377496000005,4.175,70.116,183.889,1.0
13.7333,128.18156,37.934193,8142.1388592,4.176,70.269,183.914,1.0
13.75,128.181559,37.934172,8146.1433216000005,4.178,70.422,183.94,1.0
13.7666,128.181557,37.934151,8150.1511368,4.179,70.575,183.966,1.0
13.7833,128.181555,37.934131,8154.1623048,4.18,70.729,183.992,1.0
13.8,128.181554,37.93411,8158.1768256,4.182,70.883,184.018,1.0
13.8166,128.181552,37.934089,8162.1943944,4.183,71.037,184.044,1.0
13.8333,128.181551,37.934069,8166.215316,4.185,71.192,184.071,1.0
13.85,128.181549,37.934048,8170.2395904,4.186,71.347,184.098,1.0
13.8666,128.181547,37.934028,8174.267217600001,4.188,71.502,184.125,1.0
13.8833,128.181546,37.934007,8178.297588,4.189,71.658,184.152,1.0
13.9,128.181544,37.933987,8182.3316159999995,4.191,71.814,184.18,1.0
13.9166,128.181543,37.933967,8186.368387200001,4.193,71.97,184.207,1.0
13.9333,128.181541,37.933947,8190.408511200001,4.195,72.126,184.235,1.0
13.95,128.181539,37.933927,8194.4516832,4.196,72.283,184.263,1.0
13.9666,128.181538,37.933907,8198.4979032,4.198,72.44,184.292,1.0
13.9833,128.181536,37.933887,8202.5471712,4.2,72.597,184.32,1.0
14.0,128.181534,37.933868,8206.599182400001,4.202,72.755,184.349,1.0
14.0166,128.181533,37.933848,8210.654546400001,4.204,72.913,184.378,1.0
14.0333,128.181531,37.933829,8214.7126536,4.206,73.071,184.408,1.0
14.05,128.18153,37.933809,8218.7738088,4.209,73.23,184.437,1.0
14.0666,128.181528,37.93379,8222.8377072,4.211,73.389,184.467,1.0
14.0833,128.181526,37.933771,8226.9046536,4.213,73.548,184.497,1.0
14.1,128.181525,37.933752,8230.9743432,4.216,73.707,184.528,1.0
14.1166,128.181523,37.933733,8235.047080800001,4.218,73.866,184.558,1.0
14.1333,128.181521,37.933714,8239.122256800001,4.22,74.025,184.589,1.0
14.15,128.18152,37.933695,8243.2004808,4.223,74.185,184.62,1.0
14.1666,128.181518,37.933677,8247.281448,4.225,74.344,184.651,1.0
14.1833,128.181517,37.933658,8251.3648536,4.227,74.504,184.683,1.0
14.2,128.181515,37.93364,8255.451307199999,4.23,74.664,184.714,1.0
14.2166,128.181513,37.933621,8259.5401992,4.239,74.823,184.749,1.0
14.2333,128.181512,37.933603,8263.6315296,4.254,74.982,184.789,1.0
14.25,128.18151,37.933585,8267.7256032,4.276,75.142,184.831,1.0
14.2666,128.181509,37.933567,8271.8221152,4.304,75.301,184.877,1.0
14.2833,128.181507,37.933549,8275.921065600001,4.337,75.46,184.925,1.0
14.3,128.181505,37.933531,8280.022759200001,4.376,75.62,184.978,1.0
14.3166,128.181504,37.933513,8284.1268912,4.422,75.779,185.035,1.0
14.3333,128.181502,37.933495,8288.2331568,4.474,75.938,185.098,1.0
14.35,128.181501,37.933478,8292.342165600001,4.532,76.097,185.167,1.0
14.3666,128.181499,37.93346,8296.453308,4.598,76.255,185.242,1.0
14.3833,128.181497,37.933443,8300.5668888,4.671,76.414,185.324,1.0
14.4,128.181496,37.933425,8304.682908,4.752,76.573,185.413,1.0
14.4166,128.181494,37.933408,8308.8010608,4.84,76.731,185.51,1.0
14.4333,128.181493,37.933391,8312.921652,4.936,76.889,185.615,1.0
14.45,128.181491,37.933374,8317.0443768,5.041,77.048,185.729,1.0
14.4666,128.181489,37.933357,8321.16954,5.153,77.206,185.849,1.0
14.4833,128.181488,37.93334,8325.2968368,5.273,77.364,185.975,1.0
14.5,128.181486,37.933324,8329.4259624,5.399,77.522,186.107,1.0
14.5166,128.181485,37.933307,8333.5575264,5.531,77.68,186.245,1.0
14.5333,128.181483,37.93329,8337.691224,5.67,77.838,186.386,1.0
14.55,128.181481,37.933274,8341.827055200001,5.814,77.996,186.533,1.0
14.5666,128.18148,37.933258,8345.964715200002,5.964,78.154,186.683,1.0
14.5833,128.181478,37.933241,8350.104508800001,6.118,78.312,186.837,1.0
14.6,128.181477,37.933225,8354.246436,6.278,78.47,186.995,1.0
14.6166,128.181475,37.933209,8358.390192,6.443,78.628,187.157,1.0
14.6333,128.181474,37.933193,8362.5357768,6.613,78.786,187.323,1.0
14.65,128.181472,37.933178,8366.6834952,6.787,78.944,187.492,1.0
14.6666,128.18147,37.933162,8370.833042400001,6.967,79.103,187.666,1.0
14.6833,128.181469,37.933146,8374.984418400001,7.151,79.261,187.843,1.0
14.7,128.181467,37.933131,8379.1376232,7.34,79.419,188.025,1.0
14.7166,128.181466,37.933115,8383.2926568,7.535,79.578,188.212,1.0
14.7333,128.181464,37.9331,8387.449519200001,7.735,79.737,188.403,1.0
14.75,128.181463,37.933085,8391.6079056,7.94,79.895,188.6,1.0
14.7666,128.181461,37.933069,8395.7681208,8.151,80.054,188.801,1.0
14.7833,128.181459,37.933054,8399.9301648,8.368,80.213,189.009,1.0
14.8,128.181458,37.93304,8404.0937328,8.591,80.372,189.222,1.0
14.8166,128.181456,37.933025,8408.2591296,8.821,80.53,189.442,1.0
14.8333,128.181455,37.93301,8412.4257456,9.057,80.689,189.669,1.0
