Time,Longitude,Latitude,Altitude,Roll (deg),Pitch (deg),Yaw (deg),Health
0.0,128.181881,37.923646,7000.146528,0.0,-0.003,0.0,1.0
0.0166,128.181881,37.923691,7000.1605488000005,0.0,-0.012,0.0,1.0
0.0333,128.181881,37.923736,7000.173960000001,0.0,-0.025,0.0,1.0
0.05,128.181881,37.923781,7000.186152000001,0.0,-0.039,0.0,1.0
0.0666,128.181881,37.923826,7000.1977344,0.0,-0.054,0.0,1.0
0.0833,128.181881,37.923871,7000.2084024,0.0,-0.069,359.999,1.0
0.1,128.181881,37.923916,7000.218460800001,0.0,-0.085,359.999,1.0
0.1166,128.181881,37.923961,7000.2276048,-0.004,-0.099,359.999,1.0
0.1333,128.181881,37.924005,7000.2361392,-0.012,-0.113,359.997,1.0
0.15,128.181881,37.924051,7000.2443688,-0.029,-0.126,359.995,1.0
0.1666,128.181881,37.924096,7000.251379200001,-0.048,-0.138,359.993,1.0
0.1833,128.181881,37.924141,7000.2580848,-0.071,-0.15,359.99,1.0
0.2,128.181881,37.924186,7000.263876,-0.098,-0.16,359.987,1.0
0.2166,128.181881,37.924231,7000.2690575999995,-0.129,-0.17,359.983,1.0
0.2333,128.181881,37.924276,7000.273629599999,-0.165,-0.179,359.979,1.0
0.25,128.181881,37.924321,7000.2772872000005,-0.207,-0.188,359.975,1.0
0.2666,128.181881,37.924366,7000.28064,-0.254,-0.196,359.97,1.0
0.2833,128.181881,37.924411,7000.283383200001,-0.307,-0.204,359.965,1.0
0.3,128.181881,37.924456,7000.285212,-0.364,-0.211,359.96,1.0
0.3166,128.181881,37.924501,7000.286736,-0.427,-0.218,359.954,1.0
0.3333,128.181881,37.924546,7000.2861264,-0.393,-0.229,359.952,1.0
0.35,128.181881,37.924591,7000.283992800001,-0.259,-0.243,359.953,1.0
0.3666,128.181881,37.924636,7000.2797256,-0.026,-0.259,359.956,1.0
0.3833,128.181881,37.924681,7000.2748488,0.111,-0.277,359.947,1.0
0.4,128.181881,37.924727,7000.2693624,0.158,-0.296,359.925,1.0
0.4166,128.181881,37.924772,7000.2635712,0.111,-0.315,359.895,1.0
0.4333,128.181881,37.924817,7000.25778,-0.032,-0.334,359.861,1.0
0.45,128.181881,37.924862,7000.2522936,-0.273,-0.353,359.826,1.0
0.4666,128.181881,37.924907,7000.2477216,-0.609,-0.371,359.791,1.0
0.4833,128.181881,37.924952,7000.244064,-1.037,-0.389,359.756,1.0
0.5,128.181881,37.924998,7000.2419304000005,-1.553,-0.406,359.722,1.0
0.5166,128.181881,37.925043,7000.2413208,-2.154,-0.423,359.69,1.0
0.5333,128.181881,37.925088,7000.2428448,-2.837,-0.439,359.658,1.0
0.55,128.181881,37.925133,7000.2468072,-3.598,-0.454,359.627,1.0
0.5666,128.181881,37.925178,7000.2525984,-4.433,-0.468,359.598,1.0
0.5833,128.181881,37.925223,7000.2605232000005,-5.34,-0.482,359.569,1.0
0.6,128.181881,37.925269,7000.2702768,-6.315,-0.495,359.541,1.0
0.6166,128.181881,37.925314,7000.282164,-7.356,-0.508,359.515,1.0
0.6333,128.181881,37.925359,7000.29588,-8.459,-0.52,359.489,1.0
0.65,128.181881,37.925404,7000.311424800001,-9.621,-0.532,359.464,1.0
0.6666,128.181881,37.925449,7000.3287984,-10.842,-0.543,359.439,1.0
0.6833,128.181881,37.925495,7000.347696000001,-12.116,-0.554,359.416,1.0
0.7,128.181881,37.92554,7000.368727200001,-13.443,-0.565,359.393,1.0
0.7166,128.18188,37.925585,7000.391282400001,-14.82,-0.576,359.372,1.0
0.7333,128.18188,37.92563,7000.4156664,-16.244,-0.587,359.351,1.0
0.75,128.18188,37.925675,7000.441269600001,-17.714,-0.598,359.331,1.0
0.7666,128.18188,37.925721,7000.468701600001,-19.228,-0.608,359.311,1.0
0.7833,128.18188,37.925766,7000.4976576,-20.783,-0.619,359.293,1.0
0.8,128.18188,37.925811,7000.5281376,-22.377,-0.63,359.275,1.0
0.8166,128.18188,37.925856,7000.5598368,-24.009,-0.641,359.258,1.0
0.8333,128.181879,37.925901,7000.59306,-25.677,-0.652,359.241,1.0
0.85,128.181879,37.925947,7000.626892800001,-27.375,-0.663,359.226,1.0
0.8666,128.181879,37.925992,7000.6613352,-29.092,-0.675,359.212,1.0
0.8833,128.181879,37.926037,7000.696387200001,-30.821,-0.685,359.201,1.0
0.9,128.181878,37.926082,7000.7314392,-32.554,-0.696,359.191,1.0
0.9166,128.181878,37.926128,7000.7664912,-34.284,-0.706,359.184,1.0
0.9333,128.181878,37.926173,7000.801238400001,-36.006,-0.717,359.178,1.0
0.95,128.181877,37.926218,7000.8356808,-37.714,-0.726,359.173,1.0
0.9666,128.181877,37.926263,7000.8698184,-39.406,-0.736,359.171,1.0
0.9833,128.181876,37.926309,7000.9030416000005,-41.078,-0.746,359.169,1.0
1.0,128.181876,37.926354,7000.935960000001,-42.726,-0.755,359.169,1.0
1.0166,128.181876,37.926399,7000.967964,-44.348,-0.764,359.17,1.0
1.0333,128.181875,37.926444,7000.9990536000005,-45.942,-0.774,359.171,1.0
1.05,128.181875,37.92649,7001.028924000001,-47.506,-0.783,359.174,1.0
1.0666,128.181874,37.926535,7001.05788,-49.039,-0.792,359.177,1.0
1.0833,128.181874,37.92658,7001.0856168,-50.54,-0.8,359.181,1.0
1.1,128.181873,37.926626,7001.1118295999995,-52.006,-0.809,359.185,1.0
1.1166,128.181872,37.926671,7001.1368232,-53.436,-0.818,359.19,1.0
1.1333,128.181872,37.926716,7001.160597600001,-54.829,-0.826,359.196,1.0
1.15,128.181871,37.926762,7001.182238400001,-56.184,-0.834,359.202,1.0
1.1666,128.181871,37.926807,7001.202660000001,-57.498,-0.842,359.208,1.0
1.1833,128.18187,37.926852,7001.220948,-58.77,-0.849,359.215,1.0
1.2,128.181869,37.926898,7001.2374072,-59.999,-0.856,359.223,1.0
1.2166,128.181869,37.926943,7001.2520376,-61.182,-0.863,359.23,1.0
1.2333,128.181868,37.926988,7001.2645344,-62.318,-0.869,359.238,1.0
1.25,128.181867,37.927034,7001.2752024,-63.405,-0.875,359.246,1.0
1.2666,128.181866,37.927079,7001.2831272,-64.44,-0.881,359.255,1.0
1.2833,128.181866,37.927124,7001.2892232,-65.422,-0.886,359.264,1.0
1.3,128.181865,37.92717,7001.292576,-66.349,-0.891,359.273,1.0
1.3166,128.181864,37.927215,7001.2937952,-67.217,-0.895,359.282,1.0
1.3333,128.181863,37.927261,7001.2922712,-68.025,-0.899,359.291,1.0
1.35,128.181863,37.927306,7001.2876992,-68.694,-0.898,359.303,1.0
1.3666,128.181862,37.927352,7001.280079200001,-69.23,-0.892,359.316,1.0
1.3833,128.181861,37.927397,7001.269716,-69.635,-0.883,359.331,1.0
1.4,128.18186,37.927443,7001.2563048,-69.911,-0.874,359.346,1.0
1.4166,128.181859,37.927488,7001.2398456,-70.061,-0.866,359.362,1.0
1.4333,128.181859,37.927534,7001.219728800001,-70.092,-0.857,359.377,1.0
1.45,128.181858,37.927579,7001.1962592,-70.008,-0.848,359.393,1.0
1.4666,128.181857,37.927625,7001.169741600001,-69.815,-0.84,359.41,1.0
1.4833,128.181857,37.92767,7001.1395664,-69.518,-0.831,359.427,1.0
1.5,128.181856,37.927716,7001.1057336,-69.125,-0.819,359.445,1.0
1.5166,128.181855,37.927761,7001.0691576,-68.69,-0.806,359.465,1.0
1.5333,128.181855,37.927807,7001.029533600001,-68.207,-0.791,359.485,1.0
1.55,128.181854,37.927853,7000.9865568000005,-67.663,-0.773,359.507,1.0
1.5666,128.181853,37.927898,7000.940227200001,-67.049,-0.752,359.531,1.0
1.5833,128.181853,37.927944,7000.8929832,-66.534,-0.745,359.534,1.0
1.6,128.181852,37.92799,7000.842996,-66.114,-0.746,359.504,1.0
1.6166,128.181851,37.928035,7000.79118,-65.796,-0.742,359.431,1.0
1.6333,128.181851,37.928081,7000.7375352,-65.587,-0.723,359.306,1.0
1.65,128.18185,37.928127,7000.6823664,-65.49,-0.68,359.12,1.0
1.6666,128.181849,37.928172,7000.6259784,-65.502,-0.608,358.869,1.0
1.6833,128.181849,37.928218,7000.5683712,-65.623,-0.511,358.563,1.0
1.7,128.181848,37.928264,7000.510459200001,-65.848,-0.395,358.214,1.0
1.7166,128.181847,37.928309,7000.451937600001,-66.174,-0.266,357.838,1.0
1.7333,128.181846,37.928355,7000.393416,-66.597,-0.132,357.448,1.0
1.75,128.181845,37.928401,7000.3348944,-67.111,-0.001,357.061,1.0
1.7666,128.181844,37.928447,7000.2763728,-67.714,0.12,356.691,1.0
1.7833,128.181843,37.928492,7000.218460800001,-68.399,0.225,356.353,1.0
1.8,128.181841,37.928538,7000.1611584,-69.164,0.309,356.061,1.0
1.8166,128.18184,37.928584,7000.1041608000005,-70.003,0.367,355.83,1.0
1.8333,128.181838,37.928629,7000.047468000001,-70.915,0.393,355.675,1.0
1.85,128.181837,37.928675,6999.99108,-71.896,0.388,355.599,1.0
1.8666,128.181835,37.928721,6999.934996800001,-72.943,0.359,355.591,1.0
1.8833,128.181833,37.928767,6999.878608800001,-74.056,0.311,355.635,1.0
1.9,128.181832,37.928812,6999.821916,-75.233,0.251,355.718,1.0
1.9166,128.18183,37.928858,6999.7646136,-76.474,0.185,355.824,1.0
1.9333,128.181828,37.928904,6999.706701600001,-77.779,0.117,355.939,1.0
1.95,128.181826,37.928949,6999.6478752,-79.146,0.051,356.048,1.0
1.9666,128.181823,37.928995,6999.5881344,-80.575,-0.01,356.144,1.0
1.9833,128.181821,37.929041,6999.5268696,-82.065,-0.067,356.224,1.0
2.0,128.181819,37.929086,6999.4640808,-83.614,-0.119,356.284,1.0
2.0166,128.181816,37.929132,6999.3994632,-85.221,-0.167,356.323,1.0
2.0333,128.181814,37.929178,6999.3330168,-86.884,-0.212,356.338,1.0
2.05,128.181811,37.929224,6999.2644368,-88.601,-0.254,356.328,1.0
2.0666,128.181809,37.929269,6999.1937232,-90.37,-0.294,356.294,1.0
2.0833,128.181806,37.929315,6999.1202664,-92.188,-0.335,356.235,1.0
2.1,128.181803,37.929361,6999.0443712,-94.055,-0.378,356.151,1.0
2.1166,128.1818,37.929406,6998.965428,-95.966,-0.423,356.043,1.0
2.1333,128.181797,37.929452,6998.883436800001,-97.92,-0.474,355.911,1.0
2.15,128.181794,37.929498,6998.798092800001,-99.915,-0.532,355.755,1.0
2.1666,128.181791,37.929543,6998.709396,-101.949,-0.597,355.578,1.0
2.1833,128.181788,37.929589,6998.616432000001,-104.015,-0.673,355.38,1.0
2.2,128.181784,37.929635,6998.519810400001,-106.092,-0.758,355.163,1.0
2.2166,128.181781,37.92968,6998.4186168,-108.159,-0.854,354.926,1.0
2.2333,128.181777,37.929726,6998.313156000001,-110.198,-0.961,354.671,1.0
2.25,128.181774,37.929772,6998.203428000001,-112.192,-1.081,354.4,1.0
2.2666,128.18177,37.929817,6998.088518400001,-114.124,-1.215,354.113,1.0
2.2833,128.181767,37.929863,6997.9690368,-115.983,-1.363,353.813,1.0
2.3,128.181763,37.929909,6997.8440688,-117.757,-1.528,353.5,1.0
2.3166,128.181759,37.929955,6997.714224,-119.439,-1.708,353.178,1.0
2.3333,128.181755,37.93,6997.578892800001,-121.021,-1.904,352.846,1.0
2.35,128.181751,37.930046,6997.4380752,-122.499,-2.118,352.508,1.0
2.3666,128.181747,37.930092,6997.2914664,-123.869,-2.347,352.163,1.0
2.3833,128.181743,37.930137,6997.1390664,-125.129,-2.589,351.82,1.0
2.4,128.181739,37.930183,6996.9808752,-126.281,-2.836,351.486,1.0
2.4166,128.181734,37.930229,6996.816588000001,-127.322,-3.084,351.17,1.0
2.4333,128.18173,37.930274,6996.645595200001,-128.326,-3.331,350.876,1.0
2.45,128.181726,37.93032,6996.467287200001,-129.265,-3.573,350.608,1.0
2.4666,128.181721,37.930366,6996.282273600001,-130.109,-3.805,350.363,1.0
2.4833,128.181717,37.930412,6996.090554400001,-130.845,-4.025,350.14,1.0
2.5,128.181712,37.930457,6995.891824800001,-131.473,-4.227,349.945,1.0
2.5166,128.181708,37.930503,6995.6869992,-131.995,-4.398,349.791,1.0
2.5333,128.181703,37.930549,6995.4757728,-132.418,-4.529,349.686,1.0
2.55,128.181698,37.930595,6995.2587552,-132.748,-4.615,349.632,1.0
2.5666,128.181693,37.93064,6995.0347272,-132.998,-4.651,349.626,1.0
2.5833,128.181688,37.930686,6994.804908,-133.17,-4.643,349.661,1.0
2.6,128.181684,37.930732,6994.569297600001,-133.267,-4.595,349.73,1.0
2.6166,128.181679,37.930778,6994.327591200001,-133.288,-4.517,349.828,1.0
2.6333,128.181674,37.930823,6994.0813128,-133.408,-4.427,349.963,1.0
2.65,128.181669,37.930869,6993.828938400001,-133.623,-4.336,350.128,1.0
2.6666,128.181663,37.930915,6993.570468,-133.938,-4.246,350.308,1.0
2.6833,128.181658,37.930961,6993.3062064000005,-134.359,-4.159,350.495,1.0
2.7,128.181653,37.931007,6993.035544,-134.887,-4.075,350.682,1.0
2.7166,128.181648,37.931052,6992.7587856,-135.522,-3.996,350.865,1.0
2.7333,128.181642,37.931098,6992.4756264,-136.264,-3.922,351.04,1.0
2.75,128.181637,37.931144,6992.1860664,-137.11,-3.853,351.208,1.0
2.7666,128.181632,37.93119,6991.8901056,-138.057,-3.789,351.367,1.0
2.7833,128.181626,37.931236,6991.587744,-139.103,-3.73,351.517,1.0
2.8,128.181621,37.931282,6991.278372,-140.245,-3.677,351.658,1.0
2.8166,128.181615,37.931327,6990.9625992,-141.48,-3.629,351.79,1.0
2.8333,128.18161,37.931373,6990.6401208,-142.806,-3.587,351.914,1.0
2.85,128.181604,37.931419,6990.310632000001,-144.218,-3.55,352.029,1.0
2.8666,128.181598,37.931465,6989.973828,-145.714,-3.518,352.136,1.0
2.8833,128.181593,37.931511,6989.6300136,-147.292,-3.491,352.235,1.0
2.9,128.181587,37.931556,6989.278884000001,-148.948,-3.469,352.327,1.0
2.9166,128.181581,37.931602,6988.9201344,-150.679,-3.451,352.413,1.0
2.9333,128.181575,37.931648,6988.554374400001,-152.483,-3.439,352.492,1.0
2.95,128.181569,37.931694,6988.181604,-154.355,-3.431,352.565,1.0
2.9666,128.181563,37.93174,6987.8018232,-156.293,-3.429,352.632,1.0
2.9833,128.181557,37.931785,6987.415032000001,-158.295,-3.442,352.69,1.0
3.0,128.181551,37.931831,6987.0212304,-160.358,-3.476,352.737,1.0
3.0166,128.181545,37.931877,6986.620418400001,-162.478,-3.538,352.773,1.0
3.0333,128.181539,37.931923,6986.2122912,-164.655,-3.631,352.799,1.0
3.05,128.181533,37.931969,6985.7968488,-166.884,-3.755,352.816,1.0
3.0666,128.181527,37.932014,6985.374396,-169.163,-3.911,352.828,1.0
3.0833,128.181521,37.93206,6984.9440184000005,-171.488,-4.097,352.837,1.0
3.1,128.181515,37.932106,6984.5063256,-173.856,-4.311,352.846,1.0
3.1166,128.181509,37.932152,6984.061317600001,-176.243,-4.552,352.856,1.0
3.1333,128.181503,37.932197,6983.6092992,-178.63,-4.817,352.869,1.0
3.15,128.181497,37.932243,6983.1499656000005,179.002,-5.104,352.886,1.0
3.1666,128.181491,37.932289,6982.6836216,176.672,-5.411,352.911,1.0
3.1833,128.181485,37.932335,6982.2099624,174.391,-5.736,352.944,1.0
3.2,128.181479,37.932381,6981.729292800001,172.169,-6.077,352.989,1.0
3.2166,128.181473,37.932426,6981.2416128,170.013,-6.43,353.046,1.0
3.2333,128.181466,37.932472,6980.7466176,167.924,-6.793,353.116,1.0
3.25,128.18146,37.932518,6980.2440024,165.903,-7.16,353.201,1.0
3.2666,128.181454,37.932564,6979.7334624000005,163.949,-7.528,353.299,1.0
3.2833,128.181448,37.93261,6979.214692800001,162.058,-7.893,353.412,1.0
3.3,128.181442,37.932655,6978.6873888,160.225,-8.253,353.537,1.0
3.3166,128.181436,37.932701,6978.1509408,158.447,-8.604,353.674,1.0
3.3333,128.18143,37.932747,6977.6053488,156.716,-8.944,353.822,1.0
3.35,128.181424,37.932793,6977.0500032,155.028,-9.273,353.979,1.0
3.3666,128.181418,37.932839,6976.484904,153.377,-9.588,354.145,1.0
3.3833,128.181412,37.932884,6975.909746400001,151.757,-9.889,354.318,1.0
3.4,128.181406,37.93293,6975.3245304,150.162,-10.175,354.497,1.0
3.4166,128.1814,37.932976,6974.728951200001,148.588,-10.447,354.681,1.0
3.4333,128.181394,37.933022,6974.122704,147.03,-10.703,354.87,1.0
3.45,128.181388,37.933068,6973.5057888,145.484,-10.944,355.061,1.0
3.4666,128.181383,37.933114,6972.878205600001,143.946,-11.17,355.255,1.0
3.4833,128.181377,37.933159,6972.2399544,142.413,-11.382,355.451,1.0
3.5,128.181371,37.933205,6971.5910352,140.88,-11.58,355.648,1.0
3.5166,128.181366,37.933251,6970.931448,139.347,-11.764,355.846,1.0
3.5333,128.18136,37.933297,6970.261192800001,137.81,-11.935,356.045,1.0
3.55,128.181355,37.933343,6969.580269600001,136.267,-12.094,356.244,1.0
3.5666,128.18135,37.933389,6968.8889832,134.717,-12.241,356.443,1.0
3.5833,128.181344,37.933434,6968.187028800001,133.159,-12.377,356.641,1.0
3.6,128.181339,37.93348,6967.475015999999,131.591,-12.502,356.84,1.0
3.6166,128.181334,37.933526,6966.7529448000005,130.011,-12.616,357.038,1.0
3.6333,128.181329,37.933572,6966.021120000001,128.421,-12.721,357.236,1.0
3.65,128.181324,37.933618,6965.2792368,126.818,-12.817,357.434,1.0
3.6666,128.181319,37.933663,6964.5279048,125.202,-12.903,357.631,1.0
3.6833,128.181314,37.933709,6963.767124000001,123.573,-12.981,357.828,1.0
3.7,128.18131,37.933755,6962.9971992,121.931,-13.05,358.025,1.0
3.7166,128.181305,37.933801,6962.2184352,120.275,-13.112,358.221,1.0
3.7333,128.181301,37.933847,6961.431136800001,118.606,-13.166,358.417,1.0
3.75,128.181296,37.933892,6960.635304,116.924,-13.212,358.613,1.0
3.7666,128.181292,37.933938,6959.831241600001,115.227,-13.251,358.808,1.0
3.7833,128.181288,37.933984,6959.0204736000005,113.67,-13.285,358.986,1.0
3.8,128.181284,37.93403,6958.202695200001,112.249,-13.307,359.133,1.0
3.8166,128.18128,37.934076,6957.378211200001,110.968,-13.312,359.236,1.0
3.8333,128.181276,37.934122,6956.5473264,109.827,-13.293,359.281,1.0
3.85,128.181272,37.934167,6955.711260000001,108.826,-13.248,359.256,1.0
3.8666,128.181268,37.934213,6954.8694024,107.958,-13.182,359.171,1.0
3.8833,128.181265,37.934259,6954.0220584,107.213,-13.102,359.042,1.0
3.9,128.181261,37.934305,6953.170142400001,106.58,-13.015,358.887,1.0
3.9166,128.181257,37.934351,6952.3133496,106.051,-12.928,358.721,1.0
3.9333,128.181254,37.934397,6951.4525944,105.611,-12.85,358.555,1.0
3.95,128.18125,37.934443,6950.587572,105.254,-12.782,358.395,1.0
3.9666,128.181247,37.934489,6949.718587200001,104.98,-12.724,358.242,1.0
3.9833,128.181243,37.934535,6948.8453352,104.787,-12.675,358.097,1.0
4.0,128.18124,37.934581,6947.9684256,104.676,-12.632,357.96,1.0
4.0166,128.181236,37.934627,6947.0875536,104.646,-12.594,357.832,1.0
4.0333,128.181233,37.934673,6946.2027192000005,104.696,-12.559,357.712,1.0
4.05,128.181229,37.934719,6945.3142272000005,104.824,-12.527,357.599,1.0
4.0666,128.181226,37.934765,6944.4217728,105.029,-12.498,357.493,1.0
4.0833,128.181222,37.934811,6943.525660800001,105.308,-12.471,357.393,1.0
4.1,128.181219,37.934857,6942.6258912,105.659,-12.445,357.3,1.0
4.1166,128.181215,37.934903,6941.7221592000005,106.081,-12.421,357.212,1.0
4.1333,128.181212,37.934949,6940.8150744,106.57,-12.399,357.129,1.0
4.15,128.181208,37.934995,6939.904332,107.126,-12.378,357.051,1.0
4.1666,128.181205,37.935041,6938.989932,107.747,-12.357,356.977,1.0
4.1833,128.181201,37.935087,6938.0718744000005,108.43,-12.338,356.906,1.0
4.2,128.181198,37.935133,6937.150464,109.174,-12.32,356.84,1.0
4.2166,128.181194,37.935179,6936.225700800001,109.977,-12.302,356.776,1.0
4.2333,128.181191,37.935225,6935.2975848,110.838,-12.285,356.715,1.0
4.25,128.181188,37.935272,6934.365811200001,111.755,-12.268,356.657,1.0
4.2666,128.181184,37.935318,6933.4306848,112.727,-12.252,356.601,1.0
4.2833,128.181181,37.935364,6932.4922056000005,113.751,-12.236,356.547,1.0
4.3,128.181177,37.93541,6931.550678400001,114.827,-12.221,356.496,1.0
4.3166,128.181174,37.935456,6930.6057984,115.953,-12.205,356.446,1.0
4.3333,128.18117,37.935503,6929.6575656,117.128,-12.19,356.398,1.0
4.35,128.181167,37.935549,6928.70598,118.35,-12.175,356.351,1.0
4.3666,128.181163,37.935595,6927.7516512,119.618,-12.16,356.306,1.0
4.3833,128.18116,37.935642,6926.7939696,120.931,-12.145,356.262,1.0
4.4,128.181156,37.935688,6925.83324,122.288,-12.13,356.219,1.0
4.4166,128.181153,37.935734,6924.8691576,123.686,-12.114,356.177,1.0
4.4333,128.181149,37.935781,6923.902332000001,125.126,-12.099,356.137,1.0
4.45,128.181146,37.935827,6922.9324584000005,126.606,-12.083,356.097,1.0
4.4666,128.181142,37.935873,6921.959841600001,128.125,-12.068,356.059,1.0
4.4833,128.181138,37.93592,6920.984176800001,129.682,-12.052,356.021,1.0
4.5,128.181135,37.935966,6920.005464000001,131.275,-12.035,355.985,1.0
4.5166,128.181131,37.936013,6919.024008,132.904,-12.019,355.949,1.0
4.5333,128.181128,37.936059,6918.0398088,134.568,-12.002,355.914,1.0
4.55,128.181124,37.936106,6917.0525615999995,136.266,-11.985,355.88,1.0
4.5666,128.181121,37.936152,6916.062876,137.996,-11.968,355.847,1.0
4.5833,128.181117,37.936199,6915.070142400001,139.758,-11.95,355.815,1.0
4.6,128.181113,37.936245,6914.074970400001,141.551,-11.932,355.783,1.0
4.6166,128.18111,37.936292,6913.07736,143.373,-11.913,355.753,1.0
4.6333,128.181106,37.936338,6912.076701600001,145.225,-11.895,355.723,1.0
4.65,128.181103,37.936385,6911.073909600001,147.105,-11.875,355.694,1.0
4.6666,128.181099,37.936431,6910.068069600001,149.013,-11.856,355.666,1.0
4.6833,128.181095,37.936478,6909.060096,150.946,-11.836,355.639,1.0
4.7,128.181092,37.936525,6908.0496840000005,152.906,-11.816,355.613,1.0
4.7166,128.181088,37.936571,6907.0365288,154.89,-11.795,355.587,1.0
4.7333,128.181084,37.936618,6906.02124,156.899,-11.774,355.563,1.0
4.75,128.181081,37.936665,6905.001379200001,158.723,-11.759,355.566,1.0
4.7666,128.181077,37.936711,6903.977556000001,160.371,-11.766,355.601,1.0
4.7833,128.181073,37.936758,6902.949465600001,161.837,-11.812,355.667,1.0
4.8,128.18107,37.936805,6901.9164984,163.118,-11.911,355.756,1.0
4.8166,128.181066,37.936851,6900.8780448,164.218,-12.052,355.86,1.0
4.8333,128.181062,37.936898,6899.8338,165.139,-12.22,355.968,1.0
4.85,128.181059,37.936945,6898.783764000001,165.89,-12.405,356.077,1.0
4.8666,128.181055,37.936992,6897.7264128,166.478,-12.598,356.184,1.0
4.8833,128.181051,37.937038,6896.662356000001,166.911,-12.796,356.288,1.0
4.9,128.181048,37.937085,6895.590069600001,167.195,-12.996,356.387,1.0
4.9166,128.181044,37.937132,6894.5095536,167.339,-13.198,356.484,1.0
4.9333,128.181041,37.937179,6893.4205032,167.35,-13.4,356.577,1.0
4.95,128.181037,37.937225,6892.322004000001,167.234,-13.601,356.669,1.0
4.9666,128.181034,37.937272,6891.213751200001,166.998,-13.803,356.759,1.0
4.9833,128.18103,37.937319,6890.0951352,166.648,-14.004,356.847,1.0
5.0,128.181026,37.937365,6888.9658512000005,166.189,-14.204,356.936,1.0
5.0166,128.181023,37.937412,6887.8255944,165.627,-14.404,357.024,1.0
5.0333,128.18102,37.937459,6886.6737552,164.966,-14.604,357.113,1.0
5.05,128.181016,37.937505,6885.511248,164.213,-14.787,357.199,1.0
5.0666,128.181013,37.937552,6884.337768,163.372,-14.938,357.278,1.0
5.0833,128.181009,37.937599,6883.1542296,162.45,-15.043,357.343,1.0
5.1,128.181006,37.937645,6881.960632800001,161.452,-15.086,357.39,1.0
5.1166,128.181003,37.937692,6880.7569776,160.382,-15.07,357.417,1.0
5.1333,128.180999,37.937739,6879.543264000001,159.242,-15.01,357.428,1.0
5.15,128.180996,37.937785,6878.3197968,158.032,-14.924,357.429,1.0
5.1666,128.180993,37.937832,6877.0871856,156.753,-14.828,357.426,1.0
5.1833,128.18099,37.937878,6875.8451256,155.406,-14.732,357.42,1.0
5.2,128.180987,37.937925,6874.5942264000005,153.993,-14.639,357.415,1.0
5.2166,128.180984,37.937972,6873.334183200001,152.514,-14.567,357.418,1.0
5.2333,128.18098,37.938018,6872.065605600001,150.972,-14.53,357.436,1.0
5.25,128.180977,37.938065,6870.7887984,149.381,-14.541,357.48,1.0
5.2666,128.180974,37.938111,6869.5037616,147.756,-14.611,357.557,1.0
5.2833,128.180971,37.938158,6868.2104952,146.107,-14.747,357.675,1.0
5.3,128.180968,37.938204,6866.9089992,144.446,-14.946,357.838,1.0
5.3166,128.180966,37.938251,6865.599578400001,142.784,-15.194,358.04,1.0
5.3333,128.180963,37.938297,6864.281928,141.128,-15.477,358.277,1.0
5.35,128.18096,37.938344,6862.9557432,139.487,-15.777,358.538,1.0
5.3666,128.180957,37.93839,6861.621328800001,137.866,-16.08,358.813,1.0
5.3833,128.180955,37.938437,6860.277770400001,136.268,-16.371,359.091,1.0
5.4,128.180952,37.938483,6858.9256776,134.694,-16.643,359.368,1.0
5.4166,128.180949,37.93853,6857.564440800001,133.143,-16.896,359.641,1.0
5.4333,128.180947,37.938576,6856.194060000001,131.611,-17.13,359.911,1.0
5.45,128.180945,37.938623,6854.81484,130.096,-17.345,0.177,1.0
5.4666,128.180942,37.938669,6853.428304800001,128.743,-17.546,0.412,1.0
5.4833,128.18094,37.938715,6852.0338448,127.55,-17.723,0.599,1.0
5.5,128.180938,37.938762,6850.6320696,126.523,-17.863,0.728,1.0
5.5166,128.180936,37.938808,6849.223284000001,125.666,-17.954,0.786,1.0
5.5333,128.180934,37.938855,6847.808097600001,124.983,-17.985,0.76,1.0
5.55,128.180932,37.938901,6846.386205600001,124.465,-17.967,0.666,1.0
5.5666,128.18093,37.938948,6844.9585224,124.101,-17.91,0.52,1.0
5.5833,128.180928,37.938994,6843.5253528,123.879,-17.827,0.336,1.0
5.6,128.180926,37.939041,6842.086696800001,123.788,-17.728,0.13,1.0
5.6166,128.180924,37.939087,6840.643468800001,123.817,-17.625,359.919,1.0
5.6333,128.180922,37.939134,6839.195364,123.956,-17.527,359.719,1.0
5.65,128.18092,37.93918,6837.742687200001,124.195,-17.446,359.544,1.0
5.6666,128.180918,37.939227,6836.2863528,124.532,-17.382,359.395,1.0
5.6833,128.180916,37.939273,6834.825751200001,124.965,-17.329,359.265,1.0
5.7,128.180915,37.93932,6833.3587488,125.284,-17.266,359.166,1.0
5.7166,128.180913,37.939366,6831.8877840000005,125.494,-17.189,359.093,1.0
5.7333,128.180911,37.939413,6830.411942400001,125.588,-17.105,359.036,1.0
5.75,128.180909,37.939459,6828.931833600001,125.557,-17.021,358.991,1.0
5.7666,128.180907,37.939506,6827.4471528,125.401,-16.94,358.952,1.0
5.7833,128.180906,37.939553,6825.9579,125.122,-16.863,358.917,1.0
5.8,128.180904,37.939599,6824.463770400001,124.724,-16.791,358.885,1.0
5.8166,128.180902,37.939646,6822.9650688,124.212,-16.724,358.857,1.0
5.8333,128.180901,37.939692,6821.4614904,123.592,-16.662,358.832,1.0
5.85,128.180899,37.939739,6819.9527304,122.87,-16.603,358.81,1.0
5.8666,128.180898,37.939786,6818.4393984,122.05,-16.549,358.791,1.0
5.8833,128.180896,37.939832,6816.9208848,121.137,-16.498,358.774,1.0
5.9,128.180895,37.939879,6815.3971896,120.135,-16.451,358.76,1.0
5.9166,128.180893,37.939925,6813.8683128,119.049,-16.407,358.749,1.0
5.9333,128.180892,37.939972,6812.3345592000005,117.882,-16.367,358.74,1.0
5.95,128.180891,37.940019,6810.795624,116.64,-16.329,358.733,1.0
5.9666,128.180889,37.940065,6809.2518119999995,115.325,-16.294,358.728,1.0
5.9833,128.180888,37.940112,6807.7025136,113.941,-16.262,358.726,1.0
6.0,128.180887,37.940159,6806.148948,112.492,-16.232,358.725,1.0
6.0166,128.180886,37.940205,6804.590810400001,110.981,-16.204,358.725,1.0
6.0333,128.180885,37.940252,6803.0281008,109.41,-16.178,358.727,1.0
6.05,128.180884,37.940298,6801.461124,107.784,-16.153,358.73,1.0
6.0666,128.180883,37.940345,6799.88988,106.105,-16.131,358.734,1.0
6.0833,128.180882,37.940392,6798.314978400001,104.376,-16.11,358.739,1.0
6.1,128.180881,37.940438,6796.736114400001,102.6,-16.09,358.745,1.0
6.1166,128.18088,37.940485,6795.153592800001,100.78,-16.071,358.751,1.0
6.1333,128.180879,37.940532,6793.567718400001,98.918,-16.054,358.758,1.0
6.15,128.180879,37.940578,6791.9784912000005,97.018,-16.037,358.765,1.0
6.1666,128.180878,37.940625,6790.385911200001,95.081,-16.021,358.772,1.0
6.1833,128.180877,37.940671,6788.790588000001,93.11,-16.006,358.779,1.0
6.2,128.180877,37.940718,6787.1922168,91.107,-15.992,358.786,1.0
6.2166,128.180876,37.940765,6785.5914072,89.075,-15.979,358.793,1.0
6.2333,128.180876,37.940811,6783.9878544,87.016,-15.967,358.799,1.0
6.25,128.180876,37.940858,6782.382168,84.932,-15.955,358.804,1.0
6.2666,128.180875,37.940905,6780.774348,82.825,-15.944,358.809,1.0
6.2833,128.180875,37.940951,6779.1646992000005,80.697,-15.934,358.812,1.0
6.3,128.180875,37.940998,6777.5529168,78.55,-15.924,358.815,1.0
6.3166,128.180874,37.941045,6775.9399152000005,76.385,-15.915,358.817,1.0
6.3333,128.180874,37.941091,6774.3253896,74.204,-15.908,358.818,1.0
6.35,128.180874,37.941138,6772.70934,72.009,-15.901,358.818,1.0
6.3666,128.180874,37.941185,6771.092376,69.8,-15.895,358.816,1.0
6.3833,128.180874,37.941232,6769.4748024,67.581,-15.891,358.814,1.0
6.4,128.180874,37.941278,6767.856314400001,65.351,-15.887,358.81,1.0
6.4166,128.180874,37.941325,6766.2375216,63.111,-15.885,358.805,1.0
6.4333,128.180875,37.941372,6764.618424,60.864,-15.884,358.799,1.0
6.45,128.180875,37.941419,6762.9990216,58.61,-15.884,358.792,1.0
6.4666,128.180875,37.941465,6761.379924000001,56.35,-15.886,358.784,1.0
6.4833,128.180875,37.941512,6759.7611312,54.084,-15.89,358.775,1.0
6.5,128.180876,37.941559,6758.1426432,51.815,-15.895,358.765,1.0
6.5166,128.180876,37.941606,6756.5250696,49.541,-15.901,358.754,1.0
6.5333,128.180877,37.941653,6754.9081056,47.265,-15.909,358.743,1.0
6.55,128.180877,37.941699,6753.292360800001,44.986,-15.919,358.731,1.0
6.5666,128.180877,37.941746,6751.6775304,42.704,-15.931,358.718,1.0
6.5833,128.180878,37.941793,6750.0645288000005,40.422,-15.944,358.706,1.0
6.6,128.180879,37.94184,6748.4527464,38.138,-15.959,358.692,1.0
6.6166,128.180879,37.941887,6746.842792800001,35.853,-15.976,358.679,1.0
6.6333,128.18088,37.941934,6745.234668,33.568,-15.994,358.666,1.0
6.65,128.180881,37.941981,6743.6286768,31.283,-16.014,358.652,1.0
6.6666,128.180881,37.942028,6742.024514400001,28.997,-16.036,358.639,1.0
6.6833,128.180882,37.942075,6740.423095200001,26.711,-16.059,358.626,1.0
6.7,128.180883,37.942122,6738.8238096000005,24.424,-16.085,358.613,1.0
6.7166,128.180884,37.942169,6737.2269624,22.137,-16.111,358.601,1.0
6.7333,128.180884,37.942216,6735.6328584,19.849,-16.14,358.589,1.0
6.75,128.180885,37.942263,6734.041497600001,17.56,-16.17,358.578,1.0
6.7666,128.180886,37.94231,6732.4531848,15.271,-16.201,358.568,1.0
6.7833,128.180887,37.942357,6730.867310400001,12.98,-16.233,358.559,1.0
6.8,128.180888,37.942404,6729.2847888,10.688,-16.267,358.55,1.0
6.8166,128.180889,37.942451,6727.705010400001,8.394,-16.302,358.543,1.0
6.8333,128.180889,37.942499,6726.12828,6.098,-16.339,358.537,1.0
6.85,128.18089,37.942546,6724.5549024,3.8,-16.376,358.532,1.0
6.8666,128.180891,37.942593,6722.9836584,1.71,-16.415,358.555,1.0
6.8833,128.180892,37.94264,6721.4142432,-0.183,-16.456,358.608,1.0
6.9,128.180893,37.942687,6719.8463520000005,-1.87,-16.497,358.679,1.0
6.9166,128.180894,37.942735,6718.27968,-3.342,-16.538,358.758,1.0
6.9333,128.180894,37.942782,6716.7136176,-4.598,-16.577,358.839,1.0
6.95,128.180895,37.942829,6715.148164800001,-5.642,-16.615,358.918,1.0
6.9666,128.180896,37.942876,6713.5824072,-6.483,-16.651,358.994,1.0
6.9833,128.180897,37.942924,6712.01604,-7.13,-16.684,359.068,1.0
7.0,128.180898,37.942971,6710.4487584,-7.594,-16.716,359.139,1.0
7.0166,128.180898,37.943018,6708.8802576,-7.883,-16.746,359.209,1.0
7.0333,128.180899,37.943066,6707.309928000001,-8.006,-16.773,359.277,1.0
7.05,128.1809,37.943113,6705.737160000001,-7.971,-16.8,359.343,1.0
7.0666,128.180901,37.943161,6704.1619536,-7.785,-16.825,359.407,1.0
7.0833,128.180901,37.943208,6702.5836992,-7.456,-16.849,359.47,1.0
7.1,128.180902,37.943255,6701.001787200001,-6.99,-16.872,359.531,1.0
7.1166,128.180903,37.943303,6699.4162176,-6.394,-16.896,359.59,1.0
7.1333,128.180904,37.94335,6697.8263808,-5.674,-16.919,359.648,1.0
7.15,128.180904,37.943398,6696.2319720000005,-4.836,-16.942,359.703,1.0
7.1666,128.180905,37.943445,6694.633296000001,-3.885,-16.966,359.758,1.0
7.1833,128.180906,37.943493,6693.0306576,-2.828,-16.99,359.81,1.0
7.2,128.180907,37.94354,6691.423447200001,-1.669,-17.015,359.861,1.0
7.2166,128.180907,37.943588,6689.8119696,-0.414,-17.04,359.91,1.0
7.2333,128.180908,37.943635,6688.196224800001,0.933,-17.066,359.957,1.0
7.25,128.180909,37.943683,6686.576212800001,2.368,-17.093,0.003,1.0
7.2666,128.18091,37.943731,6684.951933600001,3.886,-17.12,0.047,1.0
7.2833,128.18091,37.943778,6683.3230824,5.483,-17.149,0.089,1.0
7.3,128.180911,37.943826,6681.690268800001,7.155,-17.178,0.13,1.0
7.3166,128.180912,37.943873,6680.052883200001,8.899,-17.209,0.169,1.0
7.3333,128.180913,37.943921,6678.4115352,10.71,-17.24,0.206,1.0
7.35,128.180913,37.943969,6676.765615200001,12.587,-17.272,0.241,1.0
7.3666,128.180914,37.944016,6675.115428,14.524,-17.305,0.274,1.0
7.3833,128.180915,37.944064,6673.461278400001,16.521,-17.339,0.306,1.0
7.4,128.180915,37.944112,6671.802556800001,18.572,-17.374,0.335,1.0
7.4166,128.180916,37.944159,6670.1395680000005,20.677,-17.41,0.363,1.0
7.4333,128.180917,37.944207,6668.4726168,22.831,-17.446,0.388,1.0
7.45,128.180917,37.944255,6666.8013984,25.034,-17.483,0.412,1.0
7.4666,128.180918,37.944303,6665.1259128,27.282,-17.521,0.434,1.0
7.4833,128.180919,37.94435,6663.44616,29.573,-17.56,0.453,1.0
7.5,128.180919,37.944398,6661.762444800001,31.905,-17.599,0.471,1.0
7.5166,128.18092,37.944446,6660.0747672,34.276,-17.638,0.486,1.0
7.5333,128.180921,37.944494,6658.3828224,36.685,-17.678,0.499,1.0
7.55,128.180921,37.944542,6656.686915200001,39.129,-17.719,0.51,1.0
7.5666,128.180922,37.944589,6654.9867408,41.607,-17.759,0.519,1.0
7.5833,128.180922,37.944637,6653.2829088,44.117,-17.8,0.526,1.0
7.6,128.180923,37.944685,6651.5751144000005,46.658,-17.841,0.531,1.0
7.6166,128.180924,37.944733,6649.8633576,49.228,-17.882,0.533,1.0
7.6333,128.180924,37.944781,6648.1479432,51.826,-17.923,0.534,1.0
7.65,128.180925,37.944829,6646.4282616,54.451,-17.964,0.532,1.0
7.6666,128.180925,37.944877,6644.7052272,57.101,-18.004,0.529,1.0
7.6833,128.180926,37.944925,6642.9782304,59.775,-18.044,0.523,1.0
7.7,128.180926,37.944973,6641.2478808000005,62.473,-18.083,0.515,1.0
7.7166,128.180927,37.945021,6639.513568800001,65.193,-18.122,0.506,1.0
7.7333,128.180927,37.945069,6637.7755992,67.934,-18.16,0.494,1.0
7.75,128.180928,37.945117,6636.0342768,70.696,-18.198,0.481,1.0
7.7666,128.180928,37.945165,6634.2896016,73.476,-18.234,0.466,1.0
7.7833,128.180929,37.945213,6632.541268800001,76.276,-18.27,0.449,1.0
7.8,128.180929,37.945261,6630.7895832,79.093,-18.304,0.431,1.0
7.8166,128.18093,37.945309,6629.0345448,81.926,-18.338,0.411,1.0
7.8333,128.18093,37.945357,6627.2761536,84.777,-18.371,0.39,1.0
7.85,128.180931,37.945405,6625.5147144,87.642,-18.402,0.368,1.0
7.8666,128.180931,37.945453,6623.7502272,90.522,-18.432,0.344,1.0
7.8833,128.180931,37.945501,6621.982387200001,93.417,-18.461,0.319,1.0
7.9,128.180932,37.945549,6620.2114992,96.325,-18.488,0.293,1.0
7.9166,128.180932,37.945598,6618.4375632,99.246,-18.514,0.266,1.0
7.9333,128.180932,37.945646,6616.660884000001,102.18,-18.539,0.238,1.0
7.95,128.180933,37.945694,6614.881156800001,105.125,-18.562,0.21,1.0
7.9666,128.180933,37.945742,6613.098686400001,108.083,-18.584,0.18,1.0
7.9833,128.180933,37.945791,6611.3137776,111.051,-18.605,0.15,1.0
8.0,128.180934,37.945839,6609.523382400001,113.787,-18.596,0.132,1.0
8.0166,128.180934,37.945887,6607.7314632,116.278,-18.578,0.14,1.0
8.0333,128.180934,37.945935,6605.9358864000005,118.509,-18.571,0.185,1.0
8.05,128.180935,37.945984,6604.1372616,120.477,-18.595,0.279,1.0
8.0666,128.180935,37.946032,6602.334369600001,122.184,-18.66,0.435,1.0
8.0833,128.180935,37.94608,6600.5272104000005,123.638,-18.777,0.663,1.0
8.1,128.180936,37.946129,6598.7145648000005,124.849,-18.951,0.972,1.0
8.1166,128.180936,37.946177,6596.8964328,125.824,-19.19,1.365,1.0
8.1333,128.180937,37.946225,6595.0712904,126.578,-19.484,1.829,1.0
8.15,128.180938,37.946273,6593.2391376000005,127.123,-19.825,2.347,1.0
8.1666,128.180938,37.946322,6591.398755200001,127.492,-20.2,2.903,1.0
8.1833,128.180939,37.94637,6589.549838400001,127.729,-20.599,3.474,1.0
8.2,128.18094,37.946418,6587.6917776,127.878,-21.006,4.04,1.0
8.2166,128.180941,37.946466,6585.822134399999,127.893,-21.39,4.596,1.0
8.2333,128.180942,37.946514,6583.942128000001,127.793,-21.735,5.124,1.0
8.25,128.180944,37.946563,6582.0511488,127.585,-22.031,5.6,1.0
8.2666,128.180945,37.946611,6580.149501600001,127.275,-22.27,6.001,1.0
8.2833,128.180947,37.946659,6578.2356624,126.863,-22.464,6.339,1.0
8.3,128.180949,37.946707,6576.311460000001,126.401,-22.627,6.626,1.0
8.3166,128.18095,37.946755,6574.3756752,125.854,-22.768,6.878,1.0
8.3333,128.180953,37.946803,6572.4292224,125.316,-22.901,7.108,1.0
8.35,128.180955,37.94685,6570.4721016,124.837,-23.039,7.328,1.0
8.3666,128.180957,37.946898,6568.5043128,124.423,-23.19,7.556,1.0
8.3833,128.180959,37.946946,6566.526160800001,124.076,-23.351,7.792,1.0
8.4,128.180962,37.946994,6564.5376456,123.812,-23.517,8.032,1.0
8.4166,128.180965,37.947042,6562.5399864,123.675,-23.689,8.255,1.0
8.4333,128.180968,37.947089,6560.5325736,123.664,-23.862,8.456,1.0
8.45,128.18097,37.947137,6558.514797600001,123.782,-24.03,8.638,1.0
8.4666,128.180974,37.947185,6556.487572800001,124.029,-24.192,8.804,1.0
8.4833,128.180977,37.947232,6554.4508992,124.401,-24.347,8.958,1.0
8.5,128.18098,37.94728,6552.404472,124.894,-24.496,9.104,1.0
8.5166,128.180983,37.947328,6550.348596000001,125.502,-24.64,9.242,1.0
8.5333,128.180987,37.947375,6548.283576,126.205,-24.782,9.374,1.0
8.55,128.180991,37.947423,6546.2091072,126.987,-24.92,9.501,1.0
8.5666,128.180994,37.94747,6544.1248848,127.829,-25.057,9.626,1.0
8.5833,128.180998,37.947518,6542.0306040000005,128.717,-25.193,9.75,1.0
8.6,128.181002,37.947565,6539.9259600000005,129.638,-25.33,9.873,1.0
8.6166,128.181006,37.947612,6537.810648,130.58,-25.47,9.996,1.0
8.6333,128.18101,37.94766,6535.6843632,131.535,-25.612,10.119,1.0
8.65,128.181015,37.947707,6533.547105600001,132.494,-25.758,10.242,1.0
8.6666,128.181019,37.947754,6531.398570400001,133.45,-25.909,10.366,1.0
8.6833,128.181023,37.947801,6529.2384528,134.398,-26.064,10.491,1.0
8.7,128.181028,37.947849,6527.066448,135.335,-26.225,10.617,1.0
8.7166,128.181033,37.947896,6524.8825560000005,136.256,-26.391,10.743,1.0
8.7333,128.181038,37.947943,6522.686472,137.159,-26.564,10.87,1.0
8.75,128.181043,37.94799,6520.4778912,138.044,-26.741,10.997,1.0
8.7666,128.181048,37.948037,6518.2568136,138.908,-26.925,11.125,1.0
8.7833,128.181053,37.948084,6516.0229344,139.75,-27.114,11.252,1.0
8.8,128.181058,37.94813,6513.7762536,140.571,-27.307,11.377,1.0
8.8166,128.181063,37.948177,6511.516466399999,141.371,-27.503,11.499,1.0
8.8333,128.181069,37.948224,6509.243268,142.15,-27.7,11.617,1.0
8.85,128.181075,37.948271,6506.9569632,142.908,-27.898,11.731,1.0
8.8666,128.18108,37.948317,6504.656942400001,143.645,-28.097,11.841,1.0
8.8833,128.181086,37.948364,6502.343510400001,144.363,-28.297,11.946,1.0
8.9,128.181092,37.94841,6500.0160576,145.062,-28.498,12.047,1.0
8.9166,128.181098,37.948457,6497.6751936,145.743,-28.7,12.145,1.0
8.9333,128.181104,37.948503,6495.320004,146.406,-28.902,12.238,1.0
8.95,128.18111,37.94855,6492.9507936,147.051,-29.106,12.328,1.0
8.9666,128.181116,37.948596,6490.5675624,147.68,-29.31,12.415,1.0
8.9833,128.181123,37.948642,6488.170310400001,148.294,-29.515,12.498,1.0
9.0,128.181129,37.948688,6485.758428,148.892,-29.72,12.578,1.0
9.0166,128.181135,37.948734,6483.332524800001,149.475,-29.926,12.655,1.0
9.0333,128.181142,37.94878,6480.8919912,150.043,-30.133,12.729,1.0
9.05,128.181149,37.948826,6478.4368272,150.596,-30.34,12.8,1.0
9.0666,128.181155,37.948872,6475.9670328,151.133,-30.548,12.869,1.0
9.0833,128.181162,37.948918,6473.482608,151.657,-30.756,12.935,1.0
9.1,128.181169,37.948964,6470.9835528,152.166,-30.964,12.999,1.0
9.1166,128.181176,37.94901,6468.4695624,152.661,-31.173,13.06,1.0
9.1333,128.181183,37.949055,6465.9406368,153.142,-31.382,13.119,1.0
9.15,128.18119,37.949101,6463.3970808,153.609,-31.591,13.175,1.0
9.1666,128.181198,37.949146,6460.8382848,154.063,-31.801,13.23,1.0
9.1833,128.181205,37.949192,6458.2645536,154.504,-32.011,13.282,1.0
9.2,128.181212,37.949237,6455.6768016000005,155.025,-32.224,13.324,1.0
9.2166,128.18122,37.949282,6453.075028800001,155.621,-32.44,13.356,1.0
9.2333,128.181227,37.949328,6450.4589304,156.278,-32.657,13.382,1.0
9.25,128.181235,37.949373,6447.8294208,156.983,-32.873,13.406,1.0
9.2666,128.181242,37.949418,6445.1846712,157.719,-33.089,13.43,1.0
9.2833,128.18125,37.949463,6442.5252912000005,158.471,-33.303,13.456,1.0
9.3,128.181257,37.949508,6439.850976,159.226,-33.516,13.481,1.0
9.3166,128.181265,37.949553,6437.160811200001,159.971,-33.729,13.507,1.0
9.3333,128.181273,37.949597,6434.4554064,160.695,-33.942,13.531,1.0
9.35,128.181281,37.949642,6431.733847200001,161.393,-34.154,13.555,1.0
9.3666,128.181289,37.949687,6428.996743199999,162.058,-34.367,13.576,1.0
9.3833,128.181297,37.949731,6426.2437896,162.687,-34.581,13.595,1.0
9.4,128.181305,37.949776,6423.4743768,163.277,-34.795,13.612,1.0
9.4166,128.181313,37.94982,6420.6891144,163.829,-35.01,13.627,1.0
9.4333,128.181321,37.949865,6417.887697600001,164.342,-35.226,13.639,1.0
9.45,128.181329,37.949909,6415.0704312,164.817,-35.443,13.649,1.0
9.4666,128.181337,37.949953,6412.237010400001,165.257,-35.661,13.657,1.0
9.4833,128.181345,37.949997,6409.3874352,165.663,-35.879,13.662,1.0
9.5,128.181353,37.950041,6406.5217056,166.039,-36.097,13.665,1.0
9.5166,128.181362,37.950085,6403.640126400001,166.385,-36.315,13.666,1.0
9.5333,128.18137,37.950129,6400.742088000001,166.701,-36.534,13.666,1.0
9.55,128.181378,37.950173,6397.8282,166.989,-36.752,13.666,1.0
9.5666,128.181386,37.950216,6394.8981576,167.254,-36.969,13.664,1.0
9.5833,128.181395,37.95026,6391.952265600001,167.499,-37.186,13.661,1.0
9.6,128.181403,37.950303,6388.990219200001,167.727,-37.402,13.657,1.0
9.6166,128.181412,37.950347,6386.012628,167.941,-37.618,13.652,1.0
9.6333,128.18142,37.95039,6383.018882400001,168.144,-37.833,13.646,1.0
9.65,128.181429,37.950433,6380.008982400001,168.336,-38.047,13.639,1.0
9.6666,128.181437,37.950476,6376.983537600001,168.519,-38.26,13.631,1.0
9.6833,128.181446,37.950519,6373.9422432,168.696,-38.473,13.623,1.0
9.7,128.181454,37.950562,6370.8847944,168.866,-38.684,13.614,1.0
9.7166,128.181463,37.950605,6367.8118008,169.031,-38.895,13.605,1.0
9.7333,128.181471,37.950648,6364.7226528,169.191,-39.104,13.596,1.0
9.75,128.18148,37.950691,6361.617655200001,169.346,-39.313,13.587,1.0
9.7666,128.181489,37.950733,6358.496808,169.496,-39.521,13.577,1.0
9.7833,128.181497,37.950776,6355.360111200001,169.643,-39.728,13.568,1.0
9.8,128.181506,37.950818,6352.207564800001,169.786,-39.934,13.558,1.0
9.8166,128.181515,37.950861,6349.039168800001,169.925,-40.139,13.548,1.0
9.8333,128.181523,37.950903,6345.8549232000005,170.06,-40.344,13.538,1.0
9.85,128.181532,37.950945,6342.654828000001,170.193,-40.548,13.529,1.0
9.8666,128.181541,37.950987,6339.4388832,170.322,-40.752,13.519,1.0
9.8833,128.18155,37.951029,6336.2073936,170.45,-40.955,13.508,1.0
9.9,128.181558,37.951071,6332.9603592,170.579,-41.157,13.496,1.0
9.9166,128.181567,37.951113,6329.6974752,170.708,-41.359,13.485,1.0
9.9333,128.181576,37.951155,6326.4187416,170.838,-41.56,13.472,1.0
9.95,128.181585,37.951196,6323.1244632,170.968,-41.761,13.46,1.0
9.9666,128.181594,37.951238,6319.8146400000005,171.098,-41.962,13.447,1.0
9.9833,128.181602,37.951279,6316.4889672,171.228,-42.162,13.435,1.0
10.0,128.181611,37.951321,6313.1477496,171.359,-42.361,13.422,1.0
10.0166,128.18162,37.951362,6309.790987200001,171.49,-42.56,13.408,1.0
10.0333,128.181629,37.951403,6306.41868,171.62,-42.759,13.395,1.0
10.05,128.181638,37.951444,6303.030828000001,171.752,-42.957,13.382,1.0
10.0666,128.181647,37.951485,6299.6274312000005,171.883,-43.155,13.368,1.0
10.0833,128.181656,37.951526,6296.2081848,172.014,-43.353,13.354,1.0
10.1,128.181664,37.951567,6292.7736984,172.146,-43.55,13.339,1.0
10.1166,128.181673,37.951608,6289.323972,172.278,-43.747,13.324,1.0
10.1333,128.181682,37.951649,6285.8583960000005,172.41,-43.944,13.309,1.0
10.15,128.181691,37.951689,6282.37758,172.542,-44.141,13.294,1.0
10.1666,128.1817,37.951729,6278.8812192000005,172.674,-44.337,13.279,1.0
10.1833,128.181709,37.95177,6275.3696184,172.806,-44.533,13.263,1.0
10.2,128.181718,37.95181,6271.8424728,172.938,-44.729,13.247,1.0
10.2166,128.181727,37.95185,6268.3000872,173.069,-44.925,13.231,1.0
10.2333,128.181736,37.95189,6264.742156800001,173.199,-45.12,13.215,1.0
10.25,128.181745,37.95193,6261.1689864,173.328,-45.315,13.198,1.0
10.2666,128.181754,37.95197,6257.580576,173.456,-45.51,13.181,1.0
10.2833,128.181762,37.95201,6253.9766208,173.583,-45.705,13.164,1.0
10.3,128.181771,37.952049,6250.3577304,173.708,-45.9,13.147,1.0
10.3166,128.18178,37.952089,6246.7232952,173.831,-46.094,13.13,1.0
10.3333,128.181789,37.952128,6243.073620000001,173.952,-46.289,13.113,1.0
10.35,128.181798,37.952168,6239.4090096,174.07,-46.483,13.096,1.0
10.3666,128.181807,37.952207,6235.7288544,174.186,-46.677,13.079,1.0
10.3833,128.181816,37.952246,6232.033764000001,174.297,-46.871,13.062,1.0
10.4,128.181825,37.952285,6228.3234336000005,174.406,-47.065,13.045,1.0
10.4166,128.181834,37.952324,6224.597863200001,174.51,-47.259,13.029,1.0
10.4333,128.181843,37.952363,6220.8570528,174.61,-47.452,13.012,1.0
10.45,128.181852,37.952402,6217.1013072,174.706,-47.646,12.996,1.0
10.4666,128.18186,37.95244,6213.3306264,174.797,-47.839,12.98,1.0
10.4833,128.181869,37.952479,6209.5447056,174.885,-48.033,12.964,1.0
10.5,128.181878,37.952517,6205.7438496,174.967,-48.226,12.949,1.0
10.5166,128.181887,37.952555,6201.9280584,175.046,-48.419,12.934,1.0
10.5333,128.181896,37.952594,6198.0970272,175.121,-48.612,12.919,1.0
10.55,128.181905,37.952632,6194.251365600001,175.193,-48.805,12.904,1.0
10.5666,128.181914,37.95267,6190.390768800001,175.262,-48.998,12.89,1.0
10.5833,128.181922,37.952707,6186.515236800001,175.328,-49.19,12.877,1.0
10.6,128.181931,37.952745,6182.624769600001,175.391,-49.382,12.867,1.0
10.6166,128.18194,37.952783,6178.719672,175.452,-49.575,12.862,1.0
10.6333,128.181949,37.95282,6174.7996392,175.51,-49.766,12.863,1.0
10.65,128.181958,37.952858,6170.8646712,175.563,-49.957,12.871,1.0
10.6666,128.181966,37.952895,6166.9150728,175.609,-50.148,12.883,1.0
10.6833,128.181975,37.952932,6162.9505392,175.648,-50.339,12.898,1.0
10.7,128.181984,37.95297,6158.9713752,175.677,-50.53,12.914,1.0
10.7166,128.181993,37.953006,6154.9775808,175.696,-50.72,12.93,1.0
10.7333,128.182001,37.953043,6150.9688512,175.706,-50.911,12.947,1.0
10.75,128.18201,37.95308,6146.9454912,175.707,-51.102,12.964,1.0
10.7666,128.182019,37.953117,6142.907500800001,175.7,-51.292,12.981,1.0
10.7833,128.182028,37.953153,6138.8551848,175.684,-51.483,12.999,1.0
10.8,128.182036,37.95319,6134.7879336000005,175.662,-51.674,13.018,1.0
10.8166,128.182045,37.953226,6130.706356800001,175.632,-51.864,13.037,1.0
10.8333,128.182054,37.953262,6126.6104544,175.596,-52.055,13.057,1.0
10.85,128.182062,37.953298,6122.4999216,175.554,-52.246,13.077,1.0
10.8666,128.182071,37.953334,6118.3750632,175.508,-52.436,13.098,1.0
10.8833,128.182079,37.95337,6114.2358792,175.458,-52.627,13.119,1.0
10.9,128.182088,37.953406,6110.082369600001,175.404,-52.817,13.141,1.0
10.9166,128.182097,37.953441,6105.9145344,175.347,-53.007,13.164,1.0
10.9333,128.182105,37.953477,6101.732678400001,175.289,-53.197,13.187,1.0
10.95,128.182114,37.953512,6097.5364968,175.229,-53.387,13.211,1.0
10.9666,128.182122,37.953548,6093.3262944,175.167,-53.577,13.236,1.0
10.9833,128.182131,37.953583,6089.1020712,175.105,-53.767,13.261,1.0
11.0,128.182139,37.953618,6084.8635224,175.042,-53.957,13.286,1.0
11.0166,128.182148,37.953653,6080.6112576,174.979,-54.146,13.313,1.0
11.0333,128.182156,37.953687,6076.3446672,174.916,-54.336,13.34,1.0
11.05,128.182165,37.953722,6072.064360800001,174.853,-54.525,13.367,1.0
11.0666,128.182173,37.953757,6067.770033600001,174.79,-54.714,13.395,1.0
11.0833,128.182182,37.953791,6063.4619904,174.728,-54.904,13.424,1.0
11.1,128.18219,37.953825,6059.1399264,174.666,-55.093,13.454,1.0
11.1166,128.182199,37.95386,6054.804146400001,174.604,-55.282,13.484,1.0
11.1333,128.182207,37.953894,6050.4546504,174.543,-55.471,13.515,1.0
11.15,128.182215,37.953928,6046.091438400001,174.481,-55.659,13.546,1.0
11.1666,128.182224,37.953961,6041.714510400001,174.419,-55.848,13.578,1.0
11.1833,128.182232,37.953995,6037.3238664,174.357,-56.037,13.611,1.0
11.2,128.182241,37.954029,6032.9198112,174.295,-56.225,13.645,1.0
11.2166,128.182249,37.954062,6028.50204,174.233,-56.414,13.679,1.0
11.2333,128.182257,37.954095,6024.0705528,174.17,-56.603,13.714,1.0
11.25,128.182266,37.954129,6019.625654400001,174.107,-56.791,13.749,1.0
11.2666,128.182274,37.954162,6015.1673448,174.044,-56.98,13.785,1.0
11.2833,128.182282,37.954195,6010.695624000001,173.98,-57.168,13.822,1.0
11.3,128.182291,37.954227,6006.210492,173.916,-57.356,13.86,1.0
11.3166,128.182299,37.95426,6001.7119488,173.851,-57.545,13.898,1.0
11.3333,128.182307,37.954293,5997.2002992,173.786,-57.733,13.937,1.0
11.35,128.182315,37.954325,5992.675238400001,173.721,-57.922,13.977,1.0
11.3666,128.182324,37.954357,5988.1370712,173.656,-58.11,14.017,1.0
11.3833,128.182332,37.95439,5983.585492800001,173.59,-58.298,14.058,1.0
11.4,128.18234,37.954422,5979.020808,173.524,-58.487,14.1,1.0
11.4166,128.182348,37.954453,5974.4430168,173.458,-58.675,14.142,1.0
11.4333,128.182356,37.954485,5969.852424000001,173.391,-58.863,14.185,1.0
11.45,128.182364,37.954517,5965.248420000001,173.324,-59.052,14.229,1.0
11.4666,128.182373,37.954548,5960.6316144,173.257,-59.24,14.274,1.0
11.4833,128.182381,37.95458,5956.0020072,173.19,-59.428,14.32,1.0
11.5,128.182389,37.954611,5951.3592936,173.122,-59.616,14.366,1.0
11.5166,128.182397,37.954642,5946.7037784,173.054,-59.805,14.413,1.0
11.5333,128.182405,37.954673,5942.0354615999995,172.987,-59.993,14.461,1.0
11.55,128.182413,37.954704,5937.3543432,172.918,-60.181,14.509,1.0
11.5666,128.182421,37.954735,5932.6604232,172.85,-60.369,14.559,1.0
11.5833,128.182429,37.954765,5927.9537016,172.782,-60.558,14.609,1.0
11.6,128.182437,37.954796,5923.234483200001,172.713,-60.746,14.66,1.0
11.6166,128.182445,37.954826,5918.502768,172.644,-60.934,14.712,1.0
11.6333,128.182453,37.954856,5913.758251200001,172.574,-61.122,14.764,1.0
11.65,128.182461,37.954887,5909.0012376,172.505,-61.31,14.818,1.0
11.6666,128.182469,37.954916,5904.2317272,172.435,-61.499,14.872,1.0
11.6833,128.182477,37.954946,5899.4500248,172.365,-61.687,14.927,1.0
11.7,128.182485,37.954976,5894.6558256,172.294,-61.875,14.983,1.0
11.7166,128.182493,37.955005,5889.8491296,172.223,-62.063,15.04,1.0
11.7333,128.182501,37.955035,5885.0299368000005,172.151,-62.251,15.098,1.0
11.75,128.182509,37.955064,5880.198856800001,172.08,-62.44,15.157,1.0
11.7666,128.182517,37.955093,5875.35528,172.007,-62.628,15.217,1.0
11.7833,128.182525,37.955122,5870.499816,171.935,-62.816,15.278,1.0
11.8,128.182533,37.955151,5865.6318552,171.861,-63.004,15.339,1.0
11.8166,128.182541,37.95518,5860.7520072,171.787,-63.192,15.402,1.0
11.8333,128.182549,37.955208,5855.8599672,171.713,-63.38,15.465,1.0
11.85,128.182556,37.955237,5850.95604,171.638,-63.569,15.53,1.0
11.8666,128.182564,37.955265,5846.0402256,171.563,-63.757,15.596,1.0
11.8833,128.182572,37.955293,5841.112524000001,171.487,-63.945,15.662,1.0
11.9,128.18258,37.955321,5836.1726304,171.41,-64.133,15.73,1.0
11.9166,128.182588,37.955349,5831.2211544,171.333,-64.321,15.799,1.0
11.9333,128.182595,37.955377,5826.257791200001,171.255,-64.509,15.869,1.0
11.95,128.182603,37.955404,5821.282845600001,171.176,-64.698,15.94,1.0
11.9666,128.182611,37.955432,5816.2960128,171.097,-64.886,16.012,1.0
11.9833,128.182619,37.955459,5811.297597600001,171.017,-65.074,16.085,1.0
12.0,128.182626,37.955486,5806.287600000001,170.936,-65.262,16.16,1.0
12.0166,128.182634,37.955513,5801.266020000001,170.854,-65.45,16.235,1.0
12.0333,128.182642,37.95554,5796.2328576,170.771,-65.638,16.312,1.0
12.05,128.182649,37.955567,5791.1884176,170.687,-65.826,16.39,1.0
12.0666,128.182657,37.955593,5786.1323952,170.603,-66.015,16.47,1.0
12.0833,128.182665,37.95562,5781.0650952000005,170.517,-66.203,16.551,1.0
12.1,128.182672,37.955646,5775.9865176,170.431,-66.391,16.633,1.0
12.1166,128.18268,37.955672,5770.8966624,170.343,-66.579,16.716,1.0
12.1333,128.182687,37.955698,5765.7955296,170.254,-66.767,16.801,1.0
12.15,128.182695,37.955724,5760.683119200001,170.165,-66.955,16.887,1.0
12.1666,128.182702,37.955749,5755.559736,170.074,-67.143,16.975,1.0
12.1833,128.18271,37.955775,5750.4250752,169.982,-67.331,17.064,1.0
12.2,128.182718,37.9558,5745.279441600001,169.888,-67.519,17.155,1.0
12.2166,128.182725,37.955826,5740.12314,169.794,-67.707,17.247,1.0
12.2333,128.182733,37.955851,5734.955560800001,169.699,-67.895,17.341,1.0
12.25,128.18274,37.955876,5729.777008800001,169.603,-68.083,17.436,1.0
12.2666,128.182747,37.9559,5724.5877887999995,169.506,-68.271,17.533,1.0
12.2833,128.182755,37.955925,5719.3879008,169.408,-68.459,17.631,1.0
12.3,128.182762,37.955949,5714.1770400000005,169.309,-68.647,17.731,1.0
12.3166,128.18277,37.955974,5708.955816,169.209,-68.835,17.833,1.0
12.3333,128.182777,37.955998,5703.723619200001,169.108,-69.023,17.936,1.0
12.35,128.182785,37.956022,5698.4810592,169.005,-69.211,18.042,1.0
12.3666,128.182792,37.956046,5693.2278312,168.902,-69.399,18.149,1.0
12.3833,128.182799,37.95607,5687.96424,168.797,-69.587,18.258,1.0
12.4,128.182807,37.956093,5682.6899808,168.692,-69.775,18.368,1.0
12.4166,128.182814,37.956117,5677.4056632,168.584,-69.962,18.481,1.0
12.4333,128.182821,37.95614,5672.110677600001,168.476,-70.15,18.596,1.0
12.45,128.182828,37.956163,5666.805633600001,168.366,-70.338,18.713,1.0
12.4666,128.182836,37.956186,5661.4902264,168.254,-70.526,18.832,1.0
12.4833,128.182843,37.956209,5656.1647608,168.141,-70.713,18.953,1.0
12.5,128.18285,37.956231,5650.828932,168.026,-70.901,19.076,1.0
12.5166,128.182857,37.956254,5645.4830448,167.91,-71.089,19.202,1.0
12.5333,128.182865,37.956276,5640.127404,167.791,-71.276,19.33,1.0
12.55,128.182872,37.956298,5634.7617048,167.671,-71.464,19.46,1.0
12.5666,128.182879,37.95632,5629.3859472,167.549,-71.652,19.593,1.0
12.5833,128.182886,37.956342,5624.000436,167.424,-71.839,19.729,1.0
12.6,128.182893,37.956364,5618.6048664,167.298,-72.027,19.867,1.0
12.6166,128.1829,37.956386,5613.199848,167.169,-72.214,20.007,1.0
12.6333,128.182907,37.956407,5607.7847712,167.038,-72.401,20.151,1.0
12.65,128.182914,37.956428,5602.3602456,166.904,-72.589,20.297,1.0
12.6666,128.182922,37.956449,5596.9262712,166.768,-72.776,20.446,1.0
12.6833,128.182929,37.95647,5591.4825432,166.629,-72.963,20.599,1.0
12.7,128.182936,37.956491,5586.0293664,166.488,-73.151,20.754,1.0
12.7166,128.182943,37.956512,5580.5667408,166.343,-73.338,20.913,1.0
12.7333,128.18295,37.956532,5575.0946664,166.196,-73.525,21.075,1.0
12.75,128.182956,37.956552,5569.613143199999,166.045,-73.712,21.241,1.0
12.7666,128.182963,37.956572,5564.122476,165.891,-73.899,21.41,1.0
12.7833,128.18297,37.956592,5558.6226648,165.734,-74.086,21.583,1.0
12.8,128.182977,37.956612,5553.1137096,165.573,-74.272,21.76,1.0
12.8166,128.182984,37.956632,5547.595610400001,165.408,-74.459,21.941,1.0
12.8333,128.182991,37.956651,5542.0683672000005,165.24,-74.646,22.125,1.0
12.85,128.182998,37.956671,5536.53198,165.067,-74.832,22.315,1.0
12.8666,128.183005,37.95669,5530.9867536,164.891,-75.019,22.508,1.0
12.8833,128.183011,37.956709,5525.432688000001,164.71,-75.205,22.706,1.0
12.9,128.183018,37.956727,5519.869783200001,164.525,-75.392,22.909,1.0
12.9166,128.183025,37.956746,5514.2980392,164.334,-75.578,23.117,1.0
12.9333,128.183032,37.956765,5508.717760800001,164.139,-75.764,23.33,1.0
12.95,128.183038,37.956783,5503.1286432,163.939,-75.95,23.549,1.0
12.9666,128.183045,37.956801,5497.5306864,163.734,-76.135,23.773,1.0
12.9833,128.183052,37.956819,5491.9245,163.523,-76.321,24.002,1.0
13.0,128.183058,37.956837,5486.309779200001,163.306,-76.507,24.238,1.0
13.0166,128.183065,37.956855,5480.686524000001,163.083,-76.692,24.48,1.0
13.0333,128.183072,37.956872,5475.0547344,162.853,-76.877,24.728,1.0
13.0499,128.183078,37.956889,5469.41502,162.618,-77.062,24.984,1.0
13.0666,128.183085,37.956907,5463.7667712,162.375,-77.247,25.246,1.0
13.0833,128.183091,37.956924,5458.110292800001,162.125,-77.432,25.516,1.0
13.1,128.183098,37.95694,5452.4455848,161.867,-77.616,25.793,1.0
13.1166,128.183104,37.956957,5446.772952000001,161.602,-77.8,26.079,1.0
13.1333,128.183111,37.956974,5441.0923944,161.328,-77.984,26.372,1.0
13.15,128.183117,37.95699,5435.4036072,161.046,-78.168,26.675,1.0
13.1666,128.183124,37.957006,5429.7072,160.755,-78.352,26.987,1.0
13.1833,128.18313,37.957022,5424.0028680000005,160.454,-78.535,27.308,1.0
13.2,128.183137,37.957038,5418.290611200001,160.144,-78.718,27.64,1.0
13.2166,128.183143,37.957053,5412.570429599999,159.822,-78.9,27.982,1.0
13.2333,128.183149,37.957069,5406.8429328,159.49,-79.083,28.335,1.0
13.25,128.183156,37.957084,5401.107511200001,159.147,-79.265,28.699,1.0
13.2666,128.183162,37.957099,5395.364774400001,158.791,-79.446,29.076,1.0
13.2833,128.183168,37.957114,5389.6144176,158.423,-79.628,29.466,1.0
13.3,128.183175,37.957129,5383.8567456,158.041,-79.808,29.869,1.0
13.3166,128.183181,37.957144,5378.0917584,157.645,-79.989,30.286,1.0
13.3333,128.183187,37.957158,5372.319456,157.235,-80.169,30.719,1.0
13.35,128.183193,37.957172,5366.539533600001,156.809,-80.348,31.167,1.0
13.3666,128.183199,37.957187,5360.7529056,156.366,-80.527,31.631,1.0
13.3833,128.183205,37.9572,5354.9589624,155.906,-80.706,32.113,1.0
13.4,128.183212,37.957214,5349.157704,155.428,-80.883,32.613,1.0
13.4166,128.183218,37.957228,5343.34974,154.93,-81.06,33.133,1.0
13.4333,128.183224,37.957241,5337.5347656,154.412,-81.237,33.673,1.0
13.45,128.18323,37.957254,5331.7130856,153.872,-81.413,34.235,1.0
13.4666,128.183236,37.957267,5325.884395200001,153.309,-81.588,34.82,1.0
13.4833,128.183242,37.95728,5320.0489992,152.722,-81.762,35.43,1.0
13.5,128.183248,37.957293,5314.206897600001,152.109,-81.935,36.065,1.0
13.5166,128.183254,37.957306,5308.3580904,151.469,-82.108,36.728,1.0
13.5333,128.183259,37.957318,5302.5028824,150.8,-82.279,37.42,1.0
13.55,128.183265,37.95733,5296.6412736,150.1,-82.449,38.142,1.0
13.5666,128.183271,37.957342,5290.7729592000005,149.367,-82.618,38.898,1.0
13.5833,128.183277,37.957354,5284.8985488,148.599,-82.786,39.688,1.0
13.6,128.183283,37.957366,5279.0177376,147.795,-82.953,40.515,1.0
13.6166,128.183289,37.957377,5273.1305256,146.951,-83.118,41.382,1.0
13.6333,128.183294,37.957388,5267.2372176,146.066,-83.282,42.289,1.0
13.65,128.1833,37.957399,5261.3378136,145.138,-83.444,43.24,1.0
13.6666,128.183306,37.95741,5255.4326184,144.163,-83.604,44.237,1.0
13.6833,128.183311,37.957421,5249.5213272,143.139,-83.763,45.283,1.0
13.7,128.183317,37.957432,5243.60394,142.062,-83.92,46.381,1.0
13.7166,128.183323,37.957442,5237.6807616,140.929,-84.074,47.535,1.0
13.7333,128.183328,37.957452,5231.752096800001,139.737,-84.227,48.75,1.0
13.75,128.183334,37.957462,5225.817336,138.481,-84.376,50.028,1.0
13.7666,128.183339,37.957472,5219.8770888,137.157,-84.523,51.373,1.0
13.7833,128.183345,37.957482,5213.9313552,135.761,-84.667,52.791,1.0
13.8,128.18335,37.957491,5207.9801352,134.289,-84.808,54.284,1.0
13.8166,128.183356,37.957501,5202.023428800001,132.737,-84.945,55.858,1.0
13.8333,128.183361,37.95751,5196.0612360000005,131.099,-85.079,57.517,1.0
13.85,128.183366,37.957519,5190.093861599999,129.372,-85.208,59.266,1.0
13.8666,128.183372,37.957528,5184.121000800001,127.551,-85.333,61.109,1.0
13.8833,128.183377,37.957536,5178.143263200001,125.631,-85.453,63.05,1.0
13.9,128.183382,37.957545,5172.160344,123.61,-85.568,65.093,1.0
13.9166,128.183388,37.957553,5166.172548,121.484,-85.677,67.241,1.0
13.9333,128.183393,37.957561,5160.179570400001,119.251,-85.779,69.495,1.0
13.95,128.183398,37.957569,5154.181716,116.91,-85.876,71.857,1.0
13.9666,128.183403,37.957577,5148.1789848,114.461,-85.965,74.328,1.0
13.9833,128.183408,37.957584,5142.1716816,111.906,-86.046,76.904,1.0
14.0,128.183413,37.957591,5136.159501600001,109.249,-86.12,79.583,1.0
14.0166,128.183418,37.957598,5130.142749600001,106.494,-86.185,82.358,1.0
14.0333,128.183424,37.957605,5124.1217304,103.65,-86.241,85.224,1.0
14.05,128.183429,37.957612,5118.0958344,100.727,-86.287,88.168,1.0
14.0666,128.183434,37.957619,5112.0656712,97.737,-86.324,91.178,1.0
14.0833,128.183438,37.957625,5106.0312408,94.694,-86.35,94.242,1.0
14.1,128.183443,37.957631,5099.9925432,91.615,-86.366,97.342,1.0
14.1166,128.183448,37.957637,5093.949578400001,88.516,-86.372,100.461,1.0
14.1333,128.183453,37.957643,5087.9023464,85.416,-86.367,103.582,1.0
14.15,128.183458,37.957649,5081.851456800001,82.331,-86.351,106.686,1.0
14.1666,128.183463,37.957654,5075.7963,79.281,-86.325,109.757,1.0
14.1833,128.183467,37.95766,5069.7371808,76.28,-86.289,112.778,1.0
14.2,128.183472,37.957665,5063.674404,73.343,-86.243,115.735,1.0
14.2166,128.183477,37.95767,5057.607664800001,70.481,-86.188,118.616,1.0
14.2333,128.183482,37.957674,5051.537268,67.703,-86.124,121.413,1.0
14.25,128.183486,37.957679,5045.4635184,65.016,-86.052,124.117,1.0
14.2666,128.183491,37.957683,5039.385806400001,62.426,-85.972,126.724,1.0
14.2833,128.183495,37.957688,5033.305046400001,59.934,-85.884,129.232,1.0
14.3,128.1835,37.957691,5027.220628800001,57.544,-85.79,131.638,1.0
14.3166,128.183504,37.957695,5021.1328584,55.254,-85.69,133.942,1.0
14.3333,128.183509,37.957699,5015.0417352,53.062,-85.583,136.148,1.0
14.35,128.183513,37.957702,5008.947564,50.966,-85.472,138.257,1.0
14.3666,128.183518,37.957706,5002.8503448,48.961,-85.355,140.274,1.0
14.3833,128.183522,37.957709,4996.750077600001,47.043,-85.234,142.204,1.0
14.4,128.183526,37.957711,4990.646762400001,45.206,-85.11,144.051,1.0
14.4166,128.18353,37.957714,4984.5403992,43.443,-84.982,145.821,1.0
14.4333,128.183535,37.957717,4978.4312928,41.75,-84.851,147.521,1.0
14.45,128.183539,37.957719,4972.3194432,40.121,-84.716,149.155,1.0
14.4666,128.183543,37.957721,4966.2051552,38.553,-84.58,150.727,1.0
14.4833,128.183547,37.957723,4960.088124,37.04,-84.441,152.242,1.0
14.5,128.183551,37.957725,4953.9683496,35.579,-84.3,153.705,1.0
14.5166,128.183555,37.957726,4947.846441600001,34.165,-84.157,155.119,1.0
