Time,Longitude,Latitude,Altitude,Roll (deg),Pitch (deg),Yaw (deg),Health
0.0,128.181881,37.923646,7000.146528,0.0,-0.003,0.0,1.0
0.0166,128.181881,37.923691,7000.1605488000005,0.0,-0.012,0.0,1.0
0.0333,128.181881,37.923736,7000.173960000001,0.0,-0.025,0.0,1.0
0.05,128.181881,37.923781,7000.186152000001,0.0,-0.039,359.999,1.0
0.0666,128.181881,37.923826,7000.1977344,0.0,-0.054,359.999,1.0
0.0833,128.181881,37.92387,7000.2084024,0.0,-0.068,0.0,1.0
0.1,128.181881,37.923915,7000.218156000001,0.0,-0.083,0.0,1.0
0.1166,128.181881,37.92396,7000.226995200001,0.0,-0.096,0.0,1.0
0.1333,128.181881,37.924005,7000.234920000001,0.002,-0.108,0.0,1.0
0.15,128.181881,37.92405,7000.2419304000005,0.004,-0.119,0.001,1.0
0.1666,128.181881,37.924095,7000.2480264000005,0.008,-0.128,0.002,1.0
0.1833,128.181881,37.92414,7000.253208,0.014,-0.135,0.003,1.0
0.2,128.181881,37.924185,7000.2574752,0.023,-0.141,0.004,1.0
0.2166,128.181881,37.92423,7000.260828,0.034,-0.146,0.006,1.0
0.2333,128.181881,37.924275,7000.2632664,0.047,-0.149,0.008,1.0
0.25,128.181881,37.92432,7000.2644856,0.063,-0.151,0.01,1.0
0.2666,128.181881,37.924365,7000.2650952,0.082,-0.153,0.012,1.0
0.2833,128.181881,37.92441,7000.2650952,0.102,-0.153,0.014,1.0
0.3,128.181881,37.924455,7000.263876,0.125,-0.153,0.016,1.0
0.3166,128.181881,37.9245,7000.261742400001,0.149,-0.153,0.019,1.0
0.3333,128.181881,37.924545,7000.2589992,0.175,-0.151,0.021,1.0
0.35,128.181881,37.92459,7000.255646400001,0.201,-0.15,0.023,1.0
0.3666,128.181881,37.924635,7000.251379200001,0.228,-0.148,0.026,1.0
0.3833,128.181881,37.92468,7000.246197600001,0.255,-0.146,0.028,1.0
0.4,128.181881,37.924725,7000.240406400001,0.283,-0.144,0.03,1.0
0.4166,128.181881,37.92477,7000.2340056,0.31,-0.141,0.032,1.0
0.4333,128.181881,37.924815,7000.226995200001,0.336,-0.139,0.034,1.0
0.45,128.181881,37.92486,7000.2193752,0.361,-0.136,0.036,1.0
0.4666,128.181881,37.924905,7000.2108408,0.385,-0.133,0.038,1.0
0.4833,128.181881,37.92495,7000.202001600001,0.408,-0.131,0.04,1.0
0.5,128.181881,37.924995,7000.1925528,0.43,-0.128,0.041,1.0
0.5166,128.181881,37.92504,7000.1821896,0.45,-0.125,0.043,1.0
0.5333,128.181881,37.925085,7000.1715216,0.469,-0.122,0.045,1.0
0.55,128.181881,37.92513,7000.160244,0.488,-0.119,0.046,1.0
0.5666,128.181881,37.925175,7000.148356800001,0.505,-0.116,0.048,1.0
0.5833,128.181881,37.92522,7000.13586,0.522,-0.114,0.05,1.0
0.6,128.181881,37.925265,7000.1227536,0.541,-0.113,0.052,1.0
0.6166,128.181881,37.92531,7000.1087328,0.561,-0.112,0.054,1.0
0.6333,128.181881,37.925355,7000.094102399999,0.585,-0.112,0.057,1.0
0.65,128.181881,37.9254,7000.0785576,0.614,-0.114,0.06,1.0
0.6666,128.181881,37.925445,7000.0620984,0.652,-0.116,0.063,1.0
0.6833,128.181881,37.92549,7000.044420000001,0.701,-0.12,0.068,1.0
0.7,128.181881,37.925535,7000.0270464000005,0.752,-0.125,0.072,1.0
0.7166,128.181881,37.92558,7000.0081488,0.805,-0.131,0.077,1.0
0.7333,128.181881,37.925625,6999.988946400001,0.861,-0.138,0.081,1.0
0.75,128.181881,37.92567,6999.9688295999995,0.922,-0.146,0.086,1.0
0.7666,128.181881,37.925715,6999.9477984,0.99,-0.154,0.092,1.0
0.7833,128.181881,37.925761,6999.9258528,1.066,-0.163,0.098,1.0
0.8,128.181881,37.925806,6999.902688000001,1.15,-0.173,0.105,1.0
0.8166,128.181881,37.925851,6999.8789136000005,1.244,-0.183,0.113,1.0
0.8333,128.181881,37.925896,6999.8539200000005,1.346,-0.193,0.121,1.0
0.85,128.181881,37.925941,6999.8283168,1.458,-0.202,0.129,1.0
0.8666,128.181881,37.925986,6999.8014944,1.576,-0.211,0.138,1.0
0.8833,128.181881,37.926031,6999.7743672,1.7,-0.219,0.146,1.0
0.9,128.181881,37.926076,6999.7463256,1.828,-0.226,0.154,1.0
0.9166,128.181881,37.926121,6999.717674400001,1.957,-0.232,0.162,1.0
0.9333,128.181881,37.926166,6999.688413600001,2.085,-0.237,0.17,1.0
0.95,128.181881,37.926211,6999.658848,2.211,-0.241,0.176,1.0
0.9666,128.181881,37.926257,6999.6286728000005,2.331,-0.243,0.183,1.0
0.9833,128.181881,37.926302,6999.598192800001,2.445,-0.244,0.189,1.0
1.0,128.181881,37.926347,6999.5664936,2.568,-0.244,0.195,1.0
1.0166,128.181881,37.926392,6999.5341848,2.695,-0.242,0.203,1.0
1.0333,128.181881,37.926437,6999.501876,2.819,-0.239,0.209,1.0
1.05,128.181881,37.926482,6999.4695672,2.935,-0.234,0.215,1.0
1.0666,128.181881,37.926527,6999.4372584,3.038,-0.228,0.219,1.0
1.0833,128.181881,37.926572,6999.404949600001,3.126,-0.22,0.221,1.0
1.1,128.181881,37.926618,6999.372336,3.2,-0.21,0.222,1.0
1.1166,128.181881,37.926663,6999.3400272,3.26,-0.201,0.222,1.0
1.1333,128.181881,37.926708,6999.308328000001,3.302,-0.191,0.221,1.0
1.15,128.181881,37.926753,6999.276628800001,3.322,-0.183,0.217,1.0
1.1666,128.181882,37.926798,6999.245844,3.318,-0.176,0.212,1.0
1.1833,128.181882,37.926843,6999.215364000001,3.287,-0.171,0.206,1.0
1.2,128.181882,37.926888,6999.1842744000005,3.247,-0.167,0.199,1.0
1.2166,128.181882,37.926934,6999.1531848,3.198,-0.165,0.193,1.0
1.2333,128.181882,37.926979,6999.1220952,3.142,-0.164,0.187,1.0
1.25,128.181882,37.927024,6999.0907008,3.082,-0.164,0.182,1.0
1.2666,128.181882,37.927069,6999.059001600001,3.018,-0.165,0.176,1.0
1.2833,128.181882,37.927114,6999.0273024,2.95,-0.166,0.17,1.0
1.3,128.181882,37.927159,6998.9952984,2.881,-0.167,0.164,1.0
1.3166,128.181882,37.927205,6998.9629896,2.81,-0.168,0.158,1.0
1.3333,128.181882,37.92725,6998.930376,2.739,-0.168,0.152,1.0
1.35,128.181882,37.927295,6998.8974576,2.668,-0.169,0.145,1.0
1.3666,128.181882,37.92734,6998.8645392,2.598,-0.169,0.139,1.0
1.3833,128.181882,37.927385,6998.8322304,2.514,-0.169,0.132,1.0
1.4,128.181882,37.92743,6998.7999216,2.418,-0.168,0.124,1.0
1.4166,128.181883,37.927476,6998.7676128,2.314,-0.167,0.115,1.0
1.4333,128.181883,37.927521,6998.7349992,2.203,-0.165,0.107,1.0
1.45,128.181883,37.927566,6998.7023856000005,2.091,-0.163,0.1,1.0
1.4666,128.181883,37.927611,6998.6691624000005,1.98,-0.161,0.093,1.0
1.4833,128.181883,37.927656,6998.6356344,1.872,-0.158,0.087,1.0
1.5,128.181883,37.927702,6998.601801600001,1.771,-0.154,0.083,1.0
1.5166,128.181883,37.927747,6998.567664,1.676,-0.151,0.079,1.0
1.5333,128.181883,37.927792,6998.5329168,1.589,-0.147,0.075,1.0
1.55,128.181883,37.927837,6998.497864800001,1.509,-0.143,0.072,1.0
1.5666,128.181883,37.927882,6998.4625080000005,1.436,-0.139,0.069,1.0
1.5833,128.181883,37.927928,6998.426846400001,1.369,-0.136,0.067,1.0
1.6,128.181883,37.927973,6998.3911848,1.307,-0.132,0.064,1.0
1.6166,128.181884,37.928018,6998.3549136,1.25,-0.13,0.062,1.0
1.6333,128.181884,37.928063,6998.3186424000005,1.196,-0.127,0.059,1.0
1.65,128.181884,37.928109,6998.2820664,1.146,-0.126,0.057,1.0
1.6666,128.181884,37.928154,6998.245490400001,1.097,-0.124,0.054,1.0
1.6833,128.181884,37.928199,6998.2086096,1.05,-0.124,0.052,1.0
1.7,128.181884,37.928244,6998.171424000001,1.005,-0.124,0.049,1.0
1.7166,128.181884,37.92829,6998.134238400001,0.961,-0.124,0.047,1.0
1.7333,128.181884,37.928335,6998.0970528,0.917,-0.124,0.045,1.0
1.75,128.181884,37.92838,6998.0595624,0.875,-0.125,0.042,1.0
1.7666,128.181884,37.928425,6998.022072,0.834,-0.126,0.04,1.0
1.7833,128.181884,37.928471,6997.9842768,0.793,-0.128,0.038,1.0
1.8,128.181885,37.928516,6997.9464816,0.754,-0.129,0.036,1.0
1.8166,128.181885,37.928561,6997.9083816,0.717,-0.131,0.035,1.0
1.8333,128.181885,37.928606,6997.8702816,0.681,-0.132,0.033,1.0
1.85,128.181885,37.928652,6997.831572,0.648,-0.133,0.032,1.0
1.8666,128.181885,37.928697,6997.7931672,0.617,-0.135,0.031,1.0
1.8833,128.181885,37.928742,6997.7550672,0.581,-0.137,0.029,1.0
1.9,128.181885,37.928788,6997.7166624,0.539,-0.139,0.027,1.0
1.9166,128.181885,37.928833,6997.6785624,0.494,-0.142,0.024,1.0
1.9333,128.181885,37.928878,6997.6401576,0.448,-0.146,0.022,1.0
1.95,128.181885,37.928923,6997.601447999999,0.401,-0.149,0.019,1.0
1.9666,128.181885,37.928969,6997.562738400001,0.356,-0.152,0.018,1.0
1.9833,128.181886,37.929014,6997.523419200001,0.315,-0.154,0.016,1.0
2.0,128.181886,37.929059,6997.484100000001,0.278,-0.156,0.016,1.0
2.0166,128.181886,37.929105,6997.4441712,0.248,-0.157,0.016,1.0
2.0333,128.181886,37.92915,6997.404242400001,0.222,-0.157,0.016,1.0
2.05,128.181886,37.929195,6997.3640088,0.201,-0.156,0.017,1.0
2.0666,128.181886,37.929241,6997.323470400001,0.185,-0.156,0.018,1.0
2.0833,128.181886,37.929286,6997.282932,0.173,-0.156,0.019,1.0
2.1,128.181886,37.929331,6997.241784000001,0.166,-0.157,0.02,1.0
2.1166,128.181886,37.929377,6997.200331200001,0.163,-0.159,0.022,1.0
2.1333,128.181886,37.929422,6997.158573600001,0.166,-0.162,0.024,1.0
2.15,128.181887,37.929467,6997.116511200001,0.176,-0.167,0.026,1.0
2.1666,128.181887,37.929513,6997.0738392,0.194,-0.173,0.029,1.0
2.1833,128.181887,37.929558,6997.0305576,0.22,-0.181,0.032,1.0
2.2,128.181887,37.929603,6996.9875808,0.25,-0.189,0.035,1.0
2.2166,128.181887,37.929649,6996.9442992,0.281,-0.197,0.038,1.0
2.2333,128.181887,37.929694,6996.9007128,0.312,-0.205,0.041,1.0
2.25,128.181887,37.92974,6996.8568216,0.345,-0.212,0.043,1.0
2.2666,128.181887,37.929785,6996.8126256,0.38,-0.218,0.045,1.0
2.2833,128.181887,37.92983,6996.768124800001,0.416,-0.223,0.048,1.0
2.3,128.181887,37.929876,6996.7233192,0.456,-0.228,0.051,1.0
2.3166,128.181887,37.929921,6996.6782088,0.501,-0.232,0.054,1.0
2.3333,128.181888,37.929966,6996.6324888,0.55,-0.236,0.058,1.0
2.35,128.181888,37.930012,6996.586464000001,0.606,-0.239,0.062,1.0
2.3666,128.181888,37.930057,6996.539829599999,0.668,-0.243,0.067,1.0
2.3833,128.181888,37.930103,6996.4928904,0.736,-0.246,0.072,1.0
2.4,128.181888,37.930148,6996.445341600001,0.811,-0.249,0.077,1.0
2.4166,128.181888,37.930194,6996.3974880000005,0.891,-0.251,0.082,1.0
2.4333,128.181888,37.930239,6996.3493296,0.976,-0.253,0.087,1.0
2.45,128.181888,37.930284,6996.3008664,1.063,-0.255,0.092,1.0
2.4666,128.181888,37.93033,6996.2520984,1.153,-0.256,0.097,1.0
2.4833,128.181888,37.930375,6996.2030256,1.244,-0.256,0.102,1.0
2.5,128.181889,37.930421,6996.1536479999995,1.336,-0.256,0.106,1.0
2.5166,128.181889,37.930466,6996.104270400001,1.426,-0.256,0.111,1.0
2.5333,128.181889,37.930512,6996.0555024,1.509,-0.254,0.114,1.0
2.55,128.181889,37.930557,6996.0064296,1.584,-0.25,0.117,1.0
2.5666,128.181889,37.930603,6995.9573568000005,1.651,-0.246,0.119,1.0
2.5833,128.181889,37.930648,6995.908284000001,1.711,-0.241,0.121,1.0
2.6,128.181889,37.930694,6995.859211200001,1.764,-0.236,0.123,1.0
2.6166,128.181889,37.930739,6995.810138400001,1.811,-0.23,0.124,1.0
2.6333,128.181889,37.930784,6995.7613704000005,1.854,-0.224,0.126,1.0
2.65,128.181889,37.93083,6995.711992800001,1.893,-0.218,0.129,1.0
2.6666,128.18189,37.930875,6995.662920000001,1.929,-0.213,0.131,1.0
2.6833,128.18189,37.930921,6995.613847200001,1.963,-0.207,0.134,1.0
2.7,128.18189,37.930966,6995.564469600001,1.994,-0.202,0.136,1.0
2.7166,128.18189,37.931012,6995.515092000001,2.023,-0.197,0.139,1.0
2.7333,128.18189,37.931057,6995.466019200001,2.05,-0.192,0.141,1.0
2.75,128.18189,37.931103,6995.416641600001,2.074,-0.187,0.143,1.0
2.7666,128.18189,37.931148,6995.3675688,2.096,-0.182,0.145,1.0
2.7833,128.18189,37.931194,6995.3181912,2.115,-0.177,0.147,1.0
2.8,128.181891,37.931239,6995.2691184000005,2.134,-0.172,0.149,1.0
2.8166,128.181891,37.931285,6995.2197408,2.151,-0.169,0.15,1.0
2.8333,128.181891,37.931331,6995.170668000001,2.166,-0.166,0.152,1.0
2.85,128.181891,37.931376,6995.1212904,2.179,-0.164,0.153,1.0
2.8666,128.181891,37.931422,6995.0719128,2.192,-0.164,0.154,1.0
2.8833,128.181891,37.931467,6995.0219256,2.209,-0.168,0.155,1.0
2.9,128.181891,37.931513,6994.9722432,2.23,-0.174,0.158,1.0
2.9166,128.181891,37.931558,6994.9213416,2.259,-0.186,0.161,1.0
2.9333,128.181891,37.931604,6994.8692208,2.306,-0.203,0.165,1.0
2.95,128.181892,37.931649,6994.816185600001,2.377,-0.227,0.172,1.0
2.9666,128.181892,37.931695,6994.7613216,2.478,-0.255,0.18,1.0
2.9833,128.181892,37.931741,6994.704933600001,2.615,-0.287,0.191,1.0
3.0,128.181892,37.931786,6994.647326400001,2.787,-0.322,0.202,1.0
3.0166,128.181892,37.931832,6994.5878904,2.997,-0.357,0.215,1.0
3.0333,128.181892,37.931877,6994.5269304,3.242,-0.392,0.228,1.0
3.05,128.181892,37.931923,6994.4644464,3.518,-0.426,0.241,1.0
3.0666,128.181893,37.931969,6994.401048,3.822,-0.457,0.254,1.0
3.0833,128.181893,37.932014,6994.3373448,4.139,-0.484,0.265,1.0
3.1,128.181893,37.93206,6994.2727272,4.463,-0.508,0.275,1.0
3.1166,128.181893,37.932105,6994.2081096,4.781,-0.527,0.283,1.0
3.1333,128.181893,37.932151,6994.1431872,5.091,-0.541,0.289,1.0
3.15,128.181893,37.932197,6994.077655200001,5.39,-0.552,0.295,1.0
3.1666,128.181893,37.932242,6994.0121232,5.68,-0.56,0.301,1.0
3.1833,128.181894,37.932288,6993.9459816,5.96,-0.565,0.307,1.0
3.2,128.181894,37.932334,6993.8795352,6.232,-0.568,0.313,1.0
3.2166,128.181894,37.932379,6993.812784000001,6.496,-0.569,0.319,1.0
3.2333,128.181894,37.932425,6993.7463376000005,6.746,-0.568,0.325,1.0
3.25,128.181894,37.932471,6993.679281600001,6.982,-0.565,0.331,1.0
3.2666,128.181894,37.932516,6993.6125304,7.203,-0.561,0.337,1.0
3.2833,128.181894,37.932562,6993.545474400001,7.409,-0.556,0.343,1.0
3.3,128.181895,37.932608,6993.478723200001,7.599,-0.55,0.348,1.0
3.3166,128.181895,37.932653,6993.4116672,7.771,-0.542,0.354,1.0
3.3333,128.181895,37.932699,6993.3440016,7.943,-0.535,0.361,1.0
3.35,128.181895,37.932745,6993.276640800001,8.105,-0.526,0.368,1.0
3.3666,128.181895,37.932791,6993.2098896,8.245,-0.516,0.374,1.0
3.3833,128.181896,37.932836,6993.1434432,8.364,-0.504,0.378,1.0
3.4,128.181896,37.932882,6993.077301600001,8.461,-0.492,0.381,1.0
3.4166,128.181896,37.932928,6993.0120744000005,8.532,-0.481,0.382,1.0
3.4333,128.181896,37.932973,6992.946847200001,8.583,-0.474,0.381,1.0
3.45,128.181896,37.933019,6992.881924800001,8.612,-0.47,0.378,1.0
3.4666,128.181897,37.933065,6992.817612,8.618,-0.47,0.373,1.0
3.4833,128.181897,37.933111,6992.754823200001,8.59,-0.474,0.366,1.0
3.5,128.181897,37.933156,6992.692644,8.528,-0.483,0.356,1.0
3.5166,128.181897,37.933202,6992.631074400001,8.433,-0.493,0.344,1.0
3.5333,128.181898,37.933248,6992.569809600001,8.31,-0.506,0.331,1.0
3.55,128.181898,37.933294,6992.509154400001,8.162,-0.518,0.318,1.0
3.5666,128.181898,37.933339,6992.4484992,7.998,-0.53,0.306,1.0
3.5833,128.181899,37.933385,6992.387844,7.823,-0.541,0.294,1.0
3.6,128.181899,37.933431,6992.3277984,7.634,-0.55,0.283,1.0
3.6166,128.181899,37.933477,6992.267448,7.436,-0.558,0.272,1.0
3.6333,128.181899,37.933522,6992.2070976,7.236,-0.563,0.261,1.0
3.65,128.1819,37.933568,6992.146137600001,7.036,-0.567,0.252,1.0
3.6666,128.1819,37.933614,6992.085177600001,6.84,-0.568,0.243,1.0
3.6833,128.1819,37.93366,6992.023608,6.65,-0.568,0.236,1.0
3.7,128.181901,37.933706,6991.961733600001,6.469,-0.566,0.229,1.0
3.7166,128.181901,37.933751,6991.900164000001,6.29,-0.564,0.223,1.0
3.7333,128.181901,37.933797,6991.8379848,6.113,-0.561,0.216,1.0
3.75,128.181901,37.933843,6991.7758056,5.94,-0.559,0.209,1.0
3.7666,128.181902,37.933889,6991.7133216,5.769,-0.557,0.202,1.0
3.7833,128.181902,37.933935,6991.6505328,5.603,-0.554,0.196,1.0
3.8,128.181902,37.93398,6991.587744,5.442,-0.553,0.189,1.0
3.8166,128.181903,37.934026,6991.524345600001,5.287,-0.551,0.183,1.0
3.8333,128.181903,37.934072,6991.4618616,5.128,-0.55,0.177,1.0
3.85,128.181903,37.934118,6991.398768,4.967,-0.55,0.17,1.0
3.8666,128.181904,37.934164,6991.335674400001,4.805,-0.551,0.163,1.0
3.8833,128.181904,37.93421,6991.2725808000005,4.643,-0.552,0.156,1.0
3.9,128.181904,37.934255,6991.209182400001,4.481,-0.554,0.149,1.0
3.9166,128.181905,37.934301,6991.145784000001,4.322,-0.555,0.142,1.0
3.9333,128.181905,37.934347,6991.0820808,4.166,-0.557,0.136,1.0
3.95,128.181905,37.934393,6991.018987200001,4.005,-0.559,0.13,1.0
3.9666,128.181906,37.934439,6990.9555887999995,3.841,-0.562,0.123,1.0
3.9833,128.181906,37.934485,6990.892495200001,3.673,-0.565,0.116,1.0
4.0,128.181906,37.934531,6990.829096800001,3.504,-0.568,0.109,1.0
4.0166,128.181907,37.934576,6990.7656984,3.335,-0.571,0.103,1.0
4.0333,128.181907,37.934622,6990.7019952,3.168,-0.574,0.097,1.0
4.05,128.181907,37.934668,6990.638292000001,3.003,-0.576,0.091,1.0
4.0666,128.181908,37.934714,6990.5755032,2.831,-0.58,0.085,1.0
4.0833,128.181908,37.93476,6990.5121048,2.652,-0.583,0.078,1.0
4.1,128.181908,37.934806,6990.449011200001,2.469,-0.588,0.072,1.0
4.1166,128.181909,37.934852,6990.386832,2.272,-0.593,0.064,1.0
4.1333,128.181909,37.934898,6990.3246528,2.062,-0.599,0.057,1.0
4.15,128.18191,37.934944,6990.262778400001,1.841,-0.605,0.049,1.0
4.1666,128.18191,37.93499,6990.200904,1.614,-0.612,0.041,1.0
4.1833,128.18191,37.935036,6990.139944,1.371,-0.619,0.034,1.0
4.2,128.181911,37.935082,6990.078984000001,1.116,-0.627,0.026,1.0
4.2166,128.181911,37.935127,6990.018024000001,0.853,-0.634,0.018,1.0
4.2333,128.181911,37.935173,6989.957064,0.584,-0.642,0.011,1.0
4.25,128.181912,37.935219,6989.896104,0.314,-0.65,0.005,1.0
4.2666,128.181912,37.935265,6989.8348392,0.045,-0.657,359.999,1.0
4.2833,128.181912,37.935311,6989.7732696,-0.218,-0.664,359.995,1.0
4.3,128.181913,37.935357,6989.7126144,-0.488,-0.672,359.989,1.0
4.3166,128.181913,37.935403,6989.651654400001,-0.761,-0.679,359.984,1.0
4.3333,128.181913,37.935449,6989.5906944,-1.037,-0.687,359.979,1.0
4.35,128.181914,37.935495,6989.5294296,-1.311,-0.696,359.974,1.0
4.3666,128.181914,37.935541,6989.467860000001,-1.584,-0.704,359.969,1.0
4.3833,128.181914,37.935587,6989.4062904,-1.852,-0.712,359.965,1.0
4.4,128.181915,37.935633,6989.344111200001,-2.113,-0.721,359.961,1.0
4.4166,128.181915,37.935679,6989.2825416000005,-2.378,-0.73,359.957,1.0
4.4333,128.181915,37.935725,6989.2206672,-2.643,-0.739,359.953,1.0
4.45,128.181916,37.935771,6989.158488000001,-2.908,-0.749,359.948,1.0
4.4666,128.181916,37.935817,6989.096004,-3.169,-0.759,359.944,1.0
4.4833,128.181916,37.935863,6989.033215200001,-3.423,-0.769,359.941,1.0
4.5,128.181917,37.935909,6988.9698168,-3.668,-0.779,359.938,1.0
4.5166,128.181917,37.935955,6988.906723200001,-3.912,-0.789,359.935,1.0
4.5333,128.181917,37.936001,6988.843020000001,-4.154,-0.799,359.932,1.0
4.55,128.181918,37.936047,6988.779012,-4.39,-0.809,359.929,1.0
4.5666,128.181918,37.936094,6988.7140896,-4.616,-0.819,359.926,1.0
4.5833,128.181918,37.93614,6988.6488624,-4.831,-0.828,359.924,1.0
4.6,128.181919,37.936186,6988.5827208,-5.032,-0.837,359.923,1.0
4.6166,128.181919,37.936232,6988.516884000001,-5.227,-0.846,359.921,1.0
4.6333,128.181919,37.936278,6988.450132800001,-5.414,-0.855,359.919,1.0
4.65,128.18192,37.936324,6988.382772,-5.592,-0.864,359.917,1.0
4.6666,128.18192,37.93637,6988.314496800001,-5.756,-0.872,359.916,1.0
4.6833,128.18192,37.936416,6988.245612,-5.905,-0.88,359.915,1.0
4.7,128.181921,37.936462,6988.176727200001,-6.048,-0.888,359.914,1.0
4.7166,128.181921,37.936508,6988.106928,-6.183,-0.895,359.913,1.0
4.7333,128.181921,37.936554,6988.036214400001,-6.307,-0.903,359.912,1.0
4.75,128.181921,37.936601,6987.9648912,-6.417,-0.909,359.912,1.0
4.7666,128.181922,37.936647,6987.8926536,-6.513,-0.915,359.912,1.0
4.7833,128.181922,37.936693,6987.819806400001,-6.594,-0.918,359.914,1.0
4.8,128.181922,37.936739,6987.7460448,-6.66,-0.919,359.916,1.0
4.8166,128.181923,37.936785,6987.671673600001,-6.716,-0.921,359.918,1.0
4.8333,128.181923,37.936831,6987.596997600001,-6.763,-0.923,359.92,1.0
4.85,128.181923,37.936877,6987.5214072,-6.801,-0.925,359.921,1.0
4.8666,128.181923,37.936924,6987.4458168,-6.84,-0.929,359.922,1.0
4.8833,128.181924,37.93697,6987.3696168,-6.877,-0.936,359.923,1.0
4.9,128.181924,37.937016,6987.2940264,-6.924,-0.944,359.923,1.0
4.9166,128.181924,37.937062,6987.2175216000005,-6.978,-0.955,359.922,1.0
4.9333,128.181924,37.937108,6987.140712,-7.035,-0.965,359.921,1.0
4.95,128.181925,37.937155,6987.0632928,-7.092,-0.975,359.921,1.0
4.9666,128.181925,37.937201,6986.985264000001,-7.144,-0.984,359.921,1.0
4.9833,128.181925,37.937247,6986.9069304,-7.193,-0.989,359.922,1.0
5.0,128.181925,37.937293,6986.8279872,-7.241,-0.994,359.923,1.0
5.0166,128.181925,37.937339,6986.7484343999995,-7.286,-0.997,359.924,1.0
5.0333,128.181926,37.937386,6986.668576800001,-7.325,-0.999,359.925,1.0
5.05,128.181926,37.937432,6986.5878048,-7.359,-1.0,359.925,1.0
5.0666,128.181926,37.937478,6986.5070328,-7.393,-1.0,359.926,1.0
5.0833,128.181926,37.937524,6986.4253464,-7.426,-0.999,359.926,1.0
5.1,128.181927,37.937571,6986.3439648,-7.461,-0.998,359.926,1.0
5.1166,128.181927,37.937617,6986.261668800001,-7.497,-0.999,359.926,1.0
5.1333,128.181927,37.937663,6986.1793728,-7.534,-1.0,359.925,1.0
5.15,128.181927,37.93771,6986.0964672,-7.572,-1.003,359.924,1.0
5.1666,128.181927,37.937756,6986.013256800001,-7.613,-1.007,359.923,1.0
5.1833,128.181927,37.937802,6985.929741600001,-7.656,-1.012,359.922,1.0
5.2,128.181928,37.937848,6985.846836000001,-7.717,-1.022,359.92,1.0
5.2166,128.181928,37.937895,6985.7639304,-7.796,-1.035,359.917,1.0
5.2333,128.181928,37.937941,6985.679805600001,-7.863,-1.053,359.916,1.0
5.25,128.181928,37.937987,6985.5947664,-7.918,-1.075,359.916,1.0
5.2666,128.181928,37.938034,6985.5088128,-7.948,-1.086,359.923,1.0
5.2833,128.181928,37.93808,6985.4219448,-7.954,-1.071,359.933,1.0
5.3,128.181929,37.938126,6985.3344672,-7.935,-1.017,359.942,1.0
5.3166,128.181929,37.938173,6985.2469896,-7.891,-0.911,359.946,1.0
5.3333,128.181929,37.938219,6985.1601216,-7.824,-0.742,359.941,1.0
5.35,128.181929,37.938266,6985.0744728,-7.736,-0.503,359.927,1.0
5.3666,128.181929,37.938312,6984.9909576,-7.632,-0.186,359.902,1.0
5.3833,128.181929,37.938358,6984.9098808,-7.514,0.205,359.866,1.0
5.4,128.181929,37.938405,6984.8315472,-7.387,0.659,359.823,1.0
5.4166,128.181929,37.938451,6984.757176,-7.254,1.16,359.773,1.0
5.4333,128.18193,37.938498,6984.6867672,-7.116,1.691,359.719,1.0
5.45,128.18193,37.938544,6984.6212352,-6.977,2.235,359.665,1.0
5.4666,128.18193,37.938591,6984.56058,-6.839,2.773,359.612,1.0
5.4833,128.18193,37.938637,6984.5060207999995,-6.701,3.285,359.563,1.0
5.5,128.18193,37.938683,6984.456948,-6.565,3.759,359.52,1.0
5.5166,128.18193,37.93873,6984.4148856,-6.433,4.195,359.482,1.0
5.5333,128.18193,37.938776,6984.379833600001,-6.303,4.594,359.449,1.0
5.55,128.18193,37.938823,6984.352401600001,-6.176,4.963,359.42,1.0
5.5666,128.18193,37.938869,6984.3325896,-6.054,5.304,359.396,1.0
5.5833,128.18193,37.938916,6984.3210072,-5.934,5.62,359.375,1.0
5.6,128.18193,37.938962,6984.317654400001,-5.818,5.915,359.357,1.0
5.6166,128.18193,37.939009,6984.322836,-5.706,6.191,359.342,1.0
5.6333,128.18193,37.939056,6984.3371615999995,-5.597,6.449,359.329,1.0
5.65,128.18193,37.939102,6984.3603264,-5.491,6.691,359.318,1.0
5.6666,128.18193,37.939149,6984.3926352,-5.388,6.921,359.308,1.0
5.6833,128.181929,37.939195,6984.434088000001,-5.289,7.138,359.3,1.0
5.7,128.181929,37.939242,6984.4852944,-5.192,7.344,359.293,1.0
5.7166,128.181929,37.939288,6984.5459496,-5.099,7.54,359.288,1.0
5.7333,128.181929,37.939335,6984.6160536,-5.008,7.728,359.283,1.0
5.75,128.181929,37.939381,6984.696215999999,-4.921,7.909,359.279,1.0
5.7666,128.181929,37.939428,6984.786132,-4.836,8.083,359.276,1.0
5.7833,128.181929,37.939474,6984.8858016,-4.754,8.25,359.274,1.0
5.8,128.181928,37.939521,6984.9958344,-4.675,8.412,359.272,1.0
5.8166,128.181928,37.939567,6985.1156208,-4.599,8.569,359.271,1.0
5.8333,128.181928,37.939614,6985.245465600001,-4.525,8.721,359.27,1.0
5.85,128.181928,37.93966,6985.385368800001,-4.454,8.869,359.27,1.0
5.8666,128.181928,37.939707,6985.5356352,-4.385,9.013,359.27,1.0
5.8833,128.181927,37.939753,6985.695960000001,-4.318,9.153,359.27,1.0
5.9,128.181927,37.9398,6985.866343199999,-4.254,9.291,359.271,1.0
5.9166,128.181927,37.939846,6986.0470896,-4.192,9.425,359.272,1.0
5.9333,128.181927,37.939893,6986.2381992,-4.132,9.558,359.273,1.0
5.95,128.181926,37.939939,6986.439367200001,-4.074,9.688,359.274,1.0
5.9666,128.181926,37.939986,6986.6512032,-4.018,9.816,359.275,1.0
5.9833,128.181926,37.940032,6986.873097600001,-3.964,9.942,359.277,1.0
6.0,128.181925,37.940079,6987.1050504,-3.911,10.068,359.278,1.0
6.0166,128.181925,37.940125,6987.3476712,-3.861,10.192,359.28,1.0
6.0333,128.181925,37.940172,6987.6003504,-3.812,10.315,359.281,1.0
6.05,128.181924,37.940218,6987.863697600001,-3.765,10.437,359.283,1.0
6.0666,128.181924,37.940265,6988.1371032,-3.72,10.558,359.285,1.0
6.0833,128.181924,37.940311,6988.420872000001,-3.676,10.679,359.287,1.0
6.1,128.181923,37.940358,6988.715004000001,-3.634,10.799,359.288,1.0
6.1166,128.181923,37.940404,6989.019499200001,-3.593,10.918,359.29,1.0
6.1333,128.181923,37.94045,6989.3343576,-3.554,11.038,359.292,1.0
6.15,128.181922,37.940497,6989.659274400001,-3.516,11.157,359.294,1.0
6.1666,128.181922,37.940543,6989.9948592,-3.479,11.275,359.295,1.0
6.1833,128.181921,37.94059,6990.340502399999,-3.444,11.394,359.297,1.0
6.2,128.181921,37.940636,6990.6968136000005,-3.41,11.512,359.298,1.0
6.2166,128.18192,37.940682,6991.063183200001,-3.377,11.63,359.3,1.0
6.2333,128.18192,37.940729,6991.439916,-3.345,11.748,359.302,1.0
6.25,128.18192,37.940775,6991.827012,-3.314,11.866,359.303,1.0
6.2666,128.181919,37.940821,6992.2244712,-3.285,11.984,359.304,1.0
6.2833,128.181919,37.940868,6992.6319888,-3.257,12.101,359.306,1.0
6.3,128.181918,37.940914,6993.050174400001,-3.229,12.219,359.307,1.0
6.3166,128.181918,37.94096,6993.4784184,-3.203,12.337,359.308,1.0
6.3333,128.181917,37.941007,6993.9170256,-3.177,12.454,359.31,1.0
6.35,128.181917,37.941053,6994.365996,-3.153,12.572,359.311,1.0
6.3666,128.181916,37.941099,6994.8253296,-3.129,12.689,359.312,1.0
6.3833,128.181916,37.941145,6995.2947216,-3.106,12.807,359.313,1.0
6.4,128.181915,37.941192,6995.7747816,-3.085,12.924,359.314,1.0
6.4166,128.181915,37.941238,6996.2649,-3.064,13.042,359.315,1.0
6.4333,128.181914,37.941284,6996.7650768,-3.043,13.16,359.316,1.0
6.45,128.181914,37.94133,6997.2759216,-3.024,13.277,359.316,1.0
6.4666,128.181913,37.941376,6997.796824800001,-3.005,13.395,359.317,1.0
6.4833,128.181913,37.941423,6998.3280912,-2.988,13.512,359.318,1.0
6.5,128.181912,37.941469,6998.869416,-2.97,13.63,359.318,1.0
6.5166,128.181912,37.941515,6999.4214088,-2.954,13.748,359.319,1.0
6.5333,128.181911,37.941561,6999.98346,-2.938,13.865,359.319,1.0
6.55,128.18191,37.941607,7000.555569600001,-2.923,13.983,359.32,1.0
6.5666,128.18191,37.941653,7001.138042400001,-2.909,14.101,359.32,1.0
6.5833,128.181909,37.941699,7001.730878400001,-2.895,14.218,359.32,1.0
6.6,128.181909,37.941745,7002.333772800001,-2.882,14.336,359.321,1.0
6.6166,128.181908,37.941791,7002.9470304,-2.869,14.454,359.321,1.0
6.6333,128.181908,37.941837,7003.570651200001,-2.857,14.572,359.321,1.0
6.65,128.181907,37.941884,7004.2043304,-2.846,14.689,359.321,1.0
6.6666,128.181906,37.94193,7004.8483728,-2.835,14.807,359.321,1.0
6.6833,128.181906,37.941976,7005.5024736000005,-2.825,14.925,359.32,1.0
6.7,128.181905,37.942022,7006.166632800001,-2.815,15.043,359.32,1.0
6.7166,128.181904,37.942067,7006.841460000001,-2.806,15.161,359.32,1.0
6.7333,128.181904,37.942113,7007.5260408,-2.797,15.279,359.32,1.0
6.75,128.181903,37.942159,7008.2209848,-2.789,15.397,359.319,1.0
6.7666,128.181903,37.942205,7008.926292000001,-2.781,15.515,359.319,1.0
6.7833,128.181902,37.942251,7009.6416576,-2.774,15.633,359.318,1.0
6.8,128.181901,37.942297,7010.3670816,-2.767,15.751,359.317,1.0
6.8166,128.181901,37.942343,7011.102868800001,-2.76,15.869,359.317,1.0
6.8333,128.1819,37.942389,7011.848714400001,-2.754,15.987,359.316,1.0
6.85,128.181899,37.942435,7012.604618400001,-2.749,16.105,359.315,1.0
6.8666,128.181899,37.94248,7013.3708856,-2.744,16.223,359.314,1.0
6.8833,128.181898,37.942526,7014.147211200001,-2.739,16.341,359.313,1.0
6.9,128.181897,37.942572,7014.9335952,-2.735,16.459,359.312,1.0
6.9166,128.181896,37.942618,7015.730342400001,-2.731,16.577,359.311,1.0
6.9333,128.181896,37.942663,7016.537147999999,-2.727,16.696,359.31,1.0
6.95,128.181895,37.942709,7017.354012,-2.724,16.814,359.308,1.0
6.9666,128.181894,37.942755,7018.1809344,-2.721,16.932,359.307,1.0
6.9833,128.181894,37.9428,7019.018220000001,-2.719,17.05,359.306,1.0
7.0,128.181893,37.942846,7019.865564000001,-2.717,17.169,359.304,1.0
7.0166,128.181892,37.942892,7020.7229664,-2.715,17.287,359.303,1.0
7.0333,128.181891,37.942937,7021.590427200001,-2.713,17.406,359.301,1.0
7.05,128.181891,37.942983,7022.467946400001,-2.712,17.524,359.299,1.0
7.0666,128.18189,37.943028,7023.3555240000005,-2.711,17.643,359.298,1.0
7.0833,128.181889,37.943074,7024.25316,-2.711,17.761,359.296,1.0
7.1,128.181888,37.94312,7025.1611592,-2.711,17.88,359.294,1.0
7.1166,128.181888,37.943165,7026.078912,-2.711,17.998,359.292,1.0
7.1333,128.181887,37.943211,7027.0067232,-2.711,18.117,359.29,1.0
7.15,128.181886,37.943256,7027.944897600001,-2.711,18.235,359.288,1.0
7.1666,128.181885,37.943301,7028.8928256,-2.712,18.354,359.286,1.0
7.1833,128.181885,37.943347,7029.850812,-2.713,18.473,359.284,1.0
7.2,128.181884,37.943392,7030.8191615999995,-2.715,18.591,359.281,1.0
7.2166,128.181883,37.943438,7031.7972648,-2.716,18.71,359.279,1.0
7.2333,128.181882,37.943483,7032.7854264,-2.718,18.829,359.276,1.0
7.25,128.181881,37.943528,7033.7836464,-2.72,18.948,359.274,1.0
7.2666,128.181881,37.943573,7034.791620000001,-2.723,19.066,359.271,1.0
7.2833,128.18188,37.943619,7035.809956800001,-2.725,19.185,359.269,1.0
7.3,128.181879,37.943664,7036.838047200001,-2.728,19.304,359.266,1.0
7.3166,128.181878,37.943709,7037.876196,-2.731,19.423,359.263,1.0
7.3333,128.181877,37.943754,7038.9244032,-2.734,19.542,359.261,1.0
7.35,128.181876,37.9438,7039.9826688,-2.737,19.661,359.258,1.0
7.3666,128.181876,37.943845,7041.050688000001,-2.741,19.78,359.255,1.0
7.3833,128.181875,37.94389,7042.1287656,-2.745,19.899,359.252,1.0
7.4,128.181874,37.943935,7043.216596800001,-2.749,20.018,359.249,1.0
7.4166,128.181873,37.94398,7044.3144864000005,-2.753,20.137,359.245,1.0
7.4333,128.181872,37.944025,7045.4224343999995,-2.757,20.257,359.242,1.0
7.45,128.181871,37.94407,7046.5401360000005,-2.762,20.376,359.239,1.0
7.4666,128.18187,37.944115,7047.667896000001,-2.766,20.495,359.236,1.0
7.4833,128.18187,37.94416,7048.8054096000005,-2.771,20.614,359.232,1.0
7.5,128.181869,37.944205,7049.9529816,-2.776,20.734,359.229,1.0
7.5166,128.181868,37.94425,7051.110612,-2.781,20.853,359.225,1.0
7.5333,128.181867,37.944295,7052.277691200001,-2.786,20.972,359.222,1.0
7.55,128.181866,37.944339,7053.4551336,-2.791,21.092,359.218,1.0
7.5666,128.181865,37.944384,7054.642024800001,-2.797,21.211,359.214,1.0
7.5833,128.181864,37.944429,7055.838974400001,-2.803,21.331,359.211,1.0
7.6,128.181863,37.944474,7057.0456776,-2.808,21.45,359.207,1.0
7.6166,128.181862,37.944519,7058.2624392,-2.814,21.57,359.203,1.0
7.6333,128.181861,37.944563,7059.488954400001,-2.82,21.689,359.199,1.0
7.65,128.181861,37.944608,7060.7252232,-2.826,21.809,359.195,1.0
7.6666,128.18186,37.944653,7061.971245600001,-2.833,21.929,359.191,1.0
7.6833,128.181859,37.944697,7063.2273264000005,-2.839,22.048,359.187,1.0
7.7,128.181858,37.944742,7064.493160800001,-2.845,22.168,359.182,1.0
7.7166,128.181857,37.944786,7065.7687488,-2.852,22.288,359.178,1.0
7.7333,128.181856,37.944831,7067.0540904,-2.858,22.408,359.174,1.0
7.75,128.181855,37.944875,7068.3491856,-2.865,22.527,359.169,1.0
7.7666,128.181854,37.94492,7069.6540344,-2.872,22.647,359.165,1.0
7.7833,128.181853,37.944964,7070.9686368,-2.879,22.767,359.161,1.0
7.8,128.181852,37.945009,7072.293297600001,-2.886,22.887,359.156,1.0
7.8166,128.181851,37.945053,7073.6274072,-2.893,23.007,359.151,1.0
7.8333,128.18185,37.945097,7074.971270400001,-2.9,23.127,359.147,1.0
7.85,128.181849,37.945142,7076.3248872,-2.907,23.247,359.142,1.0
7.8666,128.181848,37.945186,7077.6882576,-2.914,23.368,359.137,1.0
7.8833,128.181847,37.94523,7079.0613816000005,-2.922,23.488,359.132,1.0
7.9,128.181846,37.945274,7080.4442592000005,-2.929,23.608,359.127,1.0
7.9166,128.181845,37.945319,7081.8365856,-2.936,23.728,359.122,1.0
7.9333,128.181844,37.945363,7083.238665600001,-2.944,23.848,359.117,1.0
7.95,128.181843,37.945407,7084.6504992,-2.951,23.969,359.112,1.0
7.9666,128.181842,37.945451,7086.0720864,-2.959,24.089,359.107,1.0
7.9833,128.181841,37.945495,7087.5031224,-2.967,24.21,359.102,1.0
8.0,128.18184,37.945539,7088.943912,-2.974,24.33,359.097,1.0
8.0166,128.181839,37.945583,7090.3944552,-2.982,24.45,359.092,1.0
8.0333,128.181838,37.945627,7091.854447200001,-2.99,24.571,359.086,1.0
8.05,128.181837,37.945671,7093.324192800001,-2.998,24.692,359.081,1.0
8.0666,128.181836,37.945715,7094.803692,-3.005,24.812,359.075,1.0
8.0833,128.181835,37.945759,7096.292640000001,-3.013,24.933,359.07,1.0
8.1,128.181834,37.945802,7097.7910368,-3.021,25.054,359.064,1.0
8.1166,128.181832,37.945846,7099.2991872,-3.029,25.174,359.059,1.0
8.1333,128.181831,37.94589,7100.816786400001,-3.037,25.295,359.053,1.0
8.15,128.18183,37.945934,7102.3438344,-3.045,25.416,359.047,1.0
8.1666,128.181829,37.945977,7103.880636,-3.053,25.537,359.042,1.0
8.1833,128.181828,37.946021,7105.4268864000005,-3.061,25.658,359.036,1.0
8.2,128.181827,37.946064,7106.9828904000005,-3.069,25.779,359.03,1.0
8.2166,128.181826,37.946108,7108.5483432,-3.077,25.9,359.024,1.0
8.2333,128.181825,37.946152,7110.1232448,-3.084,26.021,359.018,1.0
8.25,128.181824,37.946195,7111.7075952000005,-3.092,26.142,359.012,1.0
8.2666,128.181823,37.946239,7113.3013944,-3.1,26.263,359.006,1.0
8.2833,128.181821,37.946282,7114.904642400001,-3.108,26.384,359.0,1.0
8.3,128.18182,37.946325,7116.517644,-3.116,26.505,358.993,1.0
8.3166,128.181819,37.946369,7118.1397896,-3.124,26.627,358.987,1.0
8.3333,128.181818,37.946412,7119.7716887999995,-3.132,26.748,358.981,1.0
8.35,128.181817,37.946455,7121.412732000001,-3.14,26.869,358.975,1.0
8.3666,128.181816,37.946498,7123.0635288,-3.148,26.991,358.968,1.0
8.3833,128.181815,37.946542,7124.7234696000005,-3.156,27.112,358.962,1.0
8.4,128.181813,37.946585,7126.3928592,-3.164,27.234,358.955,1.0
8.4166,128.181812,37.946628,7128.071697600001,-3.172,27.355,358.949,1.0
8.4333,128.181811,37.946671,7129.7599848,-3.18,27.477,358.942,1.0
8.45,128.18181,37.946714,7131.457416,-3.188,27.598,358.936,1.0
8.4666,128.181809,37.946757,7133.164600800001,-3.196,27.72,358.929,1.0
8.4833,128.181807,37.9468,7134.8809296,-3.204,27.842,358.922,1.0
8.5,128.181806,37.946843,7136.6067072,-3.211,27.964,358.915,1.0
8.5166,128.181805,37.946886,7138.341628800001,-3.219,28.085,358.909,1.0
8.5333,128.181804,37.946928,7140.0859992000005,-3.227,28.207,358.902,1.0
8.55,128.181803,37.946971,7141.8395136,-3.235,28.329,358.895,1.0
8.5666,128.181801,37.947014,7143.602476800001,-3.242,28.451,358.888,1.0
8.5833,128.1818,37.947057,7145.3748888,-3.25,28.573,358.881,1.0
8.6,128.181799,37.947099,7147.1564448,-3.258,28.695,358.874,1.0
8.6166,128.181798,37.947142,7148.9471448,-3.265,28.817,358.867,1.0
8.6333,128.181796,37.947185,7150.7472935999995,-3.273,28.94,358.859,1.0
8.65,128.181795,37.947227,7152.5565864,-3.28,29.062,358.852,1.0
8.6666,128.181794,37.94727,7154.3750232,-3.288,29.184,358.845,1.0
8.6833,128.181793,37.947312,7156.2029088,-3.295,29.306,358.838,1.0
8.7,128.181791,37.947354,7158.039938400001,-3.303,29.429,358.83,1.0
8.7166,128.18179,37.947397,7159.886112,-3.31,29.551,358.823,1.0
8.7333,128.181789,37.947439,7161.7414296,-3.318,29.674,358.816,1.0
8.75,128.181788,37.947481,7163.605891200001,-3.325,29.796,358.808,1.0
8.7666,128.181786,37.947524,7165.4798016,-3.332,29.919,358.801,1.0
8.7833,128.181785,37.947566,7167.362551200001,-3.339,30.041,358.793,1.0
8.8,128.181784,37.947608,7169.254749600001,-3.347,30.164,358.786,1.0
8.8166,128.181782,37.94765,7171.1557872,-3.354,30.287,358.778,1.0
8.8333,128.181781,37.947692,7173.0659688000005,-3.361,30.41,358.77,1.0
8.85,128.18178,37.947734,7174.9855992,-3.368,30.532,358.763,1.0
8.8666,128.181779,37.947776,7176.914068800001,-3.375,30.655,358.755,1.0
8.8833,128.181777,37.947818,7178.851377600001,-3.382,30.778,358.747,1.0
8.9,128.181776,37.94786,7180.7981352,-3.389,30.901,358.739,1.0
8.9166,128.181775,37.947902,7182.753732,-3.395,31.024,358.731,1.0
8.9333,128.181773,37.947944,7184.7187776,-3.402,31.148,358.723,1.0
8.95,128.181772,37.947985,7186.6923576,-3.409,31.271,358.715,1.0
8.9666,128.181771,37.948027,7188.6753864,-3.416,31.394,358.707,1.0
8.9833,128.181769,37.948069,7190.6672544,-3.422,31.517,358.699,1.0
9.0,128.181768,37.94811,7192.6679616,-3.429,31.641,358.691,1.0
9.0166,128.181766,37.948152,7194.6778128000005,-3.435,31.764,358.683,1.0
9.0333,128.181765,37.948193,7196.6965032,-3.442,31.887,358.675,1.0
9.05,128.181764,37.948235,7198.724337600001,-3.448,32.011,358.667,1.0
9.0666,128.181762,37.948276,7200.761011200001,-3.455,32.134,358.659,1.0
9.0833,128.181761,37.948318,7202.8068288,-3.461,32.258,358.65,1.0
9.1,128.18176,37.948359,7204.8614856,-3.467,32.382,358.642,1.0
9.1166,128.181758,37.9484,7206.9249816,-3.474,32.505,358.634,1.0
9.1333,128.181757,37.948442,7208.9973168,-3.48,32.629,358.625,1.0
9.15,128.181755,37.948483,7211.078491200001,-3.486,32.753,358.617,1.0
9.1666,128.181754,37.948524,7213.168809600001,-3.492,32.877,358.608,1.0
9.1833,128.181753,37.948565,7215.2679672,-3.498,33.001,358.6,1.0
9.2,128.181751,37.948606,7217.3756592,-3.504,33.125,358.591,1.0
9.2166,128.18175,37.948647,7219.4924952,-3.51,33.249,358.583,1.0
9.2333,128.181748,37.948688,7221.618170400001,-3.515,33.373,358.574,1.0
9.25,128.181747,37.948729,7223.75238,-3.521,33.497,358.566,1.0
9.2666,128.181745,37.94877,7225.895733600001,-3.527,33.622,358.557,1.0
9.2833,128.181744,37.948811,7228.0476216,-3.532,33.746,358.548,1.0
9.3,128.181742,37.948851,7230.2083488,-3.538,33.87,358.539,1.0
9.3166,128.181741,37.948892,7232.377915200001,-3.543,33.995,358.531,1.0
9.3333,128.181739,37.948933,7234.5560159999995,-3.549,34.119,358.522,1.0
9.35,128.181738,37.948973,7236.742956000001,-3.554,34.244,358.513,1.0
9.3666,128.181737,37.949014,7238.9387352,-3.56,34.369,358.504,1.0
9.3833,128.181735,37.949054,7241.1433536,-3.565,34.493,358.495,1.0
9.4,128.181734,37.949095,7243.3565064,-3.57,34.618,358.486,1.0
9.4166,128.181732,37.949135,7245.5781936,-3.575,34.743,358.477,1.0
9.4333,128.181731,37.949175,7247.808720000001,-3.58,34.868,358.468,1.0
9.45,128.181729,37.949216,7250.0477808000005,-3.585,34.993,358.459,1.0
9.4666,128.181728,37.949256,7252.2956808,-3.59,35.118,358.45,1.0
9.4833,128.181726,37.949296,7254.552115200001,-3.595,35.243,358.441,1.0
9.5,128.181724,37.949336,7256.817084000001,-3.6,35.368,358.432,1.0
9.5166,128.181723,37.949376,7259.0905872,-3.605,35.493,358.422,1.0
9.5333,128.181721,37.949416,7261.3729296,-3.61,35.619,358.413,1.0
9.55,128.18172,37.949456,7263.663806400001,-3.615,35.744,358.404,1.0
9.5666,128.181718,37.949496,7265.962912800001,-3.619,35.869,358.394,1.0
9.5833,128.181717,37.949536,7268.2708584,-3.624,35.995,358.385,1.0
9.6,128.181715,37.949576,7270.587338400001,-3.628,36.12,358.376,1.0
9.6166,128.181714,37.949616,7272.9123528,-3.633,36.246,358.366,1.0
9.6333,128.181712,37.949655,7275.245901600001,-3.637,36.372,358.357,1.0
9.65,128.181711,37.949695,7277.58768,-3.641,36.498,358.347,1.0
9.6666,128.181709,37.949735,7279.938297600001,-3.646,36.623,358.338,1.0
9.6833,128.181707,37.949774,7282.2971448,-3.65,36.749,358.328,1.0
9.7,128.181706,37.949814,7284.6645264,-3.654,36.875,358.319,1.0
9.7166,128.181704,37.949853,7287.040137600001,-3.658,37.001,358.309,1.0
9.7333,128.181703,37.949893,7289.424588000001,-3.662,37.127,358.299,1.0
9.75,128.181701,37.949932,7291.8169632,-3.666,37.254,358.29,1.0
9.7666,128.181699,37.949971,7294.218177600001,-3.67,37.38,358.28,1.0
9.7833,128.181698,37.95001,7296.6276216,-3.674,37.506,358.27,1.0
9.8,128.181696,37.95005,7299.0452952000005,-3.678,37.633,358.261,1.0
9.8166,128.181694,37.950089,7301.4715032,-3.682,37.759,358.251,1.0
9.8333,128.181693,37.950128,7303.9059408,-3.686,37.886,358.241,1.0
9.85,128.181691,37.950167,7306.348608,-3.689,38.012,358.231,1.0
9.8666,128.18169,37.950206,7308.7998096,-3.693,38.139,358.221,1.0
9.8833,128.181688,37.950245,7311.2592408,-3.696,38.266,358.211,1.0
9.9,128.181686,37.950283,7313.726901600001,-3.7,38.392,358.201,1.0
9.9166,128.181685,37.950322,7316.202792000001,-3.703,38.519,358.191,1.0
9.9333,128.181683,37.950361,7318.686912,-3.707,38.646,358.181,1.0
9.95,128.181681,37.9504,7321.1792616,-3.71,38.773,358.171,1.0
9.9666,128.18168,37.950438,7323.6798408,-3.714,38.9,358.161,1.0
9.9833,128.181678,37.950477,7326.1889544000005,-3.717,39.028,358.151,1.0
10.0,128.181676,37.950515,7328.705992800001,-3.72,39.155,358.141,1.0
10.0166,128.181675,37.950554,7331.230956,-3.723,39.282,358.131,1.0
10.0333,128.181673,37.950592,7333.7644536,-3.726,39.41,358.121,1.0
10.05,128.181671,37.95063,7336.305876,-3.729,39.537,358.11,1.0
10.0666,128.181669,37.950669,7338.855528000001,-3.732,39.665,358.1,1.0
10.0833,128.181668,37.950707,7341.413409600001,-3.735,39.792,358.09,1.0
10.1,128.181666,37.950745,7343.979216,-3.738,39.92,358.079,1.0
10.1166,128.181664,37.950783,7346.553252000001,-3.741,40.048,358.069,1.0
10.1333,128.181663,37.950821,7349.1352128,-3.744,40.176,358.059,1.0
10.15,128.181661,37.950859,7351.7254032,-3.747,40.304,358.048,1.0
10.1666,128.181659,37.950897,7354.3235184000005,-3.749,40.432,358.038,1.0
10.1833,128.181657,37.950935,7356.9295584,-3.752,40.56,358.027,1.0
10.2,128.181656,37.950972,7359.543828000001,-3.755,40.688,358.017,1.0
10.2166,128.181654,37.95101,7362.166022400001,-3.757,40.816,358.006,1.0
10.2333,128.181652,37.951048,7364.796141600001,-3.76,40.945,357.996,1.0
10.25,128.18165,37.951085,7367.4341856,-3.762,41.073,357.985,1.0
10.2666,128.181649,37.951123,7370.0801544000005,-3.765,41.201,357.974,1.0
10.2833,128.181647,37.95116,7372.734048,-3.767,41.33,357.964,1.0
10.3,128.181645,37.951198,7375.3961712,-3.769,41.458,357.953,1.0
10.3166,128.181643,37.951235,7378.0659144,-3.772,41.587,357.942,1.0
10.3333,128.181642,37.951272,7380.7435824,-3.774,41.715,357.932,1.0
10.35,128.18164,37.95131,7383.4291752,-3.776,41.844,357.921,1.0
10.3666,128.181638,37.951347,7386.122388000001,-3.778,41.973,357.91,1.0
10.3833,128.181636,37.951384,7388.8235256,-3.78,42.101,357.899,1.0
10.4,128.181634,37.951421,7391.532588000001,-3.782,42.23,357.889,1.0
10.4166,128.181633,37.951458,7394.2495751999995,-3.784,42.359,357.878,1.0
10.4333,128.181631,37.951495,7396.9741824,-3.786,42.488,357.867,1.0
10.45,128.181629,37.951532,7399.7064096,-3.788,42.617,357.856,1.0
10.4666,128.181627,37.951568,7402.4465616,-3.79,42.746,357.845,1.0
10.4833,128.181625,37.951605,7405.1943336,-3.792,42.875,357.834,1.0
10.5,128.181623,37.951642,7407.9500304,-3.794,43.004,357.823,1.0
10.5166,128.181622,37.951678,7410.7133472000005,-3.796,43.134,357.812,1.0
10.5333,128.18162,37.951715,7413.484284000001,-3.798,43.263,357.801,1.0
10.55,128.181618,37.951751,7416.2628408,-3.799,43.392,357.79,1.0
10.5666,128.181616,37.951788,7419.0490176,-3.801,43.522,357.779,1.0
10.5833,128.181614,37.951824,7421.843119200001,-3.803,43.651,357.768,1.0
10.6,128.181612,37.951861,7424.644536000001,-3.804,43.781,357.756,1.0
10.6166,128.18161,37.951897,7427.4535728,-3.806,43.911,357.745,1.0
10.6333,128.181609,37.951933,7430.2702296,-3.807,44.041,357.734,1.0
10.65,128.181607,37.951969,7433.094506400001,-3.809,44.17,357.723,1.0
10.6666,128.181605,37.952005,7435.9264032,-3.81,44.3,357.711,1.0
10.6833,128.181603,37.952041,7438.765615200001,-3.812,44.43,357.7,1.0
10.7,128.181601,37.952077,7441.612447200001,-3.813,44.561,357.689,1.0
10.7166,128.181599,37.952113,7444.466899200001,-3.814,44.691,357.677,1.0
10.7333,128.181597,37.952148,7447.3286664,-3.816,44.821,357.666,1.0
10.75,128.181595,37.952184,7450.1977488,-3.817,44.951,357.655,1.0
10.7666,128.181594,37.95222,7453.074451200001,-3.818,45.082,357.643,1.0
10.7833,128.181592,37.952255,7455.9587736,-3.82,45.213,357.632,1.0
10.8,128.18159,37.952291,7458.850106400001,-3.821,45.343,357.62,1.0
10.8166,128.181588,37.952326,7461.7490592,-3.822,45.474,357.608,1.0
10.8333,128.181586,37.952362,7464.6553272,-3.823,45.605,357.597,1.0
10.85,128.181584,37.952397,7467.5689104,-3.824,45.736,357.585,1.0
10.8666,128.181582,37.952432,7470.4898088,-3.826,45.867,357.574,1.0
10.8833,128.18158,37.952467,7473.4183272,-3.827,45.998,357.562,1.0
10.9,128.181578,37.952502,7476.353856000001,-3.828,46.129,357.55,1.0
10.9166,128.181576,37.952537,7479.296700000001,-3.829,46.26,357.538,1.0
10.9333,128.181574,37.952572,7482.2468592000005,-3.83,46.392,357.527,1.0
10.95,128.181572,37.952607,7485.204028800001,-3.831,46.523,357.515,1.0
10.9666,128.18157,37.952642,7488.1688184,-3.832,46.655,357.503,1.0
10.9833,128.181568,37.952677,7491.140618400001,-3.833,46.786,357.491,1.0
11.0,128.181566,37.952711,7494.119428800001,-3.833,46.918,357.479,1.0
11.0166,128.181564,37.952746,7497.1055544,-3.834,47.05,357.467,1.0
11.0333,128.181562,37.952781,7500.0989952,-3.835,47.182,357.455,1.0
11.05,128.181561,37.952815,7503.0994464000005,-3.836,47.314,357.443,1.0
11.0666,128.181559,37.952849,7506.106908,-3.837,47.446,357.431,1.0
11.0833,128.181557,37.952884,7509.1216848,-3.838,47.578,357.419,1.0
11.1,128.181555,37.952918,7512.1431672,-3.838,47.711,357.407,1.0
11.1166,128.181553,37.952952,7515.171964800001,-3.839,47.843,357.395,1.0
11.1333,128.181551,37.952986,7518.2077728,-3.84,47.975,357.383,1.0
11.15,128.181549,37.95302,7521.2508960000005,-3.841,48.108,357.371,1.0
11.1666,128.181547,37.953054,7524.300724800001,-3.841,48.241,357.359,1.0
11.1833,128.181545,37.953088,7527.357564000001,-3.842,48.374,357.346,1.0
11.2,128.181543,37.953122,7530.4214136,-3.843,48.507,357.334,1.0
11.2166,128.181541,37.953156,7533.491968800001,-3.843,48.64,357.322,1.0
11.2333,128.181539,37.95319,7536.5698392,-3.844,48.773,357.309,1.0
11.25,128.181537,37.953223,7539.654415200001,-3.844,48.906,357.297,1.0
11.2666,128.181534,37.953257,7542.7460016,-3.845,49.039,357.284,1.0
11.2833,128.181532,37.95329,7545.8442936,-3.845,49.173,357.272,1.0
11.3,128.18153,37.953324,7548.949596,-3.846,49.306,357.26,1.0
11.3166,128.181528,37.953357,7552.061604,-3.846,49.44,357.247,1.0
11.3333,128.181526,37.95339,7555.1806224,-3.847,49.574,357.234,1.0
11.35,128.181524,37.953423,7558.306346400001,-3.847,49.708,357.222,1.0
11.3666,128.181522,37.953457,7561.438776,-3.848,49.842,357.209,1.0
11.3833,128.18152,37.95349,7564.577911200001,-3.848,49.976,357.196,1.0
11.4,128.181518,37.953523,7567.724056800001,-3.849,50.11,357.184,1.0
11.4166,128.181516,37.953555,7570.8766032,-3.849,50.244,357.171,1.0
11.4333,128.181514,37.953588,7574.036160000001,-3.85,50.379,357.158,1.0
11.45,128.181512,37.953621,7577.2021176,-3.85,50.513,357.145,1.0
11.4666,128.18151,37.953654,7580.3747808,-3.85,50.648,357.133,1.0
11.4833,128.181508,37.953686,7583.5541496000005,-3.851,50.782,357.12,1.0
11.5,128.181506,37.953719,7586.740224000001,-3.851,50.917,357.107,1.0
11.5166,128.181504,37.953751,7589.933004,-3.851,51.052,357.094,1.0
11.5333,128.181502,37.953784,7593.1321848,-3.852,51.187,357.081,1.0
11.55,128.1815,37.953816,7596.3380712,-3.852,51.323,357.068,1.0
11.5666,128.181497,37.953848,7599.5503584,-3.852,51.458,357.055,1.0
11.5833,128.181495,37.95388,7602.769046400001,-3.853,51.593,357.041,1.0
11.6,128.181493,37.953913,7605.99444,-3.853,51.729,357.028,1.0
11.6166,128.181491,37.953945,7609.2262344,-3.853,51.864,357.015,1.0
11.6333,128.181489,37.953976,7612.4647343999995,-3.853,52.0,357.002,1.0
11.65,128.181487,37.954008,7615.7096352,-3.854,52.136,356.989,1.0
11.6666,128.181485,37.95404,7618.960632,-3.854,52.272,356.975,1.0
11.6833,128.181483,37.954072,7622.2183344,-3.854,52.408,356.962,1.0
11.7,128.181481,37.954103,7625.482437600001,-3.854,52.544,356.948,1.0
11.7166,128.181479,37.954135,7628.752636800001,-3.855,52.681,356.935,1.0
11.7333,128.181476,37.954167,7632.029541600001,-3.855,52.817,356.922,1.0
11.75,128.181474,37.954198,7635.312542400001,-3.855,52.954,356.908,1.0
11.7666,128.181472,37.954229,7638.601944,-3.855,53.091,356.894,1.0
11.7833,128.18147,37.954261,7641.897746400001,-3.855,53.228,356.881,1.0
11.8,128.181468,37.954292,7645.1996448,-3.856,53.365,356.867,1.0
11.8166,128.181466,37.954323,7648.5076392,-3.856,53.502,356.853,1.0
11.8333,128.181464,37.954354,7651.8223392,-3.856,53.639,356.84,1.0
11.85,128.181462,37.954385,7655.1428304,-3.856,53.776,356.826,1.0
11.8666,128.181459,37.954416,7658.4697224,-3.856,53.914,356.812,1.0
11.8833,128.181457,37.954446,7661.8027104,-3.856,54.051,356.798,1.0
11.9,128.181455,37.954477,7665.1417944,-3.856,54.189,356.784,1.0
11.9166,128.181453,37.954508,7668.486974400001,-3.857,54.327,356.77,1.0
11.9333,128.181451,37.954538,7671.838555200001,-3.857,54.465,356.756,1.0
11.95,128.181449,37.954569,7675.1959272,-3.857,54.603,356.742,1.0
11.9666,128.181447,37.954599,7678.5593952,-3.857,54.741,356.728,1.0
11.9833,128.181444,37.95463,7681.9289592000005,-3.857,54.88,356.714,1.0
12.0,128.181442,37.95466,7685.304619200001,-3.857,55.018,356.7,1.0
12.0166,128.18144,37.95469,7688.6863752,-3.857,55.157,356.685,1.0
12.0333,128.181438,37.95472,7692.0739224,-3.857,55.296,356.671,1.0
12.05,128.181436,37.95475,7695.467565600001,-3.857,55.434,356.657,1.0
12.0666,128.181434,37.95478,7698.867,-3.858,55.573,356.642,1.0
12.0833,128.181432,37.95481,7702.2725304,-3.858,55.713,356.628,1.0
12.1,128.181429,37.95484,7705.683852000001,-3.858,55.852,356.613,1.0
12.1166,128.181427,37.954869,7709.100964800001,-3.858,55.992,356.599,1.0
12.1333,128.181425,37.954899,7712.524173600001,-3.858,56.132,356.584,1.0
12.15,128.181423,37.954928,7715.953173600001,-3.858,56.272,356.569,1.0
12.1666,128.181421,37.954958,7719.387964800001,-3.858,56.412,356.555,1.0
12.1833,128.181419,37.954987,7722.828547200001,-3.858,56.553,356.54,1.0
12.2,128.181416,37.955017,7726.274616,-3.858,56.694,356.525,1.0
12.2166,128.181414,37.955046,7729.7267808,-3.858,56.835,356.51,1.0
12.2333,128.181412,37.955075,7733.184736800001,-3.858,56.977,356.495,1.0
12.25,128.18141,37.955104,7736.6481792,-3.858,57.119,356.48,1.0
12.2666,128.181408,37.955133,7740.1174128,-3.858,57.261,356.464,1.0
12.2833,128.181405,37.955162,7743.5921328,-3.858,57.403,356.449,1.0
12.3,128.181403,37.955191,7747.072644,-3.858,57.546,356.434,1.0
12.3166,128.181401,37.955219,7750.5589464,-3.858,57.689,356.418,1.0
12.3333,128.181399,37.955248,7754.0507352,-3.858,57.832,356.403,1.0
12.35,128.181397,37.955277,7757.548010400001,-3.858,57.976,356.387,1.0
12.3666,128.181394,37.955305,7761.0510768,-3.858,58.12,356.372,1.0
12.3833,128.181392,37.955333,7764.5593248000005,-3.857,58.264,356.356,1.0
12.4,128.18139,37.955362,7768.073364000001,-3.857,58.408,356.34,1.0
12.4166,128.181388,37.95539,7771.5928896000005,-3.857,58.553,356.324,1.0
12.4333,128.181386,37.955418,7775.117901600001,-3.857,58.698,356.309,1.0
12.45,128.181383,37.955446,7778.6484,-3.856,58.843,356.293,1.0
12.4666,128.181381,37.955474,7782.18408,-3.856,58.988,356.276,1.0
12.4833,128.181379,37.955502,7785.725551200001,-3.856,59.134,356.26,1.0
12.5,128.181377,37.95553,7789.272204,-3.855,59.28,356.244,1.0
12.5166,128.181375,37.955558,7792.824038400001,-3.855,59.426,356.228,1.0
12.5333,128.181372,37.955585,7796.3816640000005,-3.855,59.573,356.211,1.0
12.55,128.18137,37.955613,7799.9441664,-3.854,59.719,356.195,1.0
12.5666,128.181368,37.95564,7803.512155200001,-3.854,59.866,356.179,1.0
12.5833,128.181366,37.955668,7807.0856304,-3.853,60.014,356.162,1.0
12.6,128.181364,37.955695,7810.6642872,-3.852,60.161,356.145,1.0
12.6166,128.181361,37.955722,7814.246296800001,-3.851,60.309,356.129,1.0
12.6333,128.181359,37.955749,7817.8359264,-3.927,60.457,356.089,1.0
12.65,128.181357,37.955776,7821.430432800001,-4.079,60.604,356.026,1.0
12.6666,128.181355,37.955803,7825.0310352,-4.304,60.751,355.946,1.0
12.6833,128.181353,37.95583,7828.637428800001,-4.596,60.898,355.851,1.0
12.7,128.18135,37.955857,7832.249918400001,-4.949,61.045,355.747,1.0
12.7166,128.181348,37.955883,7835.8688088,-5.358,61.192,355.636,1.0
12.7333,128.181346,37.95591,7839.4937952,-5.814,61.339,355.519,1.0
12.75,128.181344,37.955936,7843.1245728,-6.314,61.487,355.399,1.0
12.7666,128.181342,37.955963,7846.761141600001,-6.85,61.636,355.275,1.0
12.7833,128.181339,37.955989,7850.403196800001,-7.418,61.785,355.149,1.0
12.8,128.181337,37.956015,7854.0510432,-8.011,61.934,355.021,1.0
12.8166,128.181335,37.956041,7857.7037664,-8.625,62.085,354.891,1.0
12.8333,128.181333,37.956067,7861.361976,-9.256,62.235,354.758,1.0
12.85,128.18133,37.956093,7865.0253672,-9.898,62.387,354.622,1.0
12.8666,128.181328,37.956118,7868.6936352,-10.549,62.539,354.483,1.0
12.8833,128.181326,37.956144,7872.36678,-11.204,62.691,354.341,1.0
12.9,128.181323,37.95617,7876.044801600001,-11.862,62.843,354.196,1.0
12.9166,128.181321,37.956195,7879.7273952000005,-12.519,62.996,354.046,1.0
12.9333,128.181319,37.956221,7883.414865600001,-13.172,63.148,353.892,1.0
12.95,128.181316,37.956246,7887.1066032,-13.822,63.3,353.733,1.0
12.9666,128.181314,37.956271,7890.803217600001,-14.464,63.452,353.569,1.0
12.9833,128.181312,37.956296,7894.5037944000005,-15.099,63.603,353.4,1.0
13.0,128.181309,37.956321,7898.209248,-15.726,63.754,353.225,1.0
13.0166,128.181307,37.956346,7901.918664000001,-16.343,63.904,353.045,1.0
13.0333,128.181304,37.956371,7905.632652000001,-16.95,64.054,352.859,1.0
13.0499,128.181302,37.956396,7909.3506024,-17.548,64.202,352.667,1.0
13.0666,128.181299,37.956421,7913.072820000001,-18.135,64.35,352.469,1.0
13.0833,128.181297,37.956445,7916.799304800001,-18.711,64.497,352.266,1.0
13.1,128.181294,37.95647,7920.529752000001,-19.278,64.643,352.056,1.0
13.1166,128.181292,37.956494,7924.2644664,-19.835,64.788,351.84,1.0
13.1333,128.181289,37.956519,7928.0031432,-20.382,64.931,351.619,1.0
13.15,128.181286,37.956543,7931.746087200001,-20.919,65.074,351.391,1.0
13.1666,128.181284,37.956567,7935.4926888,-21.448,65.215,351.159,1.0
13.1833,128.181281,37.956591,7939.2432528,-21.968,65.355,350.921,1.0
13.2,128.181278,37.956615,7942.998084000001,-22.479,65.493,350.678,1.0
13.2166,128.181276,37.956639,7946.756572800001,-22.983,65.631,350.43,1.0
13.2333,128.181273,37.956663,7950.519024000001,-23.479,65.767,350.177,1.0
13.25,128.18127,37.956687,7954.2854376000005,-23.969,65.902,349.92,1.0
13.2666,128.181267,37.95671,7958.0555088,-24.451,66.036,349.659,1.0
13.2833,128.181264,37.956734,7961.829542400001,-24.928,66.168,349.393,1.0
13.3,128.181261,37.956758,7965.607233600001,-25.4,66.3,349.122,1.0
13.3166,128.181258,37.956781,7969.388582400001,-25.866,66.43,348.848,1.0
13.3333,128.181255,37.956804,7973.1738936,-26.327,66.559,348.57,1.0
13.35,128.181252,37.956828,7976.9628624,-26.784,66.687,348.287,1.0
13.3666,128.181249,37.956851,7980.7554887999995,-27.236,66.815,348.001,1.0
13.3833,128.181246,37.956874,7984.551468000001,-27.686,66.941,347.711,1.0
13.4,128.181243,37.956897,7988.351409600001,-28.132,67.066,347.417,1.0
13.4166,128.18124,37.95692,7992.1547040000005,-28.575,67.19,347.119,1.0
13.4333,128.181237,37.956942,7995.961656,-29.015,67.313,346.818,1.0
13.45,128.181234,37.956965,7999.771960800001,-29.453,67.435,346.513,1.0
13.4666,128.18123,37.956988,8003.5859232,-29.889,67.556,346.205,1.0
13.4833,128.181227,37.95701,8007.403238400001,-30.323,67.676,345.892,1.0
13.5,128.181224,37.957033,8011.224211200001,-30.756,67.796,345.577,1.0
13.5166,128.18122,37.957055,8015.048536800001,-31.188,67.914,345.257,1.0
13.5333,128.181217,37.957077,8018.875910400001,-31.619,68.032,344.935,1.0
13.55,128.181213,37.9571,8022.7069416,-32.049,68.148,344.608,1.0
13.5666,128.18121,37.957122,8026.5413256,-32.478,68.264,344.279,1.0
13.5833,128.181206,37.957144,8030.3787576,-32.907,68.379,343.945,1.0
13.6,128.181203,37.957166,8034.219542400001,-33.337,68.494,343.609,1.0
13.6166,128.181199,37.957187,8038.06368,-33.766,68.607,343.268,1.0
13.6333,128.181196,37.957209,8041.910865600001,-34.196,68.72,342.924,1.0
13.65,128.181192,37.957231,8045.7610992,-34.626,68.832,342.577,1.0
13.6666,128.181188,37.957252,8049.6146856000005,-35.056,68.943,342.226,1.0
13.6833,128.181184,37.957274,8053.471320000001,-35.488,69.053,341.872,1.0
13.7,128.18118,37.957295,8057.3310024,-35.921,69.163,341.514,1.0
13.7166,128.181177,37.957316,8061.1937328,-36.354,69.271,341.152,1.0
13.7333,128.181173,37.957338,8065.059511200001,-36.789,69.379,340.786,1.0
13.75,128.181169,37.957359,8068.9283376,-37.226,69.486,340.417,1.0
13.7666,128.181165,37.95738,8072.7999072,-37.664,69.593,340.045,1.0
13.7833,128.181161,37.957401,8076.674524800001,-38.103,69.699,339.668,1.0
13.8,128.181157,37.957422,8080.5518856,-38.545,69.804,339.288,1.0
13.8166,128.181152,37.957442,8084.4322944000005,-38.988,69.908,338.904,1.0
13.8333,128.181148,37.957463,8088.315446400001,-39.434,70.011,338.516,1.0
13.85,128.181144,37.957483,8092.201341600001,-39.882,70.114,338.125,1.0
13.8666,128.18114,37.957504,8096.08998,-40.332,70.215,337.729,1.0
13.8833,128.181135,37.957524,8099.9813616,-40.784,70.316,337.329,1.0
13.9,128.181131,37.957545,8103.8754864,-41.239,70.417,336.926,1.0
13.9166,128.181127,37.957565,8107.7723544,-41.696,70.516,336.518,1.0
13.9333,128.181122,37.957585,8111.671660800001,-42.156,70.615,336.107,1.0
13.95,128.181118,37.957605,8115.573710400001,-42.619,70.712,335.691,1.0
13.9666,128.181113,37.957625,8119.4781984,-43.084,70.809,335.272,1.0
13.9833,128.181108,37.957644,8123.3854296,-43.553,70.905,334.848,1.0
14.0,128.181104,37.957664,8127.295099200001,-44.025,71.001,334.42,1.0
14.0166,128.181099,37.957684,8131.2072072,-44.499,71.095,333.987,1.0
14.0333,128.181094,37.957703,8135.1217536,-44.977,71.188,333.551,1.0
14.05,128.18109,37.957723,8139.038433600001,-45.458,71.281,333.11,1.0
14.0666,128.181085,37.957742,8142.957856800001,-45.942,71.373,332.664,1.0
14.0833,128.18108,37.957761,8146.879413600001,-46.43,71.464,332.215,1.0
14.1,128.181075,37.957781,8150.8034088,-46.921,71.553,331.761,1.0
14.1166,128.18107,37.9578,8154.729537600001,-47.416,71.642,331.302,1.0
14.1333,128.181065,37.957819,8158.658104800001,-47.914,71.73,330.839,1.0
14.15,128.18106,37.957837,8162.5888056,-48.416,71.817,330.372,1.0
14.1666,128.181055,37.957856,8166.5213352,-48.921,71.903,329.899,1.0
14.1833,128.18105,37.957875,8170.456608,-49.431,71.988,329.423,1.0
14.2,128.181044,37.957893,8174.3934048,-49.944,72.072,328.942,1.0
14.2166,128.181039,37.957912,8178.3326400000005,-50.46,72.155,328.456,1.0
14.2333,128.181034,37.95793,8182.2740088,-50.981,72.237,327.965,1.0
14.25,128.181028,37.957949,8186.217206400001,-51.506,72.318,327.47,1.0
14.2666,128.181023,37.957967,8190.1622328,-52.034,72.398,326.97,1.0
14.2833,128.181017,37.957985,8194.109392800001,-52.567,72.477,326.466,1.0
14.3,128.181012,37.958003,8198.0583816,-53.103,72.554,325.956,1.0
14.3166,128.181006,37.958021,8202.009504,-53.644,72.631,325.442,1.0
14.3333,128.181001,37.958039,8205.9621504,-54.188,72.706,324.924,1.0
14.35,128.180995,37.958056,8209.9166256,-54.737,72.78,324.4,1.0
14.3666,128.180989,37.958074,8213.8732344,-55.29,72.853,323.872,1.0
14.3833,128.180984,37.958092,8217.8310624,-55.847,72.925,323.339,1.0
14.4,128.180978,37.958109,8221.791024,-56.408,72.995,322.801,1.0
14.4166,128.180972,37.958126,8225.7525096,-56.973,73.064,322.259,1.0
14.4333,128.180966,37.958144,8229.715519200001,-57.543,73.132,321.711,1.0
14.45,128.18096,37.958161,8233.6803576,-58.116,73.199,321.159,1.0
14.4666,128.180954,37.958178,8237.64672,-58.694,73.264,320.602,1.0
14.4833,128.180948,37.958195,8241.6146064,-59.276,73.328,320.041,1.0
14.5,128.180942,37.958212,8245.5840168,-59.862,73.39,319.475,1.0
14.5166,128.180936,37.958228,8249.554951200002,-60.452,73.452,318.904,1.0
14.5333,128.180929,37.958245,8253.527104800001,-61.047,73.511,318.329,1.0
14.55,128.180923,37.958262,8257.5007824,-61.645,73.57,317.748,1.0
14.5666,128.180917,37.958278,8261.475984,-62.248,73.626,317.164,1.0
14.5833,128.18091,37.958295,8265.4524048,-62.854,73.682,316.575,1.0
14.6,128.180904,37.958311,8269.4300448,-63.465,73.736,315.981,1.0
14.6166,128.180897,37.958327,8273.408904,-64.079,73.788,315.383,1.0
14.6333,128.180891,37.958343,8277.389287200001,-64.698,73.839,314.781,1.0
14.65,128.180884,37.958359,8281.3708896,-65.32,73.888,314.174,1.0
14.6666,128.180878,37.958375,8285.353406400001,-65.947,73.936,313.563,1.0
14.6833,128.180871,37.958391,8289.337142400002,-66.577,73.982,312.947,1.0
14.7,128.180864,37.958407,8293.322097600001,-67.21,74.026,312.328,1.0
14.7166,128.180857,37.958422,8297.3079672,-67.848,74.069,311.705,1.0
14.7333,128.180851,37.958438,8301.294751200001,-68.489,74.11,311.077,1.0
14.75,128.180844,37.958453,8305.282754400001,-69.133,74.149,310.446,1.0
14.7666,128.180837,37.958468,8309.271672,-69.781,74.187,309.811,1.0
14.7833,128.18083,37.958484,8313.261504,-70.433,74.223,309.173,1.0
14.8,128.180823,37.958499,8317.2522504,-71.087,74.257,308.53,1.0
14.8166,128.180816,37.958514,8321.243911200001,-71.745,74.289,307.885,1.0
