Time,Longitude,Latitude,Altitude,Roll (deg),Pitch (deg),Yaw (deg),Health
0.0,128.181881,37.923646,7000.146528,0.0,-0.003,0.0,1.0
0.0166,128.181881,37.923691,7000.1605488000005,0.0,-0.012,0.0,1.0
0.0333,128.181881,37.923736,7000.173960000001,0.0,-0.025,0.0,1.0
0.05,128.181881,37.923781,7000.186152000001,0.0,-0.04,359.999,1.0
0.0666,128.181881,37.923826,7000.1977344,0.0,-0.055,359.999,1.0
0.0833,128.181881,37.923871,7000.2084024,0.0,-0.071,0.0,1.0
0.1,128.181881,37.923916,7000.218156000001,0.0,-0.087,0.0,1.0
0.1166,128.181881,37.923961,7000.226995200001,0.0,-0.101,0.0,1.0
0.1333,128.181881,37.924006,7000.234920000001,0.002,-0.114,0.0,1.0
0.15,128.181881,37.924051,7000.2419304000005,0.004,-0.125,0.001,1.0
0.1666,128.181881,37.924096,7000.2480264000005,0.008,-0.135,0.002,1.0
0.1833,128.181881,37.924141,7000.253208,0.014,-0.143,0.003,1.0
0.2,128.181881,37.924186,7000.2574752,0.022,-0.15,0.004,1.0
0.2166,128.181881,37.924231,7000.260828,0.032,-0.155,0.006,1.0
0.2333,128.181881,37.924276,7000.2632664,0.045,-0.158,0.008,1.0
0.25,128.181881,37.924321,7000.2647904000005,0.061,-0.161,0.01,1.0
0.2666,128.181881,37.924366,7000.2654,0.078,-0.162,0.012,1.0
0.2833,128.181881,37.924411,7000.2654,0.098,-0.163,0.014,1.0
0.3,128.181881,37.924456,7000.2641808,0.12,-0.163,0.016,1.0
0.3166,128.181881,37.924501,7000.262352000001,0.143,-0.162,0.019,1.0
0.3333,128.181881,37.924546,7000.2596088,0.167,-0.16,0.021,1.0
0.35,128.181881,37.924591,7000.256256000001,0.193,-0.159,0.023,1.0
0.3666,128.181881,37.924636,7000.2519888,0.219,-0.157,0.025,1.0
0.3833,128.181881,37.924682,7000.247112,0.245,-0.154,0.027,1.0
0.4,128.181881,37.924727,7000.2413208,0.271,-0.152,0.03,1.0
0.4166,128.181881,37.924772,7000.235224800001,0.297,-0.149,0.032,1.0
0.4333,128.181881,37.924817,7000.228214400001,0.322,-0.147,0.034,1.0
0.45,128.181881,37.924862,7000.2205944,0.347,-0.144,0.036,1.0
0.4666,128.181881,37.924907,7000.212060000001,0.371,-0.141,0.038,1.0
0.4833,128.181881,37.924953,7000.2032208,0.393,-0.138,0.04,1.0
0.5,128.181881,37.924998,7000.1937720000005,0.414,-0.135,0.041,1.0
0.5166,128.181881,37.925043,7000.1840184,0.434,-0.132,0.043,1.0
0.5333,128.181881,37.925088,7000.1733504,0.453,-0.129,0.045,1.0
0.55,128.181881,37.925133,7000.162072800001,0.47,-0.126,0.046,1.0
0.5666,128.181881,37.925179,7000.1504904,0.487,-0.124,0.048,1.0
0.5833,128.181881,37.925224,7000.1379936,0.504,-0.121,0.05,1.0
0.6,128.181881,37.925269,7000.125192,0.521,-0.12,0.052,1.0
0.6166,128.181881,37.925314,7000.111476,0.541,-0.119,0.054,1.0
0.6333,128.181881,37.92536,7000.097150400001,0.564,-0.12,0.056,1.0
0.65,128.181881,37.925405,7000.081910400001,0.592,-0.121,0.059,1.0
0.6666,128.181881,37.92545,7000.065451200001,0.629,-0.124,0.063,1.0
0.6833,128.181881,37.925495,7000.0483824,0.677,-0.127,0.068,1.0
0.7,128.181881,37.925541,7000.031008800001,0.727,-0.132,0.072,1.0
0.7166,128.181881,37.925586,7000.0130256,0.778,-0.138,0.077,1.0
0.7333,128.181881,37.925631,6999.9938232,0.833,-0.145,0.081,1.0
0.75,128.181881,37.925677,6999.974316,0.893,-0.153,0.086,1.0
0.7666,128.181881,37.925722,6999.9535896,0.959,-0.162,0.092,1.0
0.7833,128.181881,37.925767,6999.9322536,1.032,-0.171,0.098,1.0
0.8,128.181881,37.925813,6999.9096984,1.114,-0.18,0.105,1.0
0.8166,128.181881,37.925858,6999.886228800001,1.205,-0.19,0.112,1.0
0.8333,128.181881,37.925904,6999.8621496000005,1.305,-0.2,0.12,1.0
0.85,128.181881,37.925949,6999.8371560000005,1.413,-0.209,0.128,1.0
0.8666,128.181881,37.925994,6999.8109432,1.528,-0.218,0.137,1.0
0.8833,128.181881,37.92604,6999.7844256,1.649,-0.226,0.145,1.0
0.9,128.181881,37.926085,6999.7569936,1.775,-0.233,0.153,1.0
0.9166,128.181881,37.926131,6999.729256800001,1.901,-0.239,0.161,1.0
0.9333,128.181881,37.926176,6999.700605600001,2.028,-0.244,0.168,1.0
0.95,128.181881,37.926221,6999.6716496,2.151,-0.248,0.175,1.0
0.9666,128.181881,37.926267,6999.6423888,2.27,-0.25,0.182,1.0
0.9833,128.181881,37.926312,6999.6128232,2.383,-0.25,0.188,1.0
1.0,128.181881,37.926358,6999.581733600001,2.505,-0.25,0.194,1.0
1.0166,128.181881,37.926403,6999.5503392,2.631,-0.248,0.202,1.0
1.0333,128.181881,37.926449,6999.51864,2.755,-0.245,0.208,1.0
1.05,128.181881,37.926494,6999.4869408,2.871,-0.24,0.214,1.0
1.0666,128.181881,37.92654,6999.4555464000005,2.974,-0.233,0.218,1.0
1.0833,128.181881,37.926585,6999.423847200001,3.062,-0.225,0.22,1.0
1.1,128.181881,37.926631,6999.3924528,3.135,-0.216,0.222,1.0
1.1166,128.181881,37.926676,6999.3607536,3.195,-0.206,0.222,1.0
1.1333,128.181881,37.926722,6999.329968800001,3.237,-0.197,0.22,1.0
1.15,128.181881,37.926768,6999.299184000001,3.257,-0.188,0.217,1.0
1.1666,128.181882,37.926813,6999.2690088,3.253,-0.182,0.213,1.0
1.1833,128.181882,37.926859,6999.2394432,3.223,-0.177,0.207,1.0
1.2,128.181882,37.926904,6999.2101824,3.166,-0.173,0.199,1.0
1.2166,128.181882,37.92695,6999.1806168,3.102,-0.171,0.192,1.0
1.2333,128.181882,37.926995,6999.150441600001,3.032,-0.17,0.186,1.0
1.25,128.181882,37.927041,6999.1205712,2.959,-0.17,0.18,1.0
1.2666,128.181882,37.927087,6999.090091200001,2.884,-0.17,0.175,1.0
1.2833,128.181882,37.927132,6999.059611200001,2.808,-0.171,0.169,1.0
1.3,128.181882,37.927178,6999.0288264,2.732,-0.172,0.164,1.0
1.3166,128.181882,37.927224,6998.997736800001,2.657,-0.173,0.158,1.0
1.3333,128.181882,37.927269,6998.966342400001,2.583,-0.174,0.153,1.0
1.35,128.181882,37.927315,6998.934948,2.51,-0.174,0.147,1.0
1.3666,128.181882,37.927361,6998.9041632,2.422,-0.174,0.14,1.0
1.3833,128.181882,37.927406,6998.873378400001,2.322,-0.174,0.132,1.0
1.4,128.181882,37.927452,6998.8425936,2.211,-0.173,0.123,1.0
1.4166,128.181883,37.927498,6998.8121136,2.092,-0.172,0.115,1.0
1.4333,128.181883,37.927543,6998.781024000001,1.971,-0.17,0.107,1.0
1.45,128.181883,37.927589,6998.7496296,1.849,-0.168,0.1,1.0
1.4666,128.181883,37.927635,6998.7182352,1.732,-0.165,0.094,1.0
1.4833,128.181883,37.92768,6998.6862312,1.62,-0.162,0.089,1.0
1.5,128.181883,37.927726,6998.6539224,1.515,-0.159,0.084,1.0
1.5166,128.181883,37.927772,6998.6210040000005,1.418,-0.155,0.08,1.0
1.5333,128.181883,37.927818,6998.5880856,1.329,-0.151,0.077,1.0
1.55,128.181883,37.927863,6998.5545576,1.248,-0.147,0.074,1.0
1.5666,128.181883,37.927909,6998.5210296,1.174,-0.144,0.071,1.0
1.5833,128.181883,37.927955,6998.486892000001,1.106,-0.14,0.068,1.0
1.6,128.181883,37.928001,6998.4527544,1.043,-0.137,0.066,1.0
1.6166,128.181884,37.928047,6998.4186168,0.985,-0.135,0.063,1.0
1.6333,128.181884,37.928092,6998.3838696,0.93,-0.133,0.06,1.0
1.65,128.181884,37.928138,6998.349427200001,0.878,-0.131,0.058,1.0
1.6666,128.181884,37.928184,6998.3143752,0.828,-0.13,0.055,1.0
1.6833,128.181884,37.92823,6998.279628,0.78,-0.13,0.052,1.0
1.7,128.181884,37.928276,6998.244576,0.734,-0.13,0.05,1.0
1.7166,128.181884,37.928322,6998.209219200001,0.688,-0.13,0.047,1.0
1.7333,128.181884,37.928368,6998.1738624,0.644,-0.131,0.045,1.0
1.75,128.181884,37.928413,6998.138505600001,0.602,-0.132,0.043,1.0
1.7666,128.181884,37.928459,6998.102844,0.56,-0.133,0.04,1.0
1.7833,128.181884,37.928505,6998.0671824,0.52,-0.134,0.039,1.0
1.8,128.181885,37.928551,6998.0315208,0.482,-0.135,0.037,1.0
1.8166,128.181885,37.928597,6997.9955544,0.445,-0.136,0.035,1.0
1.8333,128.181885,37.928643,6997.959283200001,0.411,-0.137,0.034,1.0
1.85,128.181885,37.928689,6997.923012,0.378,-0.139,0.032,1.0
1.8666,128.181885,37.928735,6997.886740800001,0.348,-0.14,0.031,1.0
1.8833,128.181885,37.928781,6997.850774400001,0.312,-0.142,0.029,1.0
1.9,128.181885,37.928827,6997.814808,0.271,-0.144,0.027,1.0
1.9166,128.181885,37.928873,6997.7788416,0.228,-0.147,0.024,1.0
1.9333,128.181885,37.928919,6997.742570400001,0.182,-0.151,0.022,1.0
1.95,128.181885,37.928965,6997.7062992,0.137,-0.154,0.019,1.0
1.9666,128.181885,37.929011,6997.669723200001,0.094,-0.157,0.018,1.0
1.9833,128.181886,37.929057,6997.633147200001,0.055,-0.159,0.017,1.0
2.0,128.181886,37.929103,6997.5959616,0.02,-0.16,0.016,1.0
2.0166,128.181886,37.929149,6997.558776,-0.008,-0.161,0.016,1.0
2.0333,128.181886,37.929195,6997.5212856,-0.032,-0.161,0.016,1.0
2.05,128.181886,37.929241,6997.483795200001,-0.051,-0.16,0.017,1.0
2.0666,128.181886,37.929287,6997.4456952,-0.066,-0.159,0.017,1.0
2.0833,128.181886,37.929333,6997.4075952,-0.077,-0.159,0.018,1.0
2.1,128.181886,37.929379,6997.3694952000005,-0.083,-0.161,0.02,1.0
2.1166,128.181886,37.929425,6997.3307856,-0.085,-0.163,0.021,1.0
2.1333,128.181886,37.929471,6997.2917712,-0.08,-0.167,0.023,1.0
2.15,128.181886,37.929517,6997.252452000001,-0.068,-0.172,0.025,1.0
2.1666,128.181887,37.929564,6997.212523200001,-0.047,-0.179,0.028,1.0
2.1833,128.181887,37.92961,6997.1722896,-0.018,-0.187,0.031,1.0
2.2,128.181887,37.929656,6997.132056,0.014,-0.196,0.034,1.0
2.2166,128.181887,37.929702,6997.0915176,0.047,-0.205,0.037,1.0
2.2333,128.181887,37.929748,6997.050979200001,0.082,-0.213,0.04,1.0
2.25,128.181887,37.929794,6997.010136,0.117,-0.22,0.042,1.0
2.2666,128.181887,37.92984,6996.9689880000005,0.155,-0.225,0.044,1.0
2.2833,128.181887,37.929887,6996.92784,0.194,-0.23,0.047,1.0
2.3,128.181887,37.929933,6996.8860824,0.237,-0.235,0.05,1.0
2.3166,128.181887,37.929979,6996.8440200000005,0.284,-0.238,0.053,1.0
2.3333,128.181887,37.930025,6996.801348,0.338,-0.242,0.057,1.0
2.35,128.181888,37.930072,6996.758676,0.397,-0.245,0.061,1.0
2.3666,128.181888,37.930118,6996.7150896,0.464,-0.248,0.066,1.0
2.3833,128.181888,37.930164,6996.6715032,0.537,-0.251,0.071,1.0
2.4,128.181888,37.93021,6996.627307199999,0.617,-0.254,0.076,1.0
2.4166,128.181888,37.930257,6996.582806400001,0.702,-0.256,0.081,1.0
2.4333,128.181888,37.930303,6996.5380008,0.792,-0.258,0.086,1.0
2.45,128.181888,37.930349,6996.4928904,0.886,-0.26,0.091,1.0
2.4666,128.181888,37.930395,6996.4474752,0.981,-0.261,0.096,1.0
2.4833,128.181888,37.930442,6996.40206,1.078,-0.262,0.1,1.0
2.5,128.181888,37.930488,6996.35634,1.175,-0.261,0.105,1.0
2.5166,128.181888,37.930534,6996.3103152,1.272,-0.261,0.109,1.0
2.5333,128.181889,37.930581,6996.2652048,1.36,-0.259,0.113,1.0
2.55,128.181889,37.930627,6996.2194848,1.44,-0.256,0.115,1.0
2.5666,128.181889,37.930674,6996.174069600001,1.511,-0.251,0.118,1.0
2.5833,128.181889,37.93072,6996.1289592,1.574,-0.246,0.119,1.0
2.6,128.181889,37.930766,6996.083544,1.631,-0.241,0.121,1.0
2.6166,128.181889,37.930813,6996.038128800001,1.681,-0.235,0.123,1.0
2.6333,128.181889,37.930859,6995.992713600001,1.727,-0.23,0.126,1.0
2.65,128.181889,37.930905,6995.9472984,1.769,-0.224,0.128,1.0
2.6666,128.181889,37.930952,6995.901883200001,1.808,-0.219,0.131,1.0
2.6833,128.181889,37.930998,6995.856772800001,1.845,-0.214,0.133,1.0
2.7,128.18189,37.931045,6995.8113576,1.878,-0.208,0.136,1.0
2.7166,128.18189,37.931091,6995.7659424,1.909,-0.203,0.138,1.0
2.7333,128.18189,37.931138,6995.7205272,1.938,-0.198,0.14,1.0
2.75,128.18189,37.931184,6995.6754168,1.964,-0.193,0.143,1.0
2.7666,128.18189,37.931231,6995.6300016000005,1.987,-0.188,0.145,1.0
2.7833,128.18189,37.931277,6995.5848912,2.008,-0.184,0.146,1.0
2.8,128.18189,37.931324,6995.5397808,2.027,-0.179,0.148,1.0
2.8166,128.18189,37.93137,6995.494670400001,2.045,-0.176,0.15,1.0
2.8333,128.18189,37.931417,6995.449560000001,2.06,-0.174,0.151,1.0
2.85,128.181891,37.931463,6995.404449600001,2.074,-0.172,0.152,1.0
2.8666,128.181891,37.93151,6995.3593392,2.087,-0.173,0.153,1.0
2.8833,128.181891,37.931556,6995.313924000001,2.106,-0.176,0.155,1.0
2.9,128.181891,37.931603,6995.268204,2.127,-0.184,0.157,1.0
2.9166,128.181891,37.931649,6995.221874400001,2.157,-0.196,0.16,1.0
2.9333,128.181891,37.931696,6995.1743256,2.206,-0.214,0.165,1.0
2.95,128.181891,37.931743,6995.1258624,2.279,-0.238,0.171,1.0
2.9666,128.181891,37.931789,6995.0758752,2.384,-0.267,0.179,1.0
2.9833,128.181892,37.931836,6995.024364000001,2.525,-0.299,0.189,1.0
3.0,128.181892,37.931883,6994.971633600001,2.703,-0.334,0.2,1.0
3.0166,128.181892,37.931929,6994.917379200001,2.919,-0.369,0.212,1.0
3.0333,128.181892,37.931976,6994.861600800001,3.172,-0.404,0.224,1.0
3.05,128.181892,37.932023,6994.8046032,3.457,-0.436,0.236,1.0
3.0666,128.181892,37.932069,6994.7466912,3.77,-0.466,0.247,1.0
3.0833,128.181892,37.932116,6994.688169600001,4.096,-0.492,0.258,1.0
3.1,128.181892,37.932163,6994.629038400001,4.43,-0.514,0.266,1.0
3.1166,128.181893,37.932209,6994.569297600001,4.768,-0.532,0.275,1.0
3.1333,128.181893,37.932256,6994.508947200001,5.107,-0.547,0.282,1.0
3.15,128.181893,37.932303,6994.4479872,5.445,-0.558,0.289,1.0
3.1666,128.181893,37.93235,6994.3870272,5.773,-0.566,0.296,1.0
3.1833,128.181893,37.932396,6994.3257624,6.09,-0.57,0.302,1.0
3.2,128.181893,37.932443,6994.263888,6.397,-0.573,0.308,1.0
3.2166,128.181893,37.93249,6994.2020136,6.693,-0.573,0.314,1.0
3.2333,128.181894,37.932537,6994.140444,6.972,-0.572,0.319,1.0
3.25,128.181894,37.932583,6994.0782648,7.234,-0.569,0.325,1.0
3.2666,128.181894,37.93263,6994.0163904,7.478,-0.564,0.331,1.0
3.2833,128.181894,37.932677,6993.954516,7.705,-0.559,0.336,1.0
3.3,128.181894,37.932724,6993.8923368000005,7.914,-0.552,0.342,1.0
3.3166,128.181894,37.932771,6993.8304624,8.104,-0.545,0.348,1.0
3.3333,128.181895,37.932818,6993.768892800001,8.274,-0.537,0.353,1.0
3.35,128.181895,37.932865,6993.706408800001,8.438,-0.528,0.359,1.0
3.3666,128.181895,37.932911,6993.645144,8.579,-0.518,0.365,1.0
3.3833,128.181895,37.932958,6993.584184000001,8.696,-0.506,0.37,1.0
3.4,128.181895,37.933005,6993.5232240000005,8.793,-0.494,0.374,1.0
3.4166,128.181896,37.933052,6993.4628736,8.866,-0.483,0.377,1.0
3.4333,128.181896,37.933099,6993.403132800001,8.91,-0.475,0.377,1.0
3.45,128.181896,37.933146,6993.343392000001,8.934,-0.47,0.375,1.0
3.4666,128.181896,37.933193,6993.284260800001,8.935,-0.47,0.372,1.0
3.4833,128.181896,37.93324,6993.2263488,8.904,-0.475,0.365,1.0
3.5,128.181897,37.933287,6993.1690464,8.838,-0.484,0.357,1.0
3.5166,128.181897,37.933334,6993.1123536000005,8.739,-0.496,0.346,1.0
3.5333,128.181897,37.933381,6993.056270400001,8.609,-0.51,0.333,1.0
3.55,128.181897,37.933428,6993.000492000001,8.455,-0.524,0.321,1.0
3.5666,128.181898,37.933475,6992.944713600001,8.282,-0.537,0.309,1.0
3.5833,128.181898,37.933522,6992.8889352,8.097,-0.549,0.298,1.0
3.6,128.181898,37.933569,6992.8340712,7.897,-0.558,0.286,1.0
3.6166,128.181899,37.933616,6992.7785976000005,7.689,-0.566,0.275,1.0
3.6333,128.181899,37.933663,6992.723124000001,7.476,-0.571,0.265,1.0
3.65,128.181899,37.93371,6992.667345600001,7.264,-0.573,0.256,1.0
3.6666,128.181899,37.933757,6992.6112624,7.057,-0.574,0.247,1.0
3.6833,128.1819,37.933804,6992.554874400001,6.856,-0.573,0.24,1.0
3.7,128.1819,37.933851,6992.4981816,6.664,-0.57,0.233,1.0
3.7166,128.1819,37.933898,6992.4417936,6.473,-0.567,0.226,1.0
3.7333,128.181901,37.933945,6992.384796,6.283,-0.564,0.219,1.0
3.75,128.181901,37.933992,6992.3277984,6.097,-0.561,0.212,1.0
3.7666,128.181901,37.934039,6992.270800800001,5.913,-0.559,0.205,1.0
3.7833,128.181902,37.934086,6992.2131936,5.734,-0.556,0.199,1.0
3.8,128.181902,37.934134,6992.1555864,5.561,-0.554,0.192,1.0
3.8166,128.181902,37.934181,6992.097979200001,5.392,-0.553,0.186,1.0
3.8333,128.181903,37.934228,6992.0406768,5.22,-0.552,0.179,1.0
3.85,128.181903,37.934275,6991.983069600001,5.045,-0.553,0.172,1.0
3.8666,128.181903,37.934322,6991.9254624000005,4.869,-0.554,0.164,1.0
3.8833,128.181904,37.934369,6991.8678552,4.691,-0.556,0.157,1.0
3.9,128.181904,37.934417,6991.8099432,4.515,-0.558,0.15,1.0
3.9166,128.181904,37.934464,6991.752031200001,4.342,-0.56,0.143,1.0
3.9333,128.181905,37.934511,6991.6938144000005,4.174,-0.562,0.137,1.0
3.95,128.181905,37.934558,6991.6362072,4.0,-0.564,0.131,1.0
3.9666,128.181905,37.934605,6991.578600000001,3.823,-0.566,0.124,1.0
3.9833,128.181906,37.934653,6991.5206880000005,3.643,-0.569,0.117,1.0
4.0,128.181906,37.9347,6991.462776,3.461,-0.572,0.11,1.0
4.0166,128.181906,37.934747,6991.405168800001,3.28,-0.575,0.104,1.0
4.0333,128.181907,37.934795,6991.346952000001,3.1,-0.578,0.097,1.0
4.05,128.181907,37.934842,6991.2887352,2.923,-0.58,0.092,1.0
4.0666,128.181907,37.934889,6991.2314328,2.739,-0.584,0.085,1.0
4.0833,128.181908,37.934936,6991.1738256,2.548,-0.588,0.079,1.0
4.1,128.181908,37.934984,6991.1165232,2.351,-0.592,0.072,1.0
4.1166,128.181908,37.935031,6991.058916,2.151,-0.597,0.065,1.0
4.1333,128.181909,37.935078,6991.002528000001,1.936,-0.602,0.058,1.0
4.15,128.181909,37.935126,6990.9458352,1.71,-0.608,0.05,1.0
4.1666,128.18191,37.935173,6990.889447200001,1.474,-0.615,0.043,1.0
4.1833,128.18191,37.935221,6990.834278400001,1.22,-0.623,0.035,1.0
4.2,128.18191,37.935268,6990.7788048,0.951,-0.631,0.027,1.0
4.2166,128.181911,37.935315,6990.7233312,0.672,-0.639,0.019,1.0
4.2333,128.181911,37.935363,6990.6681624,0.385,-0.647,0.011,1.0
4.25,128.181911,37.93541,6990.6129936,0.096,-0.655,0.005,1.0
4.2666,128.181912,37.935458,6990.557520000001,-0.191,-0.663,359.999,1.0
4.2833,128.181912,37.935505,6990.501741600001,-0.474,-0.671,359.994,1.0
4.3,128.181912,37.935552,6990.4465728000005,-0.763,-0.678,359.989,1.0
4.3166,128.181913,37.9356,6990.391404,-1.056,-0.686,359.984,1.0
4.3333,128.181913,37.935647,6990.3359304,-1.351,-0.694,359.978,1.0
4.35,128.181913,37.935695,6990.280456800001,-1.645,-0.702,359.973,1.0
4.3666,128.181914,37.935742,6990.224983200001,-1.937,-0.711,359.968,1.0
4.3833,128.181914,37.93579,6990.168900000001,-2.223,-0.719,359.964,1.0
4.4,128.181914,37.935837,6990.1128168,-2.503,-0.728,359.96,1.0
4.4166,128.181915,37.935885,6990.057038400001,-2.786,-0.737,359.956,1.0
4.4333,128.181915,37.935932,6990.0009552,-3.07,-0.746,359.951,1.0
4.45,128.181916,37.93598,6989.9445672,-3.353,-0.756,359.947,1.0
4.4666,128.181916,37.936027,6989.888179200001,-3.633,-0.767,359.943,1.0
4.4833,128.181916,37.936075,6989.830876800001,-3.906,-0.777,359.939,1.0
4.5,128.181917,37.936123,6989.773574400001,-4.169,-0.787,359.936,1.0
4.5166,128.181917,37.93617,6989.716272000001,-4.432,-0.797,359.933,1.0
4.5333,128.181917,37.936218,6989.6586648,-4.692,-0.808,359.93,1.0
4.55,128.181917,37.936265,6989.600448,-4.946,-0.818,359.927,1.0
4.5666,128.181918,37.936313,6989.5416216,-5.191,-0.829,359.924,1.0
4.5833,128.181918,37.936361,6989.4821856,-5.423,-0.839,359.922,1.0
4.6,128.181918,37.936408,6989.422140000001,-5.64,-0.848,359.92,1.0
4.6166,128.181919,37.936456,6989.3623992,-5.852,-0.857,359.919,1.0
4.6333,128.181919,37.936504,6989.3014392,-6.056,-0.867,359.917,1.0
4.65,128.181919,37.936551,6989.240174400001,-6.249,-0.876,359.915,1.0
4.6666,128.18192,37.936599,6989.177995200001,-6.428,-0.885,359.913,1.0
4.6833,128.18192,37.936647,6989.115206400001,-6.592,-0.893,359.912,1.0
4.7,128.18192,37.936694,6989.0524176,-6.75,-0.901,359.911,1.0
4.7166,128.181921,37.936742,6988.9887144,-6.899,-0.909,359.91,1.0
4.7333,128.181921,37.93679,6988.9240968,-7.036,-0.917,359.909,1.0
4.75,128.181921,37.936838,6988.858869600001,-7.16,-0.924,359.909,1.0
4.7666,128.181921,37.936885,6988.792728,-7.267,-0.929,359.909,1.0
4.7833,128.181922,37.936933,6988.7253672,-7.356,-0.933,359.911,1.0
4.8,128.181922,37.936981,6988.657701600001,-7.43,-0.934,359.913,1.0
4.8166,128.181922,37.937029,6988.589731200001,-7.493,-0.935,359.915,1.0
4.8333,128.181922,37.937077,6988.520846400001,-7.547,-0.937,359.917,1.0
4.85,128.181923,37.937124,6988.451047200001,-7.591,-0.939,359.918,1.0
4.8666,128.181923,37.937172,6988.3809432,-7.625,-0.942,359.92,1.0
4.8833,128.181923,37.93722,6988.3102296,-7.652,-0.944,359.922,1.0
4.9,128.181923,37.937268,6988.239516,-7.691,-0.95,359.923,1.0
4.9166,128.181924,37.937316,6988.1691072,-7.742,-0.959,359.922,1.0
4.9333,128.181924,37.937364,6988.0980887999995,-7.802,-0.972,359.921,1.0
4.95,128.181924,37.937412,6988.0267656000005,-7.868,-0.985,359.92,1.0
4.9666,128.181924,37.93746,6987.954528,-7.934,-0.997,359.92,1.0
4.9833,128.181925,37.937507,6987.8816808,-7.994,-1.007,359.921,1.0
5.0,128.181925,37.937555,6987.808833600001,-8.056,-1.015,359.922,1.0
5.0166,128.181925,37.937603,6987.735072,-8.115,-1.021,359.923,1.0
5.0333,128.181925,37.937651,6987.661005600001,-8.169,-1.025,359.923,1.0
5.05,128.181925,37.937699,6987.586024800001,-8.216,-1.026,359.924,1.0
5.0666,128.181926,37.937747,6987.5104344,-8.255,-1.025,359.925,1.0
5.0833,128.181926,37.937795,6987.434844,-8.293,-1.022,359.925,1.0
5.1,128.181926,37.937843,6987.358644,-8.333,-1.02,359.925,1.0
5.1166,128.181926,37.937891,6987.282444,-8.374,-1.019,359.924,1.0
5.1333,128.181926,37.937939,6987.2056344,-8.418,-1.019,359.922,1.0
5.15,128.181927,37.937987,6987.128520000001,-8.465,-1.02,359.921,1.0
5.1666,128.181927,37.938035,6987.0511008,-8.516,-1.024,359.919,1.0
5.1833,128.181927,37.938083,6986.973376800001,-8.573,-1.03,359.917,1.0
5.2,128.181927,37.938131,6986.895348,-8.634,-1.037,359.916,1.0
5.2166,128.181927,37.938179,6986.816404800001,-8.665,-1.031,359.921,1.0
5.2333,128.181927,37.938228,6986.736852000001,-8.665,-0.994,359.929,1.0
5.25,128.181927,37.938276,6986.6566896,-8.634,-0.914,359.936,1.0
5.2666,128.181928,37.938324,6986.576832000001,-8.572,-0.776,359.935,1.0
5.2833,128.181928,37.938372,6986.4978888,-8.482,-0.57,359.925,1.0
5.3,128.181928,37.93842,6986.4207744000005,-8.367,-0.288,359.903,1.0
5.3166,128.181928,37.938468,6986.3464032,-8.232,0.078,359.868,1.0
5.3333,128.181928,37.938516,6986.274470400001,-8.084,0.514,359.822,1.0
5.35,128.181928,37.938564,6986.2065,-7.925,1.006,359.769,1.0
5.3666,128.181928,37.938613,6986.142796800001,-7.76,1.537,359.71,1.0
5.3833,128.181928,37.938661,6986.083665600001,-7.593,2.086,359.649,1.0
5.4,128.181928,37.938709,6986.0303256,-7.426,2.634,359.589,1.0
5.4166,128.181928,37.938757,6985.9827768000005,-7.26,3.161,359.534,1.0
5.4333,128.181928,37.938805,6985.941324,-7.097,3.647,359.484,1.0
5.45,128.181928,37.938853,6985.907186400001,-6.937,4.091,359.441,1.0
5.4666,128.181929,37.938902,6985.880364000001,-6.782,4.497,359.404,1.0
5.4833,128.181928,37.93895,6985.8611616,-6.631,4.872,359.372,1.0
5.5,128.181928,37.938998,6985.8507984,-6.485,5.218,359.345,1.0
5.5166,128.181928,37.939046,6985.848664800001,-6.344,5.54,359.321,1.0
5.5333,128.181928,37.939095,6985.8556751999995,-6.208,5.841,359.301,1.0
5.55,128.181928,37.939143,6985.871524800001,-6.076,6.122,359.283,1.0
5.5666,128.181928,37.939191,6985.8971280000005,-5.948,6.387,359.268,1.0
5.5833,128.181928,37.939239,6985.93218,-5.825,6.638,359.256,1.0
5.6,128.181928,37.939288,6985.9772904,-5.706,6.875,359.245,1.0
5.6166,128.181928,37.939336,6986.032154400001,-5.591,7.1,359.235,1.0
5.6333,128.181928,37.939384,6986.097076800001,-5.48,7.314,359.227,1.0
5.65,128.181928,37.939432,6986.1723624,-5.372,7.519,359.221,1.0
5.6666,128.181927,37.93948,6986.2580112000005,-5.269,7.716,359.215,1.0
5.6833,128.181927,37.939529,6986.3540232000005,-5.169,7.905,359.21,1.0
5.7,128.181927,37.939577,6986.4607032,-5.073,8.087,359.206,1.0
5.7166,128.181927,37.939625,6986.5777464,-4.98,8.263,359.203,1.0
5.7333,128.181927,37.939673,6986.7057624,-4.89,8.434,359.2,1.0
5.75,128.181926,37.939722,6986.8444464,-4.804,8.6,359.198,1.0
5.7666,128.181926,37.93977,6986.9941032,-4.721,8.76,359.197,1.0
5.7833,128.181926,37.939818,6987.154428000001,-4.641,8.917,359.196,1.0
5.8,128.181926,37.939866,6987.3260304,-4.563,9.069,359.196,1.0
5.8166,128.181925,37.939914,6987.5083008,-4.489,9.218,359.195,1.0
5.8333,128.181925,37.939963,6987.701544,-4.417,9.363,359.196,1.0
5.85,128.181925,37.940011,6987.9060648,-4.348,9.506,359.196,1.0
5.8666,128.181924,37.940059,6988.1212536,-4.281,9.645,359.197,1.0
5.8833,128.181924,37.940107,6988.347720000001,-4.216,9.783,359.198,1.0
5.9,128.181924,37.940155,6988.585464000001,-4.154,9.918,359.199,1.0
5.9166,128.181923,37.940203,6988.833876,-4.094,10.051,359.2,1.0
5.9333,128.181923,37.940252,6989.093870400001,-4.036,10.183,359.201,1.0
5.95,128.181923,37.9403,6989.3645328,-3.98,10.313,359.203,1.0
5.9666,128.181922,37.940348,6989.646777600001,-3.926,10.442,359.205,1.0
5.9833,128.181922,37.940396,6989.9396904000005,-3.874,10.57,359.206,1.0
6.0,128.181921,37.940444,6990.2438808,-3.824,10.697,359.208,1.0
6.0166,128.181921,37.940492,6990.5593488,-3.775,10.823,359.21,1.0
6.0333,128.181921,37.94054,6990.8857896,-3.728,10.948,359.211,1.0
6.05,128.18192,37.940588,6991.223508,-3.683,11.073,359.213,1.0
6.0666,128.18192,37.940636,6991.5721992,-3.639,11.197,359.215,1.0
6.0833,128.181919,37.940684,6991.932168,-3.597,11.32,359.217,1.0
6.1,128.181919,37.940732,6992.3034144,-3.556,11.444,359.219,1.0
6.1166,128.181918,37.94078,6992.685633600001,-3.517,11.566,359.221,1.0
6.1333,128.181918,37.940828,6993.0788256,-3.478,11.688,359.222,1.0
6.15,128.181917,37.940876,6993.483295200001,-3.442,11.81,359.224,1.0
6.1666,128.181917,37.940924,6993.8987376000005,-3.406,11.932,359.226,1.0
6.1833,128.181916,37.940972,6994.3254576,-3.372,12.054,359.228,1.0
6.2,128.181916,37.94102,6994.7631504,-3.339,12.175,359.229,1.0
6.2166,128.181915,37.941068,6995.211816,-3.307,12.296,359.231,1.0
6.2333,128.181915,37.941116,6995.6717592,-3.276,12.417,359.233,1.0
6.25,128.181914,37.941164,6996.14298,-3.246,12.538,359.234,1.0
6.2666,128.181914,37.941212,6996.6248688000005,-3.217,12.658,359.236,1.0
6.2833,128.181913,37.94126,6997.1180352,-3.189,12.779,359.237,1.0
6.3,128.181913,37.941308,6997.6221744,-3.162,12.899,359.239,1.0
6.3166,128.181912,37.941356,6998.1375912,-3.136,13.019,359.24,1.0
6.3333,128.181911,37.941403,6998.6639808,-3.111,13.14,359.241,1.0
6.35,128.181911,37.941451,6999.201343199999,-3.087,13.26,359.243,1.0
6.3666,128.18191,37.941499,6999.7496784,-3.063,13.38,359.244,1.0
6.3833,128.18191,37.941547,7000.3089864,-3.041,13.5,359.245,1.0
6.4,128.181909,37.941595,7000.879572,-3.019,13.62,359.246,1.0
6.4166,128.181908,37.941642,7001.4608256,-2.998,13.739,359.247,1.0
6.4333,128.181908,37.94169,7002.053356800001,-2.978,13.859,359.248,1.0
6.45,128.181907,37.941738,7002.656860800001,-2.959,13.979,359.249,1.0
6.4666,128.181907,37.941786,7003.271337600001,-2.94,14.098,359.25,1.0
6.4833,128.181906,37.941833,7003.8964824,-2.922,14.218,359.251,1.0
6.5,128.181905,37.941881,7004.5329048,-2.905,14.337,359.252,1.0
6.5166,128.181905,37.941929,7005.1803,-2.888,14.457,359.252,1.0
6.5333,128.181904,37.941976,7005.8383632000005,-2.872,14.576,359.253,1.0
6.55,128.181903,37.942024,7006.507704000001,-2.857,14.696,359.254,1.0
6.5666,128.181903,37.942072,7007.187712800001,-2.842,14.815,359.254,1.0
6.5833,128.181902,37.942119,7007.8786944,-2.828,14.934,359.255,1.0
6.6,128.181901,37.942167,7008.5806488,-2.814,15.053,359.255,1.0
6.6166,128.181901,37.942214,7009.293576,-2.801,15.172,359.255,1.0
6.6333,128.1819,37.942262,7010.0171712,-2.789,15.292,359.256,1.0
6.65,128.181899,37.942309,7010.752044,-2.777,15.411,359.256,1.0
6.6666,128.181898,37.942357,7011.49728,-2.766,15.53,359.256,1.0
6.6833,128.181898,37.942404,7012.2537936,-2.755,15.649,359.256,1.0
6.7,128.181897,37.942452,7013.0209752,-2.745,15.768,359.256,1.0
6.7166,128.181896,37.942499,7013.798824800001,-2.735,15.886,359.256,1.0
6.7333,128.181896,37.942547,7014.587647200001,-2.725,16.005,359.256,1.0
6.75,128.181895,37.942594,7015.3874424000005,-2.716,16.124,359.256,1.0
6.7666,128.181894,37.942641,7016.197905600001,-2.708,16.243,359.256,1.0
6.7833,128.181893,37.942689,7017.0190368,-2.7,16.362,359.255,1.0
6.8,128.181893,37.942736,7017.8511408,-2.693,16.48,359.255,1.0
6.8166,128.181892,37.942783,7018.6939128,-2.685,16.599,359.255,1.0
6.8333,128.181891,37.942831,7019.5476576,-2.679,16.718,359.254,1.0
6.85,128.18189,37.942878,7020.411765600001,-2.673,16.836,359.254,1.0
6.8666,128.181889,37.942925,7021.2868464,-2.667,16.955,359.253,1.0
6.8833,128.181889,37.942972,7022.172595200001,-2.661,17.073,359.252,1.0
6.9,128.181888,37.94302,7023.0693168,-2.656,17.192,359.252,1.0
6.9166,128.181887,37.943067,7023.976401600001,-2.651,17.31,359.251,1.0
6.9333,128.181886,37.943114,7024.894459200001,-2.647,17.428,359.25,1.0
6.95,128.181885,37.943161,7025.8231848,-2.643,17.547,359.249,1.0
6.9666,128.181885,37.943208,7026.7622736,-2.639,17.665,359.248,1.0
6.9833,128.181884,37.943255,7027.7123352,-2.636,17.783,359.247,1.0
7.0,128.181883,37.943302,7028.67276,-2.633,17.901,359.246,1.0
7.0166,128.181882,37.943349,7029.6441576,-2.631,18.019,359.245,1.0
7.0333,128.181881,37.943396,7030.6259184,-2.628,18.137,359.244,1.0
7.05,128.18188,37.943443,7031.618347200001,-2.626,18.255,359.242,1.0
7.0666,128.18188,37.94349,7032.621444,-2.625,18.373,359.241,1.0
7.0833,128.181879,37.943537,7033.6352088,-2.623,18.491,359.24,1.0
7.1,128.181878,37.943584,7034.6593368,-2.622,18.609,359.238,1.0
7.1166,128.181877,37.943631,7035.6941328,-2.621,18.727,359.237,1.0
7.1333,128.181876,37.943678,7036.739596800001,-2.621,18.845,359.235,1.0
7.15,128.181875,37.943724,7037.795424000001,-2.621,18.963,359.234,1.0
7.1666,128.181874,37.943771,7038.861919200001,-2.621,19.081,359.232,1.0
7.1833,128.181874,37.943818,7039.9387776,-2.621,19.198,359.23,1.0
7.2,128.181873,37.943865,7041.026304,-2.621,19.316,359.228,1.0
7.2166,128.181872,37.943911,7042.1241936,-2.622,19.433,359.226,1.0
7.2333,128.181871,37.943958,7043.2324464,-2.623,19.551,359.224,1.0
7.25,128.18187,37.944005,7044.3513672,-2.625,19.669,359.222,1.0
7.2666,128.181869,37.944051,7045.4806512000005,-2.626,19.786,359.22,1.0
7.2833,128.181868,37.944098,7046.6206032,-2.628,19.903,359.218,1.0
7.3,128.181867,37.944144,7047.770613600001,-2.63,20.021,359.216,1.0
7.3166,128.181866,37.944191,7048.931292,-2.632,20.138,359.214,1.0
7.3333,128.181865,37.944237,7050.102333600001,-2.634,20.255,359.212,1.0
7.35,128.181864,37.944284,7051.2837384,-2.637,20.373,359.209,1.0
7.3666,128.181864,37.94433,7052.475201600001,-2.64,20.49,359.207,1.0
7.3833,128.181863,37.944377,7053.677332800001,-2.643,20.607,359.204,1.0
7.4,128.181862,37.944423,7054.889827200001,-2.646,20.724,359.202,1.0
7.4166,128.181861,37.944469,7056.1126848,-2.649,20.841,359.199,1.0
7.4333,128.18186,37.944516,7057.3456008,-2.653,20.958,359.196,1.0
7.45,128.181859,37.944562,7058.5891848,-2.657,21.075,359.194,1.0
7.4666,128.181858,37.944608,7059.8428272,-2.661,21.192,359.191,1.0
7.4833,128.181857,37.944655,7061.106832800001,-2.665,21.309,359.188,1.0
7.5,128.181856,37.944701,7062.3808968,-2.669,21.426,359.185,1.0
7.5166,128.181855,37.944747,7063.6653240000005,-2.674,21.543,359.182,1.0
7.5333,128.181854,37.944793,7064.960114400001,-2.678,21.659,359.179,1.0
7.55,128.181853,37.944839,7066.2649632,-2.683,21.776,359.176,1.0
7.5666,128.181852,37.944885,7067.579870400001,-2.688,21.893,359.173,1.0
7.5833,128.181851,37.944931,7068.9051408000005,-2.693,22.009,359.17,1.0
7.6,128.18185,37.944977,7070.240774400001,-2.698,22.126,359.167,1.0
7.6166,128.181849,37.945023,7071.5864664,-2.704,22.242,359.164,1.0
7.6333,128.181848,37.945069,7072.9422168,-2.709,22.359,359.16,1.0
7.65,128.181847,37.945115,7074.3080256,-2.715,22.475,359.157,1.0
7.6666,128.181846,37.945161,7075.683892800001,-2.721,22.592,359.153,1.0
7.6833,128.181845,37.945207,7077.0701232,-2.727,22.708,359.15,1.0
7.7,128.181844,37.945253,7078.466412,-2.733,22.824,359.146,1.0
7.7166,128.181843,37.945298,7079.872454400001,-2.739,22.94,359.143,1.0
7.7333,128.181842,37.945344,7081.288860000001,-2.745,23.057,359.139,1.0
7.75,128.181841,37.94539,7082.715324000001,-2.752,23.173,359.135,1.0
7.7666,128.181839,37.945435,7084.1515416,-2.758,23.289,359.132,1.0
7.7833,128.181838,37.945481,7085.598122400001,-2.765,23.405,359.128,1.0
7.8,128.181837,37.945527,7087.0544568000005,-2.771,23.521,359.124,1.0
7.8166,128.181836,37.945572,7088.5208496000005,-2.778,23.637,359.12,1.0
7.8333,128.181835,37.945618,7089.996996000001,-2.785,23.753,359.116,1.0
7.85,128.181834,37.945663,7091.4832008,-2.792,23.868,359.112,1.0
7.8666,128.181833,37.945709,7092.979464,-2.799,23.984,359.108,1.0
7.8833,128.181832,37.945754,7094.4857856,-2.806,24.1,359.104,1.0
7.9,128.181831,37.9458,7096.001556000001,-2.814,24.215,359.1,1.0
7.9166,128.18183,37.945845,7097.5276896000005,-2.821,24.331,359.095,1.0
7.9333,128.181829,37.94589,7099.063272,-2.828,24.447,359.091,1.0
7.95,128.181828,37.945935,7100.6089128,-2.836,24.562,359.087,1.0
7.9666,128.181826,37.945981,7102.164612,-2.844,24.678,359.082,1.0
7.9833,128.181825,37.946026,7103.72976,-2.851,24.793,359.078,1.0
8.0,128.181824,37.946071,7105.3049664,-2.859,24.908,359.074,1.0
8.0166,128.181823,37.946116,7106.8896216,-2.867,25.024,359.069,1.0
8.0333,128.181822,37.946161,7108.4843352,-2.875,25.139,359.064,1.0
8.05,128.181821,37.946206,7110.0888024,-2.883,25.254,359.06,1.0
8.0666,128.18182,37.946251,7111.703023200001,-2.891,25.369,359.055,1.0
8.0833,128.181818,37.946296,7113.326997600001,-2.899,25.484,359.05,1.0
8.1,128.181817,37.946341,7114.9604208,-2.907,25.6,359.046,1.0
8.1166,128.181816,37.946386,7116.6039024,-2.915,25.715,359.041,1.0
8.1333,128.181815,37.946431,7118.256832800001,-2.923,25.829,359.036,1.0
8.15,128.181814,37.946476,7119.919212,-2.931,25.944,359.031,1.0
8.1666,128.181813,37.946521,7121.5916496,-2.94,26.059,359.026,1.0
8.1833,128.181811,37.946565,7123.273536000001,-2.948,26.174,359.021,1.0
8.2,128.18181,37.94661,7124.9648712,-2.956,26.289,359.016,1.0
8.2166,128.181809,37.946655,7126.66596,-2.965,26.403,359.011,1.0
8.2333,128.181808,37.946699,7128.3768024,-2.973,26.518,359.006,1.0
8.25,128.181807,37.946744,7130.0970936,-2.982,26.633,359.0,1.0
8.2666,128.181806,37.946788,7131.826833600001,-2.99,26.747,358.995,1.0
8.2833,128.181804,37.946833,7133.5660224,-2.999,26.862,358.99,1.0
8.3,128.181803,37.946877,7135.314660000001,-3.007,26.976,358.985,1.0
8.3166,128.181802,37.946922,7137.073051200001,-3.016,27.09,358.979,1.0
8.3333,128.181801,37.946966,7138.8408912,-3.025,27.205,358.974,1.0
8.35,128.181799,37.94701,7140.6181799999995,-3.033,27.319,358.968,1.0
8.3666,128.181798,37.947055,7142.4046128,-3.042,27.433,358.963,1.0
8.3833,128.181797,37.947099,7144.2007992,-3.051,27.547,358.957,1.0
8.4,128.181796,37.947143,7146.006129599999,-3.06,27.661,358.952,1.0
8.4166,128.181794,37.947187,7147.8212136,-3.068,27.775,358.946,1.0
8.4333,128.181793,37.947231,7149.645441600001,-3.077,27.889,358.94,1.0
8.45,128.181792,37.947275,7151.478813600001,-3.086,28.003,358.934,1.0
8.4666,128.181791,37.94732,7153.3219392,-3.095,28.117,358.929,1.0
8.4833,128.181789,37.947364,7155.1742088,-3.103,28.231,358.923,1.0
8.5,128.181788,37.947407,7157.035622400001,-3.112,28.345,358.917,1.0
8.5166,128.181787,37.947451,7158.9064848,-3.121,28.459,358.911,1.0
8.5333,128.181786,37.947495,7160.7864912000005,-3.13,28.572,358.905,1.0
8.55,128.181784,37.947539,7162.675946400001,-3.139,28.686,358.899,1.0
8.5666,128.181783,37.947583,7164.5745456,-3.148,28.799,358.893,1.0
8.5833,128.181782,37.947627,7166.4822888,-3.156,28.913,358.887,1.0
8.6,128.18178,37.94767,7168.399176,-3.165,29.026,358.881,1.0
8.6166,128.181779,37.947714,7170.3252072,-3.174,29.14,358.875,1.0
8.6333,128.181778,37.947757,7172.260687200001,-3.183,29.253,358.868,1.0
8.65,128.181776,37.947801,7174.2050064000005,-3.192,29.366,358.862,1.0
8.6666,128.181775,37.947845,7176.158469600001,-3.2,29.479,358.856,1.0
8.6833,128.181774,37.947888,7178.1210768,-3.209,29.592,358.849,1.0
8.7,128.181772,37.947931,7180.092828000001,-3.218,29.706,358.843,1.0
8.7166,128.181771,37.947975,7182.0737232,-3.227,29.819,358.837,1.0
8.7333,128.18177,37.948018,7184.0634576,-3.236,29.932,358.83,1.0
8.75,128.181768,37.948061,7186.062336,-3.244,30.044,358.824,1.0
8.7666,128.181767,37.948105,7188.0703584,-3.253,30.157,358.817,1.0
8.7833,128.181766,37.948148,7190.087220000001,-3.262,30.27,358.811,1.0
8.8,128.181764,37.948191,7192.1129208,-3.27,30.383,358.804,1.0
8.8166,128.181763,37.948234,7194.147765600001,-3.279,30.496,358.797,1.0
8.8333,128.181762,37.948277,7196.1914496,-3.288,30.608,358.791,1.0
8.85,128.18176,37.94832,7198.244277600001,-3.296,30.721,358.784,1.0
8.8666,128.181759,37.948363,7200.3056400000005,-3.305,30.833,358.777,1.0
8.8833,128.181757,37.948406,7202.376146400001,-3.314,30.946,358.77,1.0
8.9,128.181756,37.948449,7204.455492000001,-3.322,31.058,358.764,1.0
8.9166,128.181755,37.948492,7206.5436768,-3.331,31.17,358.757,1.0
8.9333,128.181753,37.948534,7208.640700800001,-3.339,31.283,358.75,1.0
8.95,128.181752,37.948577,7210.746564,-3.348,31.395,358.743,1.0
8.9666,128.18175,37.94862,7212.860961599999,-3.356,31.507,358.736,1.0
8.9833,128.181749,37.948663,7214.9841984,-3.365,31.619,358.729,1.0
9.0,128.181748,37.948705,7217.116274400001,-3.373,31.731,358.722,1.0
9.0166,128.181746,37.948748,7219.2571896,-3.382,31.843,358.715,1.0
9.0333,128.181745,37.94879,7221.4066391999995,-3.39,31.955,358.707,1.0
9.05,128.181743,37.948833,7223.564928000001,-3.399,32.067,358.7,1.0
9.0666,128.181742,37.948875,7225.731751200001,-3.407,32.179,358.693,1.0
9.0833,128.18174,37.948917,7227.9074136,-3.415,32.291,358.686,1.0
9.1,128.181739,37.94896,7230.091610400001,-3.423,32.403,358.679,1.0
9.1166,128.181737,37.949002,7232.2843416000005,-3.432,32.516,358.671,1.0
9.1333,128.181736,37.949044,7234.485912,-3.44,32.629,358.664,1.0
9.15,128.181735,37.949086,7236.695712,-3.448,32.742,358.656,1.0
9.1666,128.181733,37.949128,7238.914351200001,-3.456,32.856,358.649,1.0
9.1833,128.181732,37.94917,7241.141524800001,-3.464,32.97,358.641,1.0
9.2,128.18173,37.949212,7243.376928000001,-3.473,33.084,358.633,1.0
9.2166,128.181729,37.949254,7245.621170400001,-3.481,33.199,358.626,1.0
9.2333,128.181727,37.949296,7247.873947200001,-3.489,33.314,358.618,1.0
9.25,128.181726,37.949338,7250.1349536,-3.497,33.43,358.61,1.0
9.2666,128.181724,37.94938,7252.4047992000005,-3.504,33.545,358.602,1.0
9.2833,128.181723,37.949421,7254.6828744,-3.512,33.661,358.594,1.0
9.3,128.181721,37.949463,7256.969179200001,-3.52,33.778,358.586,1.0
9.3166,128.18172,37.949505,7259.2643232,-3.528,33.894,358.578,1.0
9.3333,128.181718,37.949546,7261.567696800001,-3.535,34.011,358.57,1.0
9.35,128.181717,37.949588,7263.8796048,-3.543,34.128,358.562,1.0
9.3666,128.181715,37.949629,7266.199742400001,-3.551,34.245,358.553,1.0
9.3833,128.181713,37.949671,7268.528109600001,-3.558,34.363,358.545,1.0
9.4,128.181712,37.949712,7270.8650112000005,-3.566,34.48,358.537,1.0
9.4166,128.18171,37.949754,7273.210447200001,-3.573,34.598,358.529,1.0
9.4333,128.181709,37.949795,7275.563808,-3.58,34.715,358.52,1.0
9.45,128.181707,37.949836,7277.926008,-3.587,34.833,358.512,1.0
9.4666,128.181706,37.949877,7280.296132800001,-3.594,34.951,358.503,1.0
9.4833,128.181704,37.949918,7282.674487200001,-3.601,35.069,358.495,1.0
9.5,128.181702,37.949959,7285.061376,-3.608,35.187,358.486,1.0
9.5166,128.181701,37.95,7287.4564944,-3.615,35.306,358.477,1.0
9.5333,128.181699,37.950041,7289.859842400001,-3.622,35.424,358.469,1.0
9.55,128.181698,37.950082,7292.271420000001,-3.629,35.542,358.46,1.0
9.5666,128.181696,37.950123,7294.6909224,-3.635,35.661,358.451,1.0
9.5833,128.181694,37.950164,7297.1189592,-3.642,35.779,358.443,1.0
9.6,128.181693,37.950205,7299.5552256,-3.649,35.898,358.434,1.0
9.6166,128.181691,37.950245,7301.9997216,-3.655,36.017,358.425,1.0
9.6333,128.18169,37.950286,7304.4521424,-3.661,36.135,358.416,1.0
9.65,128.181688,37.950327,7306.912792800001,-3.668,36.254,358.407,1.0
9.6666,128.181686,37.950367,7309.3816728,-3.674,36.373,358.398,1.0
9.6833,128.181685,37.950408,7311.858477600001,-3.68,36.492,358.389,1.0
9.7,128.181683,37.950448,7314.343512,-3.686,36.611,358.38,1.0
9.7166,128.181681,37.950489,7316.836776,-3.692,36.73,358.371,1.0
9.7333,128.18168,37.950529,7319.337964800001,-3.698,36.849,358.362,1.0
9.75,128.181678,37.950569,7321.847383200001,-3.703,36.968,358.353,1.0
9.7666,128.181677,37.950609,7324.3647264,-3.709,37.087,358.344,1.0
9.7833,128.181675,37.950649,7326.8902992,-3.715,37.206,358.334,1.0
9.8,128.181673,37.95069,7329.423492000001,-3.72,37.326,358.325,1.0
9.8166,128.181671,37.95073,7331.9652192,-3.726,37.445,358.316,1.0
9.8333,128.18167,37.95077,7334.5145664,-3.731,37.564,358.307,1.0
9.85,128.181668,37.950809,7337.0721432,-3.736,37.684,358.297,1.0
9.8666,128.181666,37.950849,7339.63734,-3.742,37.803,358.288,1.0
9.8833,128.181665,37.950889,7342.2107664,-3.747,37.923,358.278,1.0
9.9,128.181663,37.950929,7344.7921176,-3.752,38.043,358.269,1.0
9.9166,128.181661,37.950969,7347.3813936,-3.757,38.162,358.26,1.0
9.9333,128.18166,37.951008,7349.9785944000005,-3.762,38.282,358.25,1.0
9.95,128.181658,37.951048,7352.5837200000005,-3.767,38.402,358.24,1.0
9.9666,128.181656,37.951087,7355.196465600001,-3.772,38.522,358.231,1.0
9.9833,128.181654,37.951127,7357.8174408,-3.776,38.642,358.221,1.0
10.0,128.181653,37.951166,7360.446036,-3.781,38.762,358.212,1.0
10.0166,128.181651,37.951206,7363.082556,-3.786,38.882,358.202,1.0
10.0333,128.181649,37.951245,7365.7270008000005,-3.79,39.002,358.192,1.0
10.05,128.181647,37.951284,7368.379065600001,-3.794,39.122,358.183,1.0
10.0666,128.181646,37.951323,7371.039055200001,-3.799,39.242,358.173,1.0
10.0833,128.181644,37.951362,7373.706664800001,-3.803,39.363,358.163,1.0
10.1,128.181642,37.951401,7376.3821992,-3.807,39.483,358.153,1.0
10.1166,128.18164,37.95144,7379.0656584,-3.812,39.603,358.143,1.0
10.1333,128.181639,37.951479,7381.756737600001,-3.816,39.724,358.133,1.0
10.15,128.181637,37.951518,7384.455436800001,-3.82,39.844,358.123,1.0
10.1666,128.181635,37.951557,7387.161756,-3.824,39.965,358.113,1.0
10.1833,128.181633,37.951596,7389.876,-3.828,40.085,358.104,1.0
10.2,128.181632,37.951635,7392.5975592,-3.831,40.206,358.093,1.0
10.2166,128.18163,37.951673,7395.3270432,-3.835,40.327,358.083,1.0
10.2333,128.181628,37.951712,7398.064147200001,-3.839,40.448,358.073,1.0
10.25,128.181626,37.95175,7400.809176,-3.842,40.569,358.063,1.0
10.2666,128.181624,37.951789,7403.561520000001,-3.846,40.69,358.053,1.0
10.2833,128.181622,37.951827,7406.321484000001,-3.85,40.811,358.043,1.0
10.3,128.181621,37.951866,7409.089068,-3.853,40.932,358.033,1.0
10.3166,128.181619,37.951904,7411.8639672,-3.856,41.053,358.023,1.0
10.3333,128.181617,37.951942,7414.646791200001,-3.86,41.174,358.012,1.0
10.35,128.181615,37.95198,7417.4369304,-3.863,41.295,358.002,1.0
10.3666,128.181613,37.952018,7420.2346896,-3.866,41.417,357.992,1.0
10.3833,128.181611,37.952056,7423.040068800001,-3.869,41.538,357.981,1.0
10.4,128.18161,37.952094,7425.8527632000005,-3.872,41.66,357.971,1.0
10.4166,128.181608,37.952132,7428.6730776,-3.876,41.781,357.96,1.0
10.4333,128.181606,37.95217,7431.501012,-3.879,41.903,357.95,1.0
10.45,128.181604,37.952208,7434.3359568000005,-3.881,42.024,357.94,1.0
10.4666,128.181602,37.952246,7437.1785216,-3.884,42.146,357.929,1.0
10.4833,128.1816,37.952283,7440.0287064,-3.887,42.268,357.919,1.0
10.5,128.181598,37.952321,7442.8862064,-3.89,42.39,357.908,1.0
10.5166,128.181597,37.952358,7445.7510216,-3.893,42.512,357.897,1.0
10.5333,128.181595,37.952396,7448.623152000001,-3.895,42.634,357.887,1.0
10.55,128.181593,37.952433,7451.502597600001,-3.898,42.756,357.876,1.0
10.5666,128.181591,37.952471,7454.3896632000005,-3.901,42.878,357.865,1.0
10.5833,128.181589,37.952508,7457.2837392,-3.903,43.0,357.855,1.0
10.6,128.181587,37.952545,7460.1854352,-3.906,43.122,357.844,1.0
10.6166,128.181585,37.952582,7463.0941416000005,-3.908,43.245,357.833,1.0
10.6333,128.181583,37.952619,7466.0101632000005,-3.91,43.367,357.822,1.0
10.65,128.181581,37.952656,7468.9335,-3.913,43.49,357.812,1.0
10.6666,128.181579,37.952693,7471.864152000001,-3.915,43.612,357.801,1.0
10.6833,128.181577,37.95273,7474.802119200001,-3.917,43.735,357.79,1.0
10.7,128.181576,37.952767,7477.747096800001,-3.919,43.858,357.779,1.0
10.7166,128.181574,37.952804,7480.6993896,-3.921,43.98,357.768,1.0
10.7333,128.181572,37.952841,7483.658692800001,-3.924,44.103,357.757,1.0
10.75,128.18157,37.952877,7486.625311200001,-3.926,44.226,357.746,1.0
10.7666,128.181568,37.952914,7489.599244800001,-3.928,44.349,357.735,1.0
10.7833,128.181566,37.95295,7492.5801888,-3.93,44.472,357.724,1.0
10.8,128.181564,37.952987,7495.5681432,-3.931,44.595,357.713,1.0
10.8166,128.181562,37.953023,7498.563108,-3.933,44.719,357.702,1.0
10.8333,128.18156,37.953059,7501.565388000001,-3.935,44.842,357.691,1.0
10.85,128.181558,37.953096,7504.5746784,-3.937,44.965,357.679,1.0
10.8666,128.181556,37.953132,7507.590979200001,-3.939,45.089,357.668,1.0
10.8833,128.181554,37.953168,7510.6142904,-3.94,45.212,357.657,1.0
10.9,128.181552,37.953204,7513.644612,-3.942,45.336,357.646,1.0
10.9166,128.18155,37.95324,7516.681944,-3.944,45.46,357.634,1.0
10.9333,128.181548,37.953276,7519.7262864,-3.945,45.583,357.623,1.0
10.95,128.181546,37.953312,7522.7776392,-3.947,45.707,357.612,1.0
10.9666,128.181544,37.953348,7525.836002399999,-3.949,45.831,357.6,1.0
10.9833,128.181542,37.953383,7528.9010712,-3.95,45.955,357.589,1.0
11.0,128.18154,37.953419,7531.9731504,-3.951,46.079,357.577,1.0
11.0166,128.181538,37.953454,7535.05224,-3.953,46.203,357.566,1.0
11.0333,128.181536,37.95349,7538.13834,-3.954,46.327,357.554,1.0
11.05,128.181534,37.953525,7541.231145600001,-3.956,46.452,357.543,1.0
11.0666,128.181532,37.953561,7544.330656800001,-3.957,46.576,357.531,1.0
11.0833,128.18153,37.953596,7547.4371784,-3.958,46.701,357.52,1.0
11.1,128.181528,37.953631,7550.550405600001,-3.96,46.825,357.508,1.0
11.1166,128.181526,37.953666,7553.6706432,-3.961,46.95,357.496,1.0
11.1333,128.181524,37.953702,7556.7975864,-3.962,47.074,357.485,1.0
11.15,128.181522,37.953737,7559.9312352,-3.963,47.199,357.473,1.0
11.1666,128.18152,37.953772,7563.0715896,-3.964,47.324,357.461,1.0
11.1833,128.181518,37.953806,7566.2189544,-3.965,47.449,357.45,1.0
11.2,128.181515,37.953841,7569.372720000001,-3.966,47.574,357.438,1.0
11.2166,128.181513,37.953876,7572.5331912,-3.967,47.699,357.426,1.0
11.2333,128.181511,37.953911,7575.700672800001,-3.969,47.824,357.414,1.0
11.25,128.181509,37.953945,7578.874555200001,-3.969,47.95,357.402,1.0
11.2666,128.181507,37.95398,7582.0551432,-3.97,48.075,357.39,1.0
11.2833,128.181505,37.954014,7585.2424368,-3.971,48.201,357.378,1.0
11.3,128.181503,37.954049,7588.4361312,-3.972,48.326,357.366,1.0
11.3166,128.181501,37.954083,7591.6365312,-3.973,48.452,357.354,1.0
11.3333,128.181499,37.954117,7594.8436368,-3.974,48.577,357.342,1.0
11.35,128.181497,37.954152,7598.0571432,-3.975,48.703,357.33,1.0
11.3666,128.181495,37.954186,7601.277355200001,-3.976,48.829,357.318,1.0
11.3833,128.181493,37.95422,7604.503968,-3.977,48.955,357.306,1.0
11.4,128.18149,37.954254,7607.737286400001,-3.977,49.081,357.293,1.0
11.4166,128.181488,37.954288,7610.977005600001,-3.978,49.207,357.281,1.0
11.4333,128.181486,37.954321,7614.2231256,-3.979,49.333,357.269,1.0
11.45,128.181484,37.954355,7617.4756464,-3.979,49.46,357.257,1.0
11.4666,128.181482,37.954389,7620.734872800001,-3.98,49.586,357.244,1.0
11.4833,128.18148,37.954423,7624.0001952,-3.981,49.713,357.232,1.0
11.5,128.181478,37.954456,7627.272223200001,-3.981,49.839,357.22,1.0
11.5166,128.181476,37.95449,7630.550347200001,-3.982,49.966,357.207,1.0
11.5333,128.181473,37.954523,7633.8351768,-3.983,50.093,357.195,1.0
11.55,128.181471,37.954556,7637.1261024,-3.983,50.22,357.182,1.0
11.5666,128.181469,37.95459,7640.423428800001,-3.984,50.346,357.17,1.0
11.5833,128.181467,37.954623,7643.727156000001,-3.984,50.474,357.157,1.0
11.6,128.181465,37.954656,7647.036979200001,-3.985,50.601,357.144,1.0
11.6166,128.181463,37.954689,7650.3532032,-3.985,50.728,357.132,1.0
11.6333,128.181461,37.954722,7653.675828,-3.986,50.855,357.119,1.0
11.65,128.181458,37.954755,7657.0045488000005,-3.986,50.983,357.106,1.0
11.6666,128.181456,37.954788,7660.339670400001,-3.987,51.11,357.094,1.0
11.6833,128.181454,37.95482,7663.680888000001,-3.987,51.238,357.081,1.0
11.7,128.181452,37.954853,7667.028201600001,-3.988,51.365,357.068,1.0
11.7166,128.18145,37.954886,7670.381916,-3.988,51.493,357.055,1.0
11.7333,128.181448,37.954918,7673.7417264000005,-3.989,51.621,357.042,1.0
11.75,128.181445,37.954951,7677.107632800001,-3.989,51.749,357.029,1.0
11.7666,128.181443,37.954983,7680.4796352,-3.989,51.877,357.016,1.0
11.7833,128.181441,37.955015,7683.857733600001,-3.99,52.005,357.003,1.0
11.8,128.181439,37.955048,7687.241928,-3.99,52.134,356.99,1.0
11.8166,128.181437,37.95508,7690.6322184,-3.99,52.262,356.977,1.0
11.8333,128.181435,37.955112,7694.028604800001,-3.991,52.39,356.964,1.0
11.85,128.181432,37.955144,7697.430782400001,-3.991,52.519,356.951,1.0
11.8666,128.18143,37.955176,7700.839360800001,-3.991,52.648,356.938,1.0
11.8833,128.181428,37.955208,7704.2537304,-3.991,52.776,356.925,1.0
11.9,128.181426,37.95524,7707.6738912,-3.992,52.905,356.911,1.0
11.9166,128.181424,37.955271,7711.1004528,-3.992,53.034,356.898,1.0
11.9333,128.181421,37.955303,7714.532500800001,-3.992,53.163,356.885,1.0
11.95,128.181419,37.955334,7717.970644800001,-3.992,53.292,356.871,1.0
11.9666,128.181417,37.955366,7721.4148848,-3.993,53.421,356.858,1.0
11.9833,128.181415,37.955397,7724.864611200001,-3.993,53.55,356.844,1.0
12.0,128.181412,37.955429,7728.320433600001,-3.993,53.679,356.831,1.0
12.0166,128.18141,37.95546,7731.782047200001,-3.993,53.808,356.817,1.0
12.0333,128.181408,37.955491,7735.249756800001,-3.993,53.937,356.804,1.0
12.05,128.181406,37.955522,7738.7229528,-3.993,54.067,356.79,1.0
12.0666,128.181404,37.955553,7742.20194,-3.994,54.196,356.777,1.0
12.0833,128.181401,37.955584,7745.6867184,-3.994,54.325,356.763,1.0
12.1,128.181399,37.955615,7749.177288000001,-3.994,54.455,356.749,1.0
12.1166,128.181397,37.955646,7752.6736488,-3.994,54.585,356.736,1.0
12.1333,128.181395,37.955677,7756.175496000001,-3.994,54.714,356.722,1.0
12.15,128.181392,37.955707,7759.6831344,-3.994,54.844,356.708,1.0
12.1666,128.18139,37.955738,7763.196564000001,-3.994,54.974,356.694,1.0
12.1833,128.181388,37.955768,7766.71548,-3.994,55.104,356.68,1.0
12.2,128.181386,37.955799,7770.238663200001,-3.995,55.234,356.666,1.0
12.2166,128.181383,37.955829,7773.7694664,-4.077,55.364,356.632,1.0
12.2333,128.181381,37.955859,7777.305756000001,-4.238,55.493,356.578,1.0
12.25,128.181379,37.955889,7780.8484464,-4.474,55.622,356.508,1.0
12.2666,128.181377,37.955919,7784.397537600001,-4.779,55.751,356.428,1.0
12.2833,128.181374,37.955949,7787.9533344,-5.145,55.879,356.341,1.0
12.3,128.181372,37.955979,7791.5158368,-5.565,56.009,356.25,1.0
12.3166,128.18137,37.956009,7795.08474,-6.033,56.138,356.155,1.0
12.3333,128.181368,37.956039,7798.6594344,-6.539,56.269,356.058,1.0
12.35,128.181365,37.956068,7802.2405296,-7.078,56.4,355.96,1.0
12.3666,128.181363,37.956098,7805.827416,-7.643,56.532,355.86,1.0
12.3833,128.181361,37.956127,7809.4200936,-8.227,56.665,355.76,1.0
12.4,128.181359,37.956156,7813.0182576,-8.824,56.798,355.658,1.0
12.4166,128.181356,37.956186,7816.6222128,-9.429,56.933,355.555,1.0
12.4333,128.181354,37.956215,7820.2310448,-10.037,57.067,355.45,1.0
12.45,128.181352,37.956244,7823.8453632,-10.644,57.202,355.344,1.0
12.4666,128.181349,37.956273,7827.4648632,-11.246,57.337,355.236,1.0
12.4833,128.181347,37.956302,7831.0895448,-11.84,57.472,355.125,1.0
12.5,128.181344,37.956331,7834.7187984,-12.424,57.607,355.012,1.0
12.5166,128.181342,37.956359,7838.353233600001,-12.996,57.741,354.896,1.0
12.5333,128.18134,37.956388,7841.9925456,-13.555,57.875,354.777,1.0
12.55,128.181337,37.956417,7845.6367344,-14.099,58.008,354.655,1.0
12.5666,128.181335,37.956445,7849.285495200001,-14.628,58.141,354.53,1.0
12.5833,128.181332,37.956474,7852.939132800001,-15.143,58.273,354.401,1.0
12.6,128.18133,37.956502,7856.597647200001,-15.642,58.403,354.269,1.0
12.6166,128.181327,37.956531,7860.260733600001,-16.128,58.533,354.133,1.0
12.6333,128.181325,37.956559,7863.928392000001,-16.599,58.662,353.994,1.0
12.65,128.181322,37.956587,7867.6006224,-17.057,58.79,353.851,1.0
12.6666,128.181319,37.956615,7871.2777295999995,-17.502,58.917,353.705,1.0
12.6833,128.181317,37.956643,7874.9591040000005,-17.935,59.043,353.556,1.0
12.7,128.181314,37.956671,7878.6453552,-18.357,59.168,353.404,1.0
12.7166,128.181311,37.956699,7882.335873600001,-18.769,59.292,353.25,1.0
12.7333,128.181309,37.956727,7886.0312688,-19.171,59.415,353.092,1.0
12.75,128.181306,37.956754,7889.730931200001,-19.564,59.537,352.933,1.0
12.7666,128.181303,37.956782,7893.435165600001,-19.948,59.658,352.77,1.0
12.7833,128.1813,37.956809,7897.1436672,-20.325,59.779,352.606,1.0
12.8,128.181298,37.956837,7900.856740800001,-20.694,59.898,352.439,1.0
12.8166,128.181295,37.956864,7904.574386400001,-21.058,60.017,352.27,1.0
12.8333,128.181292,37.956892,7908.2962992,-21.415,60.135,352.098,1.0
12.85,128.181289,37.956919,7912.022784000001,-21.767,60.253,351.925,1.0
12.8666,128.181286,37.956946,7915.753536,-22.115,60.37,351.75,1.0
12.8833,128.181283,37.956973,7919.4885552000005,-22.458,60.486,351.572,1.0
12.9,128.18128,37.957,7923.227841600001,-22.797,60.601,351.393,1.0
12.9166,128.181277,37.957027,7926.9713952,-23.133,60.716,351.211,1.0
12.9333,128.181274,37.957054,7930.7195208,-23.466,60.831,351.028,1.0
12.95,128.181271,37.95708,7934.4716088000005,-23.796,60.944,350.842,1.0
12.9666,128.181268,37.957107,7938.227964000001,-24.124,61.058,350.655,1.0
12.9833,128.181265,37.957134,7941.988586400001,-24.449,61.171,350.466,1.0
13.0,128.181261,37.95716,7945.753476,-24.773,61.283,350.275,1.0
13.0166,128.181258,37.957187,7949.522328000001,-25.095,61.395,350.083,1.0
13.0333,128.181255,37.957213,7953.295447200001,-25.415,61.506,349.888,1.0
13.0499,128.181252,37.957239,7957.0725288,-25.735,61.617,349.692,1.0
13.0666,128.181248,37.957265,7960.853572800001,-26.053,61.727,349.493,1.0
13.0833,128.181245,37.957292,7964.638884000001,-26.37,61.837,349.293,1.0
13.1,128.181241,37.957318,7968.4281576,-26.686,61.947,349.092,1.0
13.1166,128.181238,37.957344,7972.2213936,-27.001,62.056,348.888,1.0
13.1333,128.181235,37.957369,7976.018592,-27.316,62.165,348.683,1.0
13.15,128.181231,37.957395,7979.8197528,-27.631,62.273,348.475,1.0
13.1666,128.181227,37.957421,7983.6245712,-27.945,62.381,348.266,1.0
13.1833,128.181224,37.957446,7987.433656800001,-28.258,62.488,348.056,1.0
13.2,128.18122,37.957472,7991.2464,-28.572,62.596,347.843,1.0
13.2166,128.181216,37.957497,7995.0628008,-28.885,62.702,347.629,1.0
13.2333,128.181213,37.957523,7998.883164000001,-29.198,62.809,347.412,1.0
13.25,128.181209,37.957548,8002.7074896,-29.51,62.915,347.194,1.0
13.2666,128.181205,37.957573,8006.5354728,-29.823,63.021,346.974,1.0
13.2833,128.181201,37.957598,8010.3668088,-30.136,63.126,346.753,1.0
13.3,128.181197,37.957624,8014.2021072,-30.449,63.231,346.529,1.0
13.3166,128.181193,37.957648,8018.0410632,-30.762,63.335,346.304,1.0
13.3333,128.18119,37.957673,8021.8836768,-31.075,63.44,346.076,1.0
13.35,128.181185,37.957698,8025.729948,-31.388,63.543,345.847,1.0
13.3666,128.181181,37.957723,8029.5798768,-31.702,63.647,345.616,1.0
13.3833,128.181177,37.957748,8033.4331584,-32.016,63.75,345.383,1.0
13.4,128.181173,37.957772,8037.290097600001,-32.33,63.853,345.149,1.0
13.4166,128.181169,37.957797,8041.1503896,-32.645,63.955,344.912,1.0
13.4333,128.181165,37.957821,8045.0140344,-32.96,64.057,344.673,1.0
13.45,128.181161,37.957845,8048.8813368,-33.276,64.158,344.433,1.0
13.4666,128.181156,37.957869,8052.751992,-33.592,64.26,344.19,1.0
13.4833,128.181152,37.957894,8056.6263048,-33.909,64.361,343.945,1.0
13.5,128.181147,37.957918,8060.503665600001,-34.226,64.461,343.698,1.0
13.5166,128.181143,37.957942,8064.384379200001,-34.545,64.562,343.449,1.0
13.5333,128.181139,37.957966,8068.268445600001,-34.864,64.662,343.198,1.0
13.55,128.181134,37.957989,8072.155864800001,-35.184,64.762,342.944,1.0
13.5666,128.181129,37.958013,8076.046332000001,-35.505,64.861,342.688,1.0
13.5833,128.181125,37.958037,8079.940152000001,-35.827,64.961,342.43,1.0
13.6,128.18112,37.95806,8083.837324800001,-36.15,65.06,342.17,1.0
13.6166,128.181115,37.958084,8087.737545600001,-36.475,65.158,341.907,1.0
13.6333,128.181111,37.958107,8091.640814400001,-36.8,65.257,341.641,1.0
13.65,128.181106,37.95813,8095.5471312,-37.126,65.355,341.374,1.0
13.6666,128.181101,37.958154,8099.456800800001,-37.454,65.453,341.103,1.0
13.6833,128.181096,37.958177,8103.3692136,-37.783,65.551,340.831,1.0
13.7,128.181091,37.9582,8107.284979200001,-38.114,65.648,340.556,1.0
13.7166,128.181086,37.958223,8111.203488000001,-38.446,65.745,340.278,1.0
13.7333,128.181081,37.958246,8115.1253496,-38.779,65.841,339.998,1.0
13.75,128.181076,37.958268,8119.0496496000005,-39.114,65.938,339.715,1.0
13.7666,128.181071,37.958291,8122.9773024,-39.451,66.033,339.429,1.0
13.7833,128.181066,37.958314,8126.9076984,-39.789,66.129,339.141,1.0
13.8,128.181061,37.958336,8130.840837600001,-40.129,66.224,338.851,1.0
13.8166,128.181055,37.958359,8134.777024800001,-40.47,66.319,338.557,1.0
13.8333,128.18105,37.958381,8138.7159552,-40.814,66.413,338.261,1.0
13.85,128.181045,37.958404,8142.657628800001,-41.159,66.507,337.963,1.0
13.8666,128.181039,37.958426,8146.602045600001,-41.506,66.601,337.661,1.0
13.8833,128.181034,37.958448,8150.5492056,-41.855,66.694,337.357,1.0
13.9,128.181028,37.95847,8154.499108800001,-42.206,66.787,337.05,1.0
13.9166,128.181023,37.958492,8158.451755200001,-42.559,66.879,336.74,1.0
13.9333,128.181017,37.958514,8162.406840000001,-42.914,66.971,336.427,1.0
13.95,128.181012,37.958535,8166.364668,-43.271,67.062,336.111,1.0
13.9666,128.181006,37.958557,8170.3252392,-43.63,67.153,335.793,1.0
13.9833,128.181,37.958579,8174.2882488000005,-43.991,67.243,335.471,1.0
14.0,128.180994,37.9586,8178.2536968,-44.355,67.333,335.147,1.0
14.0166,128.180988,37.958622,8182.221888000001,-44.721,67.423,334.819,1.0
14.0333,128.180983,37.958643,8186.1925176,-45.089,67.511,334.489,1.0
14.05,128.180977,37.958664,8190.1652808,-45.459,67.6,334.155,1.0
14.0666,128.180971,37.958685,8194.1407872,-45.832,67.688,333.819,1.0
14.0833,128.180965,37.958707,8198.118732,-46.207,67.775,333.479,1.0
14.1,128.180958,37.958728,8202.0988104,-46.585,67.862,333.137,1.0
14.1166,128.180952,37.958748,8206.081632000001,-46.965,67.948,332.791,1.0
14.1333,128.180946,37.958769,8210.066282400001,-47.348,68.033,332.442,1.0
14.15,128.18094,37.95879,8214.053676,-47.733,68.118,332.09,1.0
14.1666,128.180934,37.958811,8218.042898400001,-48.121,68.202,331.734,1.0
14.1833,128.180927,37.958831,8222.034559200001,-48.512,68.286,331.376,1.0
14.2,128.180921,37.958852,8226.0283536,-48.905,68.369,331.014,1.0
14.2166,128.180914,37.958872,8230.0245864,-49.301,68.452,330.649,1.0
14.2333,128.180908,37.958892,8234.022648,-49.699,68.533,330.28,1.0
14.25,128.180901,37.958913,8238.023148,-50.1,68.615,329.908,1.0
14.2666,128.180895,37.958933,8242.0254768,-50.504,68.695,329.533,1.0
14.2833,128.180888,37.958953,8246.0299392,-50.911,68.775,329.155,1.0
14.3,128.180881,37.958973,8250.0365352,-51.321,68.854,328.773,1.0
14.3166,128.180875,37.958993,8254.044960000001,-51.733,68.932,328.388,1.0
14.3333,128.180868,37.959012,8258.0555184,-52.149,69.01,327.999,1.0
14.35,128.180861,37.959032,8262.0679056,-52.567,69.086,327.607,1.0
14.3666,128.180854,37.959052,8266.0824264,-52.988,69.162,327.212,1.0
14.3833,128.180847,37.959071,8270.0984712,-53.412,69.238,326.813,1.0
14.4,128.18084,37.959091,8274.1166496,-53.839,69.312,326.411,1.0
14.4166,128.180833,37.95911,8278.136656800001,-54.268,69.386,326.006,1.0
14.4333,128.180826,37.959129,8282.158492800001,-54.7,69.458,325.597,1.0
14.45,128.180819,37.959148,8286.1821576,-55.135,69.53,325.186,1.0
14.4666,128.180812,37.959167,8290.2073464,-55.572,69.6,324.772,1.0
14.4833,128.180804,37.959186,8294.234364,-56.011,69.67,324.355,1.0
14.5,128.180797,37.959205,8298.2632104,-56.453,69.739,323.935,1.0
14.5166,128.18079,37.959224,8302.2935808,-56.897,69.806,323.513,1.0
14.5333,128.180782,37.959243,8306.3254752,-57.343,69.873,323.087,1.0
14.55,128.180775,37.959261,8310.3588936,-57.792,69.939,322.659,1.0
14.5666,128.180767,37.95928,8314.394140800001,-58.243,70.003,322.228,1.0
14.5833,128.180759,37.959298,8318.430912,-58.696,70.066,321.795,1.0
14.6,128.180752,37.959317,8322.4692072,-59.152,70.129,321.358,1.0
14.6166,128.180744,37.959335,8326.5087216,-59.61,70.19,320.919,1.0
14.6333,128.180736,37.959353,8330.550064800002,-60.07,70.25,320.477,1.0
14.65,128.180729,37.959371,8334.5926272,-60.533,70.309,320.033,1.0
14.6666,128.180721,37.959389,8338.636408800001,-60.998,70.367,319.585,1.0
14.6833,128.180713,37.959407,8342.682019200001,-61.465,70.424,319.135,1.0
14.7,128.180705,37.959425,8346.728544,-61.935,70.48,318.683,1.0
14.7166,128.180697,37.959442,8350.7765928,-62.407,70.535,318.227,1.0
14.7333,128.180689,37.95946,8354.825860800001,-62.881,70.588,317.769,1.0
14.75,128.180681,37.959477,8358.876348,-63.358,70.641,317.309,1.0
14.7666,128.180672,37.959495,8362.9277496,-63.837,70.692,316.845,1.0
14.7833,128.180664,37.959512,8366.9806752,-64.318,70.742,316.379,1.0
14.8,128.180656,37.959529,8371.03482,-64.801,70.791,315.911,1.0
14.8166,128.180648,37.959547,8375.0898792,-65.287,70.838,315.439,1.0
14.8333,128.180639,37.959564,8379.1461576,-65.775,70.885,314.965,1.0
