Time,Longitude,Latitude,Altitude,Roll (deg),Pitch (deg),Yaw (deg),Health
0.0,128.181881,37.923646,7000.146528,0.0,-0.003,0.0,1.0
0.0166,128.181881,37.923691,7000.1605488000005,0.0,-0.012,0.0,1.0
0.0333,128.181881,37.923736,7000.173960000001,0.0,-0.025,0.0,1.0
0.05,128.181881,37.923781,7000.186152000001,0.0,-0.039,0.0,1.0
0.0666,128.181881,37.923826,7000.1977344,0.0,-0.054,0.0,1.0
0.0833,128.181881,37.923871,7000.2084024,0.0,-0.069,359.999,1.0
0.1,128.181881,37.923916,7000.218156000001,0.0,-0.085,359.999,1.0
0.1166,128.181881,37.923961,7000.2273000000005,0.0,-0.099,359.999,1.0
0.1333,128.181881,37.924006,7000.235224800001,0.0,-0.112,359.999,1.0
0.15,128.181881,37.924051,7000.24254,0.0,-0.125,359.999,1.0
0.1666,128.181881,37.924096,7000.2489408,0.0,-0.136,359.999,1.0
0.1833,128.181881,37.924141,7000.2544272000005,0.0,-0.146,0.0,1.0
0.2,128.181881,37.924186,7000.2589992,0.0,-0.155,0.0,1.0
0.2166,128.181881,37.924231,7000.2626568000005,0.0,-0.163,0.0,1.0
0.2333,128.181881,37.924276,7000.2657048,0.0,-0.17,0.0,1.0
0.25,128.181881,37.924321,7000.267838400001,0.0,-0.176,0.0,1.0
0.2666,128.181881,37.924366,7000.2690575999995,0.0,-0.181,0.0,1.0
0.2833,128.181881,37.924411,7000.2696672,0.0,-0.186,0.0,1.0
0.3,128.181881,37.924456,7000.2690575999995,0.0,-0.19,0.0,1.0
0.3166,128.181881,37.924501,7000.267838400001,0.0,-0.195,0.0,1.0
0.3333,128.181881,37.924546,7000.266009600001,0.0,-0.199,0.0,1.0
0.35,128.181881,37.924591,7000.2632664,0.0,-0.202,0.0,1.0
0.3666,128.181881,37.924636,7000.2596088,0.001,-0.206,0.0,1.0
0.3833,128.181881,37.924682,7000.255341600001,0.001,-0.21,0.0,1.0
0.4,128.181881,37.924727,7000.2501600000005,0.001,-0.214,0.0,1.0
0.4166,128.181881,37.924772,7000.2443688,0.001,-0.217,0.0,1.0
0.4333,128.181881,37.924817,7000.2376632000005,0.001,-0.221,0.0,1.0
0.45,128.181881,37.924862,7000.2300432,0.001,-0.225,0.0,1.0
0.4666,128.181881,37.924907,7000.2218136,0.002,-0.229,0.0,1.0
0.4833,128.181881,37.924952,7000.2129744,0.002,-0.233,0.0,1.0
0.5,128.181881,37.924998,7000.2032208,0.002,-0.238,0.001,1.0
0.5166,128.181881,37.925043,7000.1928576,0.002,-0.242,0.001,1.0
0.5333,128.181881,37.925088,7000.1818848,0.002,-0.246,0.001,1.0
0.55,128.181881,37.925133,7000.169997600001,0.002,-0.251,0.001,1.0
0.5666,128.181881,37.925179,7000.157500800001,0.003,-0.255,0.001,1.0
0.5833,128.181881,37.925224,7000.1440896,0.003,-0.26,0.001,1.0
0.6,128.181881,37.925269,7000.1300688,0.003,-0.264,0.001,1.0
0.6166,128.181881,37.925314,7000.115438400001,0.003,-0.269,0.001,1.0
0.6333,128.181881,37.92536,7000.1001984,0.003,-0.273,0.001,1.0
0.65,128.181881,37.925405,7000.084044,0.003,-0.278,0.0,1.0
0.6666,128.181881,37.92545,7000.06728,0.003,-0.282,0.0,1.0
0.6833,128.181881,37.925495,7000.0499064000005,0.003,-0.287,0.001,1.0
0.7,128.181881,37.925541,7000.0316184,0.003,-0.291,0.001,1.0
0.7166,128.181881,37.925586,7000.012720799999,0.004,-0.295,0.001,1.0
0.7333,128.181881,37.925631,6999.993213600001,0.004,-0.3,0.001,1.0
0.75,128.181881,37.925677,6999.9730968,0.007,-0.305,0.002,1.0
0.7666,128.181881,37.925722,6999.9520656,0.011,-0.31,0.003,1.0
0.7833,128.181881,37.925767,6999.930120000001,0.017,-0.316,0.004,1.0
0.8,128.181881,37.925813,6999.907869600001,0.023,-0.321,0.005,1.0
0.8166,128.181881,37.925858,6999.885009600001,0.029,-0.326,0.006,1.0
0.8333,128.181881,37.925903,6999.86154,0.034,-0.33,0.006,1.0
0.85,128.181881,37.925949,6999.837765600001,0.034,-0.335,0.005,1.0
0.8666,128.181881,37.925994,6999.813991200001,0.025,-0.34,0.003,1.0
0.8833,128.181881,37.92604,6999.7902168,0.002,-0.346,0.0,1.0
0.9,128.181881,37.926085,6999.7652232,-0.025,-0.352,359.996,1.0
0.9166,128.181881,37.92613,6999.7402296,-0.059,-0.358,359.992,1.0
0.9333,128.181881,37.926176,6999.7146264,-0.099,-0.366,359.988,1.0
0.95,128.181881,37.926221,6999.6890232000005,-0.147,-0.373,359.983,1.0
0.9666,128.181881,37.926267,6999.662810400001,-0.202,-0.381,359.978,1.0
0.9833,128.181881,37.926312,6999.636292800001,-0.264,-0.389,359.972,1.0
1.0,128.181881,37.926358,6999.609470400001,-0.335,-0.396,359.966,1.0
1.0166,128.181881,37.926403,6999.5823432,-0.412,-0.404,359.96,1.0
1.0333,128.181881,37.926449,6999.554606400001,-0.496,-0.412,359.954,1.0
1.05,128.181881,37.926494,6999.5265648,-0.587,-0.42,359.947,1.0
1.0666,128.181881,37.92654,6999.496999200001,-0.575,-0.432,359.944,1.0
1.0833,128.181881,37.926585,6999.4662144,-0.462,-0.449,359.945,1.0
1.1,128.181881,37.926631,6999.433296,-0.247,-0.47,359.948,1.0
1.1166,128.181881,37.926676,6999.400377600001,-0.129,-0.492,359.938,1.0
1.1333,128.181881,37.926722,6999.3668496,-0.102,-0.515,359.916,1.0
1.15,128.181881,37.926767,6999.3330168,-0.17,-0.538,359.887,1.0
1.1666,128.181881,37.926813,6999.2994888,-0.336,-0.562,359.854,1.0
1.1833,128.181881,37.926858,6999.266570400001,-0.599,-0.584,359.82,1.0
1.2,128.181881,37.926904,6999.2345663999995,-0.958,-0.607,359.786,1.0
1.2166,128.181881,37.926949,6999.2034768,-1.409,-0.628,359.753,1.0
1.2333,128.181881,37.926995,6999.174215999999,-1.948,-0.648,359.72,1.0
1.25,128.181881,37.927041,6999.1467840000005,-2.573,-0.668,359.689,1.0
1.2666,128.181881,37.927086,6999.121485600001,-3.28,-0.687,359.659,1.0
1.2833,128.181881,37.927132,6999.0983208,-4.064,-0.704,359.629,1.0
1.3,128.181881,37.927177,6999.0772896,-4.923,-0.721,359.601,1.0
1.3166,128.181881,37.927223,6999.058392000001,-5.854,-0.737,359.574,1.0
1.3333,128.181881,37.927269,6999.0413232,-6.853,-0.753,359.547,1.0
1.35,128.181881,37.927314,6999.0260832,-7.917,-0.767,359.522,1.0
1.3666,128.181881,37.92736,6999.012976800001,-9.045,-0.781,359.497,1.0
1.3833,128.181881,37.927405,6999.0016992,-10.232,-0.795,359.474,1.0
1.4,128.181881,37.927451,6998.992250400001,-11.476,-0.808,359.451,1.0
1.4166,128.181881,37.927497,6998.9846304,-12.775,-0.821,359.428,1.0
1.4333,128.181881,37.927542,6998.9785344,-14.127,-0.833,359.407,1.0
1.45,128.181881,37.927588,6998.9742672,-15.528,-0.845,359.387,1.0
1.4666,128.181881,37.927633,6998.9715240000005,-16.977,-0.857,359.367,1.0
1.4833,128.18188,37.927679,6998.9703048,-18.472,-0.868,359.348,1.0
1.5,128.18188,37.927725,6998.970914400001,-20.01,-0.88,359.329,1.0
1.5166,128.18188,37.92777,6998.9727432,-21.59,-0.892,359.312,1.0
1.5333,128.18188,37.927816,6998.976096,-23.21,-0.903,359.295,1.0
1.55,128.18188,37.927862,6998.9809728,-24.867,-0.915,359.279,1.0
1.5666,128.18188,37.927907,6998.9870688,-26.56,-0.927,359.264,1.0
1.5833,128.181879,37.927953,6998.994079200001,-28.285,-0.939,359.249,1.0
1.6,128.181879,37.927998,6999.0013944,-30.033,-0.95,359.236,1.0
1.6166,128.181879,37.928044,6999.009624,-31.794,-0.962,359.225,1.0
1.6333,128.181878,37.92809,6999.0175488,-33.561,-0.973,359.216,1.0
1.65,128.181878,37.928135,6999.0257784000005,-35.327,-0.984,359.209,1.0
1.6666,128.181878,37.928181,6999.0340080000005,-37.088,-0.995,359.203,1.0
1.6833,128.181877,37.928227,6999.041628000001,-38.837,-1.005,359.199,1.0
1.7,128.181877,37.928272,6999.049248,-40.571,-1.015,359.196,1.0
1.7166,128.181877,37.928318,6999.0559536,-42.287,-1.025,359.194,1.0
1.7333,128.181876,37.928364,6999.0620496,-43.981,-1.035,359.194,1.0
1.75,128.181876,37.928409,6999.0675360000005,-45.652,-1.044,359.194,1.0
1.7666,128.181875,37.928455,6999.072108,-47.296,-1.054,359.196,1.0
1.7833,128.181875,37.928501,6999.0757656000005,-48.913,-1.063,359.198,1.0
1.8,128.181874,37.928547,6999.078204,-50.501,-1.073,359.201,1.0
1.8166,128.181874,37.928592,6999.079728000001,-52.058,-1.082,359.204,1.0
1.8333,128.181873,37.928638,6999.079728000001,-53.584,-1.091,359.208,1.0
1.85,128.181872,37.928684,6999.0785088,-55.076,-1.1,359.213,1.0
1.8666,128.181872,37.92873,6999.0757656000005,-56.532,-1.108,359.218,1.0
1.8833,128.181871,37.928775,6999.0714984,-57.953,-1.116,359.223,1.0
1.9,128.18187,37.928821,6999.0654024,-59.336,-1.125,359.229,1.0
1.9166,128.18187,37.928867,6999.0577824,-60.679,-1.132,359.235,1.0
1.9333,128.181869,37.928913,6999.048333600001,-61.982,-1.14,359.242,1.0
1.95,128.181868,37.928958,6999.0367512,-63.241,-1.147,359.248,1.0
1.9666,128.181867,37.929004,6999.02334,-64.457,-1.153,359.255,1.0
1.9833,128.181867,37.92905,6999.0077952,-65.626,-1.16,359.263,1.0
2.0,128.181866,37.929096,6998.9901168,-66.746,-1.166,359.27,1.0
2.0166,128.181865,37.929142,6998.97,-67.817,-1.171,359.278,1.0
2.0333,128.181864,37.929187,6998.9477496,-68.835,-1.176,359.286,1.0
2.05,128.181863,37.929233,6998.923060800001,-69.798,-1.181,359.293,1.0
2.0666,128.181863,37.929279,6998.895933600001,-70.704,-1.185,359.301,1.0
2.0833,128.181862,37.929325,6998.8660632,-71.551,-1.189,359.31,1.0
2.1,128.181861,37.929371,6998.8337544000005,-72.335,-1.193,359.318,1.0
2.1166,128.18186,37.929417,6998.7983976000005,-72.98,-1.191,359.328,1.0
2.1333,128.181859,37.929463,6998.760297600001,-73.491,-1.185,359.339,1.0
2.15,128.181858,37.929509,6998.718844800001,-73.869,-1.177,359.351,1.0
2.1666,128.181858,37.929555,6998.6746488,-74.118,-1.168,359.364,1.0
2.1833,128.181857,37.9296,6998.6274048000005,-74.242,-1.16,359.376,1.0
2.2,128.181856,37.929646,6998.576808,-74.246,-1.151,359.389,1.0
2.2166,128.181855,37.929692,6998.522858400001,-74.135,-1.142,359.403,1.0
2.2333,128.181854,37.929738,6998.465860800001,-73.916,-1.134,359.416,1.0
2.25,128.181854,37.929784,6998.405510400001,-73.592,-1.124,359.431,1.0
2.2666,128.181853,37.92983,6998.342112,-73.224,-1.113,359.446,1.0
2.2833,128.181852,37.929877,6998.275665600001,-72.811,-1.1,359.462,1.0
2.3,128.181851,37.929923,6998.2080000000005,-72.496,-1.097,359.46,1.0
2.3166,128.181851,37.929969,6998.137896,-72.268,-1.102,359.426,1.0
2.3333,128.18185,37.930015,6998.0653536,-72.139,-1.104,359.348,1.0
2.35,128.181849,37.930061,6997.990982400001,-72.114,-1.095,359.216,1.0
2.3666,128.181848,37.930107,6997.9147824,-72.193,-1.068,359.02,1.0
2.3833,128.181847,37.930153,6997.8373632,-72.376,-1.019,358.754,1.0
2.4,128.181846,37.930199,6997.758420000001,-72.66,-0.948,358.415,1.0
2.4166,128.181845,37.930245,6997.6782576,-73.04,-0.859,358.017,1.0
2.4333,128.181844,37.930291,6997.5974856,-73.515,-0.756,357.57,1.0
2.45,128.181843,37.930337,6997.516104,-74.078,-0.646,357.091,1.0
2.4666,128.181842,37.930384,6997.434112800001,-74.728,-0.535,356.597,1.0
2.4833,128.181841,37.93043,6997.3518168,-75.458,-0.428,356.105,1.0
2.5,128.181839,37.930476,6997.269216,-76.266,-0.331,355.631,1.0
2.5166,128.181838,37.930522,6997.186615200001,-77.147,-0.249,355.193,1.0
2.5333,128.181836,37.930568,6997.1034048,-78.099,-0.184,354.806,1.0
2.55,128.181834,37.930614,6997.0201944,-79.117,-0.141,354.488,1.0
2.5666,128.181832,37.93066,6996.9360696,-80.199,-0.119,354.253,1.0
2.5833,128.181831,37.930706,6996.8510304,-81.342,-0.121,354.115,1.0
2.6,128.181828,37.930752,6996.7653816,-82.546,-0.14,354.06,1.0
2.6166,128.181826,37.930798,6996.6782088,-83.81,-0.172,354.072,1.0
2.6333,128.181824,37.930845,6996.5898168,-85.132,-0.213,354.136,1.0
2.65,128.181821,37.930891,6996.499596000001,-86.513,-0.259,354.235,1.0
2.6666,128.181819,37.930937,6996.407546400001,-87.953,-0.307,354.354,1.0
2.6833,128.181816,37.930983,6996.3130584,-89.453,-0.355,354.476,1.0
2.7,128.181814,37.931029,6996.2164368,-91.012,-0.402,354.585,1.0
2.7166,128.181811,37.931075,6996.117072,-92.629,-0.448,354.665,1.0
2.7333,128.181808,37.931121,6996.014964000001,-94.305,-0.495,354.706,1.0
2.75,128.181805,37.931167,6995.909808,-96.038,-0.544,354.707,1.0
2.7666,128.181802,37.931213,6995.8012992,-97.826,-0.596,354.672,1.0
2.7833,128.181798,37.931259,6995.6891328,-99.668,-0.652,354.604,1.0
2.8,128.181795,37.931305,6995.573308800001,-101.561,-0.715,354.505,1.0
2.8166,128.181792,37.931351,6995.4535224,-103.503,-0.787,354.377,1.0
2.8333,128.181788,37.931397,6995.329164000001,-105.487,-0.867,354.224,1.0
2.85,128.181785,37.931443,6995.200538400001,-107.491,-0.957,354.047,1.0
2.8666,128.181781,37.93149,6995.0673408,-109.491,-1.058,353.847,1.0
2.8833,128.181777,37.931536,6994.9292663999995,-111.467,-1.17,353.626,1.0
2.9,128.181773,37.931582,6994.786315200001,-113.4,-1.295,353.386,1.0
2.9166,128.181769,37.931628,6994.638182400001,-115.275,-1.434,353.128,1.0
2.9333,128.181765,37.931674,6994.484563200001,-117.076,-1.587,352.854,1.0
2.95,128.181761,37.93172,6994.3254576,-118.793,-1.756,352.566,1.0
2.9666,128.181757,37.931766,6994.161170400001,-120.418,-1.942,352.266,1.0
2.9833,128.181753,37.931812,6993.9907872,-121.942,-2.145,351.956,1.0
3.0,128.181748,37.931858,6993.814308,-123.362,-2.364,351.636,1.0
3.0166,128.181744,37.931904,6993.6320376,-124.672,-2.598,351.312,1.0
3.0333,128.18174,37.93195,6993.4436712,-125.872,-2.841,350.992,1.0
3.05,128.181735,37.931996,6993.2492088,-126.961,-3.09,350.68,1.0
3.0666,128.18173,37.932042,6993.0480408,-127.94,-3.342,350.38,1.0
3.0833,128.181726,37.932088,6992.8398624,-128.862,-3.596,350.097,1.0
3.1,128.181721,37.932134,6992.6246736,-129.707,-3.85,349.83,1.0
3.1166,128.181716,37.93218,6992.402474400001,-130.458,-4.1,349.578,1.0
3.1333,128.181711,37.932226,6992.173264800001,-131.112,-4.345,349.341,1.0
3.15,128.181706,37.932272,6991.93674,-131.672,-4.585,349.118,1.0
3.1666,128.181701,37.932318,6991.693509600001,-132.132,-4.807,348.92,1.0
3.1833,128.181696,37.932365,6991.442964000001,-132.497,-5.0,348.757,1.0
3.2,128.181691,37.932411,6991.1851032,-132.781,-5.15,348.637,1.0
3.2166,128.181686,37.932457,6990.9205368,-132.988,-5.252,348.561,1.0
3.2333,128.18168,37.932503,6990.648655200001,-133.122,-5.307,348.528,1.0
3.25,128.181675,37.932549,6990.370068,-133.183,-5.319,348.538,1.0
3.2666,128.18167,37.932595,6990.0847752,-133.17,-5.295,348.584,1.0
3.2833,128.181664,37.932641,6989.794605600001,-133.259,-5.239,348.692,1.0
3.3,128.181659,37.932687,6989.4971208,-133.447,-5.16,348.851,1.0
3.3166,128.181653,37.932733,6989.1932352,-133.738,-5.065,349.044,1.0
3.3333,128.181647,37.932779,6988.8823392,-134.138,-4.961,349.256,1.0
3.35,128.181641,37.932826,6988.564737600001,-134.648,-4.857,349.472,1.0
3.3666,128.181636,37.932872,6988.2401256,-135.267,-4.754,349.686,1.0
3.3833,128.18163,37.932918,6987.908808,-135.996,-4.656,349.893,1.0
3.4,128.181624,37.932964,6987.57048,-136.831,-4.564,350.091,1.0
3.4166,128.181618,37.93301,6987.225141600001,-137.771,-4.478,350.279,1.0
3.4333,128.181612,37.933056,6986.873097600001,-138.813,-4.399,350.455,1.0
3.45,128.181606,37.933102,6986.513738400001,-139.954,-4.326,350.621,1.0
3.4666,128.1816,37.933148,6986.147368800001,-141.192,-4.261,350.776,1.0
3.4833,128.181594,37.933195,6985.7739888,-142.524,-4.202,350.92,1.0
3.5,128.181587,37.933241,6985.3929888,-143.947,-4.149,351.054,1.0
3.5166,128.181581,37.933287,6985.0049784,-145.458,-4.104,351.178,1.0
3.5333,128.181575,37.933333,6984.609348,-147.054,-4.064,351.293,1.0
3.55,128.181569,37.933379,6984.2064024,-148.734,-4.031,351.399,1.0
3.5666,128.181562,37.933425,6983.795532,-150.492,-4.004,351.497,1.0
3.5833,128.181556,37.933471,6983.3776512,-152.327,-3.982,351.587,1.0
3.6,128.181549,37.933517,6982.9524552,-154.235,-3.967,351.67,1.0
3.6166,128.181543,37.933563,6982.5205536,-156.213,-3.957,351.746,1.0
3.6333,128.181536,37.933609,6982.081336800001,-158.258,-3.96,351.813,1.0
3.65,128.18153,37.933656,6981.635414400001,-160.368,-3.982,351.869,1.0
3.6666,128.181523,37.933702,6981.1821768,-162.539,-4.026,351.916,1.0
3.6833,128.181517,37.933748,6980.7222336,-164.769,-4.094,351.954,1.0
3.7,128.18151,37.933794,6980.25528,-167.056,-4.186,351.985,1.0
3.7166,128.181503,37.93384,6979.781316,-169.396,-4.303,352.011,1.0
3.7333,128.181497,37.933886,6979.3000368,-171.785,-4.443,352.033,1.0
3.75,128.18149,37.933932,6978.8117472,-174.222,-4.606,352.055,1.0
3.7666,128.181483,37.933978,6978.316142400001,-176.701,-4.79,352.079,1.0
3.7833,128.181477,37.934024,6977.8129176,-179.218,-4.996,352.106,1.0
3.8,128.18147,37.93407,6977.3032920000005,178.245,-5.221,352.138,1.0
3.8166,128.181463,37.934116,6976.7863512,175.708,-5.463,352.176,1.0
3.8333,128.181456,37.934162,6976.2627048,173.187,-5.723,352.221,1.0
3.85,128.18145,37.934208,6975.7326576,170.695,-5.997,352.275,1.0
3.8666,128.181443,37.934255,6975.1956,168.246,-6.286,352.339,1.0
3.8833,128.181436,37.934301,6974.651836800001,165.849,-6.587,352.416,1.0
3.9,128.18143,37.934347,6974.101368000001,163.513,-6.9,352.506,1.0
3.9166,128.181423,37.934393,6973.5438888,161.243,-7.222,352.61,1.0
3.9333,128.181416,37.934439,6972.9790944,159.043,-7.551,352.73,1.0
3.95,128.18141,37.934485,6972.4069848,156.914,-7.884,352.865,1.0
3.9666,128.181403,37.934531,6971.827255200001,154.857,-8.219,353.015,1.0
3.9833,128.181396,37.934577,6971.2399056,152.871,-8.552,353.18,1.0
4.0,128.18139,37.934623,6970.6443264,150.955,-8.88,353.357,1.0
4.0166,128.181383,37.93467,6970.039908,149.101,-9.201,353.547,1.0
4.0333,128.181376,37.934716,6969.4269552000005,147.303,-9.511,353.746,1.0
4.05,128.18137,37.934762,6968.805163200001,145.553,-9.807,353.953,1.0
4.0666,128.181363,37.934808,6968.1739224,143.844,-10.089,354.166,1.0
4.0833,128.181357,37.934854,6967.5332328,142.169,-10.355,354.385,1.0
4.1,128.18135,37.9349,6966.8827896,140.522,-10.604,354.606,1.0
4.1166,128.181344,37.934946,6966.222897600001,138.896,-10.837,354.829,1.0
4.1333,128.181338,37.934993,6965.553252000001,137.287,-11.053,355.054,1.0
4.15,128.181332,37.935039,6964.8738528,135.688,-11.254,355.278,1.0
4.1666,128.181325,37.935085,6964.1843952,134.097,-11.438,355.502,1.0
4.1833,128.181319,37.935131,6963.4854888,132.51,-11.608,355.725,1.0
4.2,128.181313,37.935177,6962.776524000001,130.922,-11.764,355.946,1.0
4.2166,128.181307,37.935223,6962.0581104,129.332,-11.906,356.165,1.0
4.2333,128.181302,37.93527,6961.330248,127.737,-12.034,356.383,1.0
4.25,128.181296,37.935316,6960.592936800001,126.134,-12.151,356.598,1.0
4.2666,128.18129,37.935362,6959.846176800001,124.522,-12.255,356.81,1.0
4.2833,128.181285,37.935408,6959.090577600001,122.899,-12.349,357.02,1.0
4.3,128.181279,37.935454,6958.3273584,121.422,-12.43,357.21,1.0
4.3166,128.181274,37.9355,6957.5562144000005,120.086,-12.493,357.365,1.0
4.3333,128.181268,37.935547,6956.777755200001,118.893,-12.531,357.472,1.0
4.35,128.181263,37.935593,6955.9928952,117.843,-12.535,357.52,1.0
4.3666,128.181258,37.935639,6955.201634399999,116.932,-12.502,357.493,1.0
4.3833,128.181253,37.935685,6954.4045824,116.149,-12.445,357.405,1.0
4.4,128.181247,37.935731,6953.6017392,115.484,-12.372,357.273,1.0
4.4166,128.181242,37.935778,6952.793409600001,114.932,-12.291,357.112,1.0
4.4333,128.181237,37.935824,6951.9802032,114.486,-12.208,356.939,1.0
4.45,128.181232,37.93587,6951.162120000001,114.138,-12.131,356.771,1.0
4.4666,128.181227,37.935916,6950.33916,113.887,-12.061,356.612,1.0
4.4833,128.181222,37.935963,6949.511932800001,113.728,-11.997,356.465,1.0
4.5,128.181218,37.936009,6948.6807432,113.66,-11.939,356.327,1.0
4.5166,128.181213,37.936055,6947.8452864,113.679,-11.886,356.2,1.0
4.5333,128.181208,37.936102,6947.0058672000005,113.784,-11.838,356.081,1.0
4.55,128.181203,37.936148,6946.1624856,113.971,-11.795,355.971,1.0
4.5666,128.181198,37.936194,6945.315446400001,114.238,-11.754,355.868,1.0
4.5833,128.181193,37.936241,6944.4644448,114.583,-11.717,355.772,1.0
4.6,128.181188,37.936287,6943.609785600001,115.004,-11.682,355.682,1.0
4.6166,128.181183,37.936333,6942.751164,115.498,-11.65,355.597,1.0
4.6333,128.181178,37.93638,6941.8891896000005,116.063,-11.62,355.517,1.0
4.65,128.181173,37.936426,6941.0235576,116.698,-11.592,355.442,1.0
4.6666,128.181169,37.936473,6940.1545728,117.4,-11.565,355.371,1.0
4.6833,128.181164,37.936519,6939.2819304,118.167,-11.54,355.304,1.0
4.7,128.181159,37.936566,6938.4059352,118.997,-11.516,355.241,1.0
4.7166,128.181154,37.936612,6937.526587200001,119.889,-11.493,355.18,1.0
4.7333,128.181149,37.936659,6936.6438864,120.84,-11.471,355.122,1.0
4.75,128.181144,37.936705,6935.757832800001,121.849,-11.449,355.067,1.0
4.7666,128.181139,37.936752,6934.8687312,122.913,-11.428,355.014,1.0
4.7833,128.181134,37.936798,6933.9762768,124.033,-11.408,354.964,1.0
4.8,128.181129,37.936845,6933.0807744,125.204,-11.389,354.915,1.0
4.8166,128.181125,37.936892,6932.1819192,126.427,-11.369,354.869,1.0
4.8333,128.18112,37.936938,6931.2803208,127.7,-11.35,354.824,1.0
4.85,128.181115,37.936985,6930.3753696,129.02,-11.331,354.781,1.0
4.8666,128.18111,37.937031,6929.4676752,130.387,-11.313,354.739,1.0
4.8833,128.181105,37.937078,6928.5569328,131.8,-11.294,354.699,1.0
4.9,128.1811,37.937125,6927.643142400001,133.256,-11.276,354.659,1.0
4.9166,128.181095,37.937171,6926.726608800001,134.754,-11.257,354.622,1.0
4.9333,128.18109,37.937218,6925.807332,136.294,-11.239,354.585,1.0
4.95,128.181085,37.937265,6924.885312,137.873,-11.22,354.549,1.0
4.9666,128.18108,37.937312,6923.9605488,139.491,-11.202,354.515,1.0
4.9833,128.181075,37.937358,6923.0330424,141.147,-11.183,354.482,1.0
5.0,128.18107,37.937405,6922.1003544000005,142.631,-11.164,354.476,1.0
5.0166,128.181065,37.937452,6921.1643136,143.949,-11.157,354.507,1.0
5.0333,128.18106,37.937499,6920.223396,145.095,-11.181,354.578,1.0
5.05,128.181055,37.937546,6919.277601600001,146.067,-11.252,354.689,1.0
5.0666,128.18105,37.937592,6918.326016,146.864,-11.381,354.843,1.0
5.0833,128.181045,37.937639,6917.3680296,147.49,-11.575,355.039,1.0
5.1,128.18104,37.937686,6916.4036424000005,147.95,-11.823,355.266,1.0
5.1166,128.181035,37.937733,6915.4316352,148.253,-12.114,355.517,1.0
5.1333,128.18103,37.93778,6914.4517032,148.408,-12.432,355.78,1.0
5.15,128.181026,37.937826,6913.4632368,148.423,-12.761,356.047,1.0
5.1666,128.181021,37.937873,6912.4659312,148.307,-13.085,356.308,1.0
5.1833,128.181016,37.93792,6911.458872,148.069,-13.396,356.559,1.0
5.2,128.181012,37.937967,6910.4414496,147.716,-13.694,356.8,1.0
5.2166,128.181007,37.938014,6909.413359200001,147.254,-13.978,357.033,1.0
5.2333,128.181002,37.93806,6908.3739912,146.688,-14.249,357.258,1.0
5.25,128.180998,37.938107,6907.3230408,146.025,-14.508,357.477,1.0
5.2666,128.180994,37.938154,6906.2602032,145.272,-14.74,357.68,1.0
5.2833,128.180989,37.938201,6905.1857832000005,144.436,-14.932,357.858,1.0
5.3,128.180985,37.938248,6904.1000856,143.525,-15.07,358.001,1.0
5.3166,128.180981,37.938294,6903.003720000001,142.545,-15.143,358.096,1.0
5.3333,128.180977,37.938341,6901.8969912,141.503,-15.14,358.133,1.0
5.35,128.180973,37.938388,6900.7798992,140.4,-15.072,358.119,1.0
5.3666,128.180969,37.938434,6899.6527488,139.235,-14.955,358.065,1.0
5.3833,128.180965,37.938481,6898.5161496,138.007,-14.806,357.98,1.0
5.4,128.180961,37.938528,6897.370406400001,136.714,-14.638,357.877,1.0
5.4166,128.180957,37.938575,6896.2167384,135.439,-14.471,357.763,1.0
5.4333,128.180953,37.938621,6895.0551456,134.193,-14.319,357.652,1.0
5.45,128.18095,37.938668,6893.885932800001,132.982,-14.193,357.557,1.0
5.4666,128.180946,37.938715,6892.710014400001,131.804,-14.104,357.494,1.0
5.4833,128.180942,37.938761,6891.5267808,130.66,-14.059,357.475,1.0
5.5,128.180939,37.938808,6890.3371464,129.547,-14.063,357.511,1.0
5.5166,128.180935,37.938855,6889.140501600001,128.461,-14.121,357.613,1.0
5.5333,128.180932,37.938901,6887.937456000001,127.397,-14.237,357.791,1.0
5.55,128.180929,37.938948,6886.7277048000005,126.351,-14.41,358.049,1.0
5.5666,128.180925,37.938995,6885.510638400001,125.32,-14.627,358.377,1.0
5.5833,128.180922,37.939041,6884.286256800001,124.304,-14.879,358.766,1.0
5.6,128.180919,37.939088,6883.056084000001,123.405,-15.169,359.193,1.0
5.6166,128.180916,37.939135,6881.8182912,122.621,-15.489,359.647,1.0
5.6333,128.180913,37.939181,6880.573488000001,121.959,-15.82,0.115,1.0
5.65,128.18091,37.939228,6879.3213696,121.428,-16.149,0.581,1.0
5.6666,128.180907,37.939275,6878.061936,121.03,-16.461,1.031,1.0
5.6833,128.180904,37.939321,6876.792444,120.571,-16.726,1.46,1.0
5.7,128.180902,37.939368,6875.5147224,120.057,-16.933,1.849,1.0
5.7166,128.180899,37.939415,6874.229076,119.485,-17.084,2.176,1.0
5.7333,128.180897,37.939461,6872.935504800001,118.852,-17.177,2.42,1.0
5.75,128.180894,37.939508,6871.6343136000005,118.16,-17.21,2.56,1.0
5.7666,128.180892,37.939555,6870.325197600001,117.417,-17.179,2.582,1.0
5.7833,128.18089,37.939601,6869.0087664,116.617,-17.096,2.499,1.0
5.8,128.180888,37.939648,6867.684715200001,115.758,-16.972,2.33,1.0
5.8166,128.180886,37.939695,6866.3536536,114.837,-16.818,2.092,1.0
5.8333,128.180884,37.939741,6865.015581600001,113.847,-16.645,1.806,1.0
5.85,128.180882,37.939788,6863.670804,112.786,-16.462,1.49,1.0
5.8666,128.180881,37.939834,6862.3199304,111.647,-16.28,1.163,1.0
5.8833,128.180879,37.939881,6860.962656000001,110.427,-16.108,0.844,1.0
5.9,128.180878,37.939928,6859.5998952,109.122,-15.951,0.553,1.0
5.9166,128.180876,37.939974,6858.2319528,107.727,-15.818,0.31,1.0
5.9333,128.180875,37.940021,6856.858524,106.244,-15.709,0.119,1.0
5.95,128.180874,37.940068,6855.480523200001,104.678,-15.62,359.974,1.0
5.9666,128.180872,37.940114,6854.097950400001,103.035,-15.546,359.861,1.0
5.9833,128.180871,37.940161,6852.7111104000005,101.322,-15.484,359.77,1.0
6.0,128.18087,37.940207,6851.3200032,99.544,-15.43,359.695,1.0
6.0166,128.180869,37.940254,6849.924933600001,97.708,-15.382,359.63,1.0
6.0333,128.180869,37.940301,6848.526206400001,95.817,-15.34,359.573,1.0
6.05,128.180868,37.940347,6847.1241264,93.875,-15.301,359.523,1.0
6.0666,128.180867,37.940394,6845.7186936,91.885,-15.266,359.479,1.0
6.0833,128.180866,37.94044,6844.3102128,89.851,-15.235,359.439,1.0
6.1,128.180866,37.940487,6842.898684000001,87.776,-15.205,359.403,1.0
6.1166,128.180865,37.940534,6841.484412,85.663,-15.178,359.371,1.0
6.1333,128.180865,37.94058,6840.067701600001,83.513,-15.153,359.342,1.0
6.15,128.180864,37.940627,6838.6485528,81.329,-15.13,359.316,1.0
6.1666,128.180864,37.940674,6837.2275752,79.114,-15.109,359.292,1.0
6.1833,128.180864,37.94072,6835.8041592,76.869,-15.089,359.27,1.0
6.2,128.180863,37.940767,6834.379524000001,74.596,-15.07,359.25,1.0
6.2166,128.180863,37.940814,6832.953060000001,72.297,-15.052,359.232,1.0
6.2333,128.180863,37.94086,6831.525072,69.975,-15.036,359.214,1.0
6.25,128.180863,37.940907,6830.0961696,67.63,-15.021,359.198,1.0
6.2666,128.180863,37.940954,6828.666048,65.264,-15.007,359.183,1.0
6.2833,128.180863,37.941,6827.235012,62.88,-14.994,359.169,1.0
6.3,128.180863,37.941047,6825.8036712,60.48,-14.982,359.155,1.0
6.3166,128.180863,37.941094,6824.371416,58.063,-14.971,359.141,1.0
6.3333,128.180863,37.94114,6822.9391608000005,55.633,-14.962,359.128,1.0
6.35,128.180863,37.941187,6821.5066008,53.19,-14.953,359.115,1.0
6.3666,128.180864,37.941234,6820.0743456,50.736,-14.946,359.102,1.0
6.3833,128.180864,37.941281,6818.642090400001,48.273,-14.94,359.089,1.0
6.4,128.180864,37.941328,6817.2104448,45.801,-14.936,359.075,1.0
6.4166,128.180864,37.941374,6815.779104,43.322,-14.933,359.062,1.0
6.4333,128.180865,37.941421,6814.3486776,40.836,-14.931,359.049,1.0
6.45,128.180865,37.941468,6812.919165600001,38.346,-14.931,359.036,1.0
6.4666,128.180866,37.941515,6811.490568,35.851,-14.932,359.023,1.0
6.4833,128.180866,37.941562,6810.0631896,33.352,-14.935,359.01,1.0
6.5,128.180867,37.941608,6808.6373352,30.851,-14.94,358.996,1.0
6.5166,128.180867,37.941655,6807.2127,28.348,-14.946,358.983,1.0
6.5333,128.180868,37.941702,6805.7898936,25.844,-14.954,358.97,1.0
6.55,128.180868,37.941749,6804.368915999999,23.34,-14.964,358.958,1.0
6.5666,128.180869,37.941796,6802.9494624,20.835,-14.975,358.945,1.0
6.5833,128.18087,37.941843,6801.5321424,18.33,-14.988,358.933,1.0
6.6,128.18087,37.94189,6800.117260800001,15.826,-15.003,358.922,1.0
6.6166,128.180871,37.941937,6798.704208,13.323,-15.019,358.911,1.0
6.6333,128.180872,37.941984,6797.2932888,10.822,-15.037,358.901,1.0
6.65,128.180872,37.942031,6795.885112800001,8.321,-15.056,358.891,1.0
6.6666,128.180873,37.942078,6794.479070400001,5.823,-15.077,358.883,1.0
6.6833,128.180874,37.942125,6793.0754664,3.326,-15.099,358.875,1.0
6.7,128.180874,37.942172,6791.6743008,0.831,-15.122,358.868,1.0
6.7166,128.180875,37.942219,6790.275573600001,-1.661,-15.146,358.863,1.0
6.7333,128.180876,37.942266,6788.8795896,-4.152,-15.172,358.858,1.0
6.75,128.180876,37.942313,6787.484824800001,-6.435,-15.196,358.881,1.0
6.7666,128.180877,37.942361,6786.091584000001,-8.522,-15.218,358.93,1.0
6.7833,128.180877,37.942408,6784.6992576,-10.402,-15.238,358.997,1.0
6.8,128.180878,37.942455,6783.3075408,-12.068,-15.257,359.072,1.0
6.8166,128.180879,37.942502,6781.9161288000005,-13.521,-15.275,359.149,1.0
6.8333,128.180879,37.942549,6780.524412,-14.764,-15.292,359.224,1.0
6.85,128.18088,37.942596,6779.1323904,-15.805,-15.307,359.296,1.0
6.8666,128.18088,37.942644,6777.7391496,-16.653,-15.321,359.366,1.0
6.8833,128.180881,37.942691,6776.3446896,-17.319,-15.333,359.433,1.0
6.9,128.180882,37.942738,6774.948400800001,-17.811,-15.345,359.499,1.0
6.9166,128.180882,37.942785,6773.550283200001,-18.137,-15.354,359.562,1.0
6.9333,128.180883,37.942833,6772.1494224,-18.305,-15.363,359.623,1.0
6.95,128.180883,37.94288,6770.745818400001,-18.324,-15.372,359.683,1.0
6.9666,128.180884,37.942927,6769.3388616,-18.199,-15.38,359.741,1.0
6.9833,128.180884,37.942975,6767.928552000001,-17.938,-15.388,359.798,1.0
7.0,128.180885,37.943022,6766.5139752,-17.547,-15.396,359.853,1.0
7.0166,128.180885,37.943069,6765.0951312,-17.033,-15.405,359.906,1.0
7.0333,128.180886,37.943117,6763.672020000001,-16.401,-15.414,359.958,1.0
7.05,128.180886,37.943164,6762.2446416,-15.656,-15.425,0.009,1.0
7.0666,128.180887,37.943212,6760.812691200001,-14.805,-15.436,0.059,1.0
7.0833,128.180887,37.943259,6759.376778400001,-13.853,-15.449,0.107,1.0
7.1,128.180888,37.943306,6757.9365984,-12.803,-15.462,0.154,1.0
7.1166,128.180889,37.943354,6756.4918464,-11.662,-15.477,0.199,1.0
7.1333,128.180889,37.943401,6755.043132000001,-10.434,-15.493,0.244,1.0
7.15,128.18089,37.943449,6753.5901504,-9.122,-15.511,0.287,1.0
7.1666,128.18089,37.943496,6752.132596800001,-7.731,-15.53,0.328,1.0
7.1833,128.180891,37.943544,6750.6710808,-6.265,-15.55,0.369,1.0
7.2,128.180891,37.943591,6749.2052976,-4.727,-15.572,0.408,1.0
7.2166,128.180892,37.943639,6747.735552000001,-3.12,-15.596,0.446,1.0
7.2333,128.180892,37.943686,6746.2612344,-1.449,-15.621,0.482,1.0
7.25,128.180893,37.943734,6744.782954400001,0.283,-15.647,0.517,1.0
7.2666,128.180894,37.943782,6743.300407199999,2.075,-15.675,0.551,1.0
7.2833,128.180894,37.943829,6741.813592800001,3.923,-15.704,0.582,1.0
7.3,128.180895,37.943877,6740.322816,5.824,-15.735,0.613,1.0
7.3166,128.180895,37.943924,6738.827772000001,7.776,-15.768,0.641,1.0
7.3333,128.180896,37.943972,6737.328765600001,9.777,-15.801,0.668,1.0
7.35,128.180896,37.94402,6735.825492000001,11.824,-15.836,0.693,1.0
7.3666,128.180897,37.944067,6734.3182560000005,13.914,-15.873,0.717,1.0
7.3833,128.180897,37.944115,6732.8070576,16.047,-15.91,0.738,1.0
7.4,128.180898,37.944163,6731.2918968,18.22,-15.949,0.758,1.0
7.4166,128.180898,37.944211,6729.772773600001,20.432,-15.988,0.775,1.0
7.4333,128.180899,37.944258,6728.249383200001,22.679,-16.029,0.791,1.0
7.45,128.1809,37.944306,6726.7223352,24.962,-16.071,0.804,1.0
7.4666,128.1809,37.944354,6725.191324800001,27.279,-16.113,0.816,1.0
7.4833,128.180901,37.944402,6723.656352000001,29.627,-16.156,0.825,1.0
7.5,128.180901,37.944449,6722.1174168,32.007,-16.2,0.832,1.0
7.5166,128.180902,37.944497,6720.574824,34.416,-16.244,0.837,1.0
7.5333,128.180902,37.944545,6719.028268800001,36.853,-16.289,0.839,1.0
7.55,128.180903,37.944593,6717.478056000001,39.317,-16.333,0.84,1.0
7.5666,128.180903,37.944641,6715.9241856,41.808,-16.378,0.838,1.0
7.5833,128.180904,37.944689,6714.3663528,44.323,-16.423,0.834,1.0
7.6,128.180904,37.944737,6712.8048624,46.863,-16.468,0.828,1.0
7.6166,128.180905,37.944784,6711.2400192000005,49.427,-16.513,0.82,1.0
7.6333,128.180905,37.944832,6709.671213600001,52.012,-16.557,0.809,1.0
7.65,128.180905,37.94488,6708.0987504,54.62,-16.601,0.797,1.0
7.6666,128.180906,37.944928,6706.5226296,57.248,-16.644,0.782,1.0
7.6833,128.180906,37.944976,6704.943156,59.897,-16.687,0.766,1.0
7.7,128.180907,37.945024,6703.360024800001,62.565,-16.728,0.748,1.0
7.7166,128.180907,37.945072,6701.7735408,65.252,-16.769,0.727,1.0
7.7333,128.180908,37.94512,6700.183704,67.957,-16.809,0.706,1.0
7.75,128.180908,37.945168,6698.590209600001,70.68,-16.848,0.682,1.0
7.7666,128.180908,37.945216,6696.9933624000005,73.42,-16.885,0.657,1.0
7.7833,128.180909,37.945264,6695.3928576,76.176,-16.921,0.631,1.0
7.8,128.180909,37.945313,6693.7893048000005,78.949,-16.956,0.603,1.0
7.8166,128.18091,37.945361,6692.182704,81.737,-16.99,0.574,1.0
7.8333,128.18091,37.945409,6690.572445600001,84.539,-17.022,0.544,1.0
7.85,128.18091,37.945457,6688.9591392,87.357,-17.053,0.513,1.0
7.8666,128.180911,37.945505,6687.3427848,90.188,-17.082,0.481,1.0
7.8833,128.180911,37.945553,6685.723077600001,93.033,-17.11,0.448,1.0
7.9,128.180911,37.945601,6684.1006272,95.89,-17.136,0.415,1.0
7.9166,128.180912,37.94565,6682.474824000001,98.76,-17.161,0.381,1.0
7.9333,128.180912,37.945698,6680.846277600001,101.643,-17.184,0.346,1.0
7.95,128.180912,37.945746,6679.214988000001,104.537,-17.205,0.311,1.0
7.9666,128.180912,37.945794,6677.5803456,107.442,-17.225,0.276,1.0
7.9833,128.180913,37.945843,6675.9432648,110.358,-17.244,0.24,1.0
8.0,128.180913,37.945891,6674.3019168,113.027,-17.25,0.229,1.0
8.0166,128.180913,37.945939,6672.6575207999995,115.454,-17.254,0.261,1.0
8.0333,128.180913,37.945988,6671.009772,117.631,-17.274,0.347,1.0
8.05,128.180914,37.946036,6669.358060800001,119.554,-17.328,0.499,1.0
8.0666,128.180914,37.946084,6667.702387200001,121.224,-17.425,0.723,1.0
8.0833,128.180915,37.946132,6666.041532,122.647,-17.578,1.026,1.0
8.1,128.180915,37.946181,6664.3751904,123.83,-17.791,1.413,1.0
8.1166,128.180916,37.946229,6662.7027528,124.788,-18.057,1.869,1.0
8.1333,128.180916,37.946277,6661.0233048,125.536,-18.368,2.377,1.0
8.15,128.180917,37.946326,6659.336236800001,126.085,-18.713,2.924,1.0
8.1666,128.180918,37.946374,6657.6409392,126.452,-19.078,3.489,1.0
8.1833,128.180919,37.946422,6655.936497600001,126.674,-19.451,4.052,1.0
8.2,128.18092,37.94647,6654.221692800001,126.757,-19.806,4.602,1.0
8.2166,128.180921,37.946519,6652.496524800001,126.717,-20.129,5.121,1.0
8.2333,128.180922,37.946567,6650.7612984,126.576,-20.411,5.586,1.0
8.25,128.180924,37.946615,6649.0150992,126.325,-20.65,5.993,1.0
8.2666,128.180925,37.946663,6647.2585368,126.004,-20.858,6.35,1.0
8.2833,128.180927,37.946711,6645.491916,125.672,-21.05,6.668,1.0
8.3,128.180929,37.946759,6643.7146272,125.364,-21.234,6.957,1.0
8.3166,128.18093,37.946807,6641.92728,125.093,-21.412,7.227,1.0
8.3333,128.180932,37.946855,6640.129569600001,124.866,-21.584,7.482,1.0
8.35,128.180935,37.946903,6638.3218008,124.69,-21.752,7.726,1.0
8.3666,128.180937,37.946951,6636.504278400001,124.576,-21.917,7.96,1.0
8.3833,128.180939,37.946999,6634.6773072,124.532,-22.084,8.181,1.0
8.4,128.180942,37.947047,6632.840887200001,124.575,-22.254,8.389,1.0
8.4166,128.180945,37.947095,6630.9947136,124.715,-22.425,8.586,1.0
8.4333,128.180947,37.947142,6629.138786400001,124.918,-22.594,8.775,1.0
8.45,128.18095,37.94719,6627.273410400001,125.178,-22.76,8.958,1.0
8.4666,128.180953,37.947238,6625.397976,125.49,-22.923,9.135,1.0
8.4833,128.180956,37.947286,6623.512483200001,125.849,-23.082,9.308,1.0
8.5,128.18096,37.947334,6621.6166272,126.249,-23.238,9.476,1.0
8.5166,128.180963,37.947381,6619.710408,126.685,-23.391,9.639,1.0
8.5333,128.180966,37.947429,6617.7938256,127.152,-23.544,9.798,1.0
8.55,128.18097,37.947476,6615.8665752,127.644,-23.694,9.952,1.0
8.5666,128.180974,37.947524,6613.928352000001,128.16,-23.844,10.102,1.0
8.5833,128.180978,37.947572,6611.979460800001,128.696,-23.994,10.248,1.0
8.6,128.180982,37.947619,6610.019292000001,129.248,-24.143,10.391,1.0
8.6166,128.180986,37.947666,6608.048150400001,129.813,-24.293,10.53,1.0
8.6333,128.18099,37.947714,6606.0657312,130.39,-24.443,10.666,1.0
8.65,128.180994,37.947761,6604.071729599999,130.976,-24.593,10.799,1.0
8.6666,128.180999,37.947809,6602.066145600001,131.569,-24.745,10.929,1.0
8.6833,128.181003,37.947856,6600.048674400001,132.167,-24.897,11.056,1.0
8.7,128.181008,37.947903,6598.0196208,132.769,-25.05,11.181,1.0
8.7166,128.181013,37.94795,6595.97868,133.374,-25.205,11.303,1.0
8.7333,128.181018,37.947997,6593.9255472,133.979,-25.36,11.423,1.0
8.75,128.181023,37.948044,6591.860222400001,134.585,-25.517,11.541,1.0
8.7666,128.181028,37.948091,6589.782400800001,135.19,-25.676,11.656,1.0
8.7833,128.181033,37.948138,6587.692387200001,135.793,-25.836,11.77,1.0
8.8,128.181039,37.948185,6585.589876800001,136.393,-25.998,11.881,1.0
8.8166,128.181044,37.948232,6583.474564800001,136.99,-26.161,11.99,1.0
8.8333,128.18105,37.948279,6581.346451200001,137.582,-26.326,12.097,1.0
8.85,128.181056,37.948326,6579.2058408,138.17,-26.492,12.203,1.0
8.8666,128.181061,37.948373,6577.051819200001,138.753,-26.66,12.306,1.0
8.8833,128.181067,37.948419,6574.884996000001,139.33,-26.83,12.408,1.0
8.9,128.181073,37.948466,6572.7050664,139.901,-27.001,12.507,1.0
8.9166,128.18108,37.948513,6570.5120304,140.465,-27.174,12.605,1.0
8.9333,128.181086,37.948559,6568.305583200001,141.023,-27.348,12.701,1.0
8.95,128.181092,37.948606,6566.085724800001,141.574,-27.524,12.795,1.0
8.9666,128.181099,37.948652,6563.852455200001,142.118,-27.701,12.888,1.0
8.9833,128.181105,37.948698,6561.605774400001,142.656,-27.88,12.979,1.0
9.0,128.181112,37.948745,6559.345377600001,143.187,-28.06,13.068,1.0
9.0166,128.181119,37.948791,6557.071264800001,143.71,-28.241,13.155,1.0
9.0333,128.181126,37.948837,6554.7837408000005,144.225,-28.424,13.24,1.0
9.05,128.181133,37.948883,6552.4818912,144.732,-28.608,13.324,1.0
9.0666,128.18114,37.948929,6550.1666304,145.23,-28.793,13.406,1.0
9.0833,128.181147,37.948975,6547.837044,145.719,-28.979,13.487,1.0
9.1,128.181154,37.949021,6545.4937416,146.2,-29.166,13.566,1.0
9.1166,128.181161,37.949067,6543.1361136000005,146.673,-29.355,13.643,1.0
9.1333,128.181169,37.949113,6540.7644648000005,147.137,-29.544,13.719,1.0
9.15,128.181176,37.949159,6538.3787952,147.592,-29.734,13.793,1.0
9.1666,128.181184,37.949204,6535.978800000001,148.039,-29.926,13.865,1.0
9.1833,128.181192,37.94925,6533.564479200001,148.478,-30.118,13.936,1.0
9.2,128.181199,37.949296,6531.135832800001,148.909,-30.311,14.005,1.0
9.2166,128.181207,37.949341,6528.692860800001,149.332,-30.504,14.073,1.0
9.2333,128.181215,37.949386,6526.2352584,149.746,-30.698,14.139,1.0
9.25,128.181223,37.949432,6523.7633304,150.151,-30.893,14.204,1.0
9.2666,128.181231,37.949477,6521.2779912000005,150.637,-31.092,14.26,1.0
9.2833,128.181239,37.949522,6518.7786312,151.198,-31.295,14.308,1.0
9.3,128.181247,37.949568,6516.2661648,151.822,-31.499,14.35,1.0
9.3166,128.181256,37.949613,6513.7399824,152.496,-31.703,14.391,1.0
9.3333,128.181264,37.949658,6511.200084000001,153.206,-31.907,14.432,1.0
9.35,128.181272,37.949703,6508.645555200001,153.939,-32.11,14.473,1.0
9.3666,128.181281,37.949748,6506.076396,154.681,-32.312,14.514,1.0
9.3833,128.181289,37.949792,6503.492606400001,155.421,-32.514,14.556,1.0
9.4,128.181298,37.949837,6500.8938816,156.15,-32.716,14.596,1.0
9.4166,128.181307,37.949882,6498.2799168,156.86,-32.919,14.635,1.0
9.4333,128.181315,37.949927,6495.650712,157.545,-33.122,14.673,1.0
9.45,128.181324,37.949971,6493.0059624,158.204,-33.326,14.708,1.0
9.4666,128.181333,37.950016,6490.345972800001,158.831,-33.531,14.742,1.0
9.4833,128.181342,37.95006,6487.6704384,159.427,-33.738,14.773,1.0
9.5,128.181351,37.950104,6484.9793592000005,159.99,-33.946,14.803,1.0
9.5166,128.18136,37.950149,6482.2724304,160.521,-34.154,14.83,1.0
9.5333,128.181369,37.950193,6479.5499568000005,161.02,-34.364,14.855,1.0
9.55,128.181378,37.950237,6476.811938400001,161.489,-34.575,14.877,1.0
9.5666,128.181387,37.950281,6474.0583752,161.931,-34.787,14.898,1.0
9.5833,128.181396,37.950325,6471.2889624,162.345,-34.999,14.916,1.0
9.6,128.181406,37.950369,6468.5037,162.735,-35.212,14.933,1.0
9.6166,128.181415,37.950413,6465.702892800001,163.101,-35.425,14.947,1.0
9.6333,128.181424,37.950456,6462.8865408,163.446,-35.638,14.96,1.0
9.65,128.181433,37.9505,6460.0543392,163.772,-35.852,14.97,1.0
9.6666,128.181443,37.950543,6457.206288,164.08,-36.065,14.98,1.0
9.6833,128.181452,37.950587,6454.342692,164.371,-36.278,14.989,1.0
9.7,128.181462,37.95063,6451.463246400001,164.646,-36.49,14.996,1.0
9.7166,128.181471,37.950674,6448.5682560000005,164.907,-36.702,15.003,1.0
9.7333,128.181481,37.950717,6445.657416,165.154,-36.913,15.009,1.0
9.75,128.18149,37.95076,6442.7307264,165.387,-37.124,15.015,1.0
9.7666,128.1815,37.950803,6439.788492000001,165.608,-37.334,15.021,1.0
9.7833,128.181509,37.950846,6436.830408,165.816,-37.544,15.026,1.0
9.8,128.181519,37.950889,6433.8564744000005,166.013,-37.753,15.03,1.0
9.8166,128.181529,37.950932,6430.866996000001,166.199,-37.961,15.035,1.0
9.8333,128.181538,37.950974,6427.8616680000005,166.374,-38.169,15.039,1.0
9.85,128.181548,37.951017,6424.840795200001,166.539,-38.376,15.043,1.0
9.8666,128.181558,37.95106,6421.8040728000005,166.695,-38.582,15.047,1.0
9.8833,128.181568,37.951102,6418.751500800001,166.842,-38.787,15.051,1.0
9.9,128.181578,37.951144,6415.683384000001,166.982,-38.992,15.055,1.0
9.9166,128.181587,37.951187,6412.5997224,167.115,-39.197,15.059,1.0
9.9333,128.181597,37.951229,6409.500516,167.241,-39.4,15.062,1.0
9.95,128.181607,37.951271,6406.38546,167.362,-39.603,15.066,1.0
9.9666,128.181617,37.951313,6403.2548592,167.477,-39.806,15.07,1.0
9.9833,128.181627,37.951355,6400.108713600001,167.588,-40.007,15.074,1.0
10.0,128.181637,37.951397,6396.9467184000005,167.695,-40.209,15.078,1.0
10.0166,128.181647,37.951439,6393.769483200001,167.798,-40.409,15.082,1.0
10.0333,128.181657,37.95148,6390.5767032,167.899,-40.609,15.086,1.0
10.05,128.181667,37.951522,6387.3683784,167.996,-40.809,15.09,1.0
10.0666,128.181677,37.951563,6384.1445088,168.09,-41.008,15.094,1.0
10.0833,128.181687,37.951605,6380.9050944,168.183,-41.206,15.099,1.0
10.1,128.181697,37.951646,6377.6501352000005,168.273,-41.404,15.103,1.0
10.1166,128.181707,37.951687,6374.379936,168.361,-41.602,15.108,1.0
10.1333,128.181717,37.951729,6371.0941920000005,168.447,-41.799,15.113,1.0
10.15,128.181727,37.95177,6367.7929032,168.531,-41.996,15.118,1.0
10.1666,128.181737,37.951811,6364.476374400001,168.613,-42.192,15.124,1.0
10.1833,128.181747,37.951851,6361.1446056,168.695,-42.388,15.131,1.0
10.2,128.181757,37.951892,6357.797292,168.775,-42.583,15.139,1.0
10.2166,128.181767,37.951933,6354.4344336,168.853,-42.777,15.149,1.0
10.2333,128.181778,37.951974,6351.0563352,168.93,-42.972,15.159,1.0
10.25,128.181788,37.952014,6347.662996800001,169.005,-43.165,15.171,1.0
10.2666,128.181798,37.952054,6344.254418400001,169.078,-43.359,15.183,1.0
10.2833,128.181808,37.952095,6340.8306,169.15,-43.552,15.197,1.0
10.3,128.181818,37.952135,6337.3912368,169.22,-43.745,15.211,1.0
10.3166,128.181829,37.952175,6333.936938400001,169.288,-43.937,15.227,1.0
10.3333,128.181839,37.952215,6330.467095200001,169.354,-44.129,15.244,1.0
10.35,128.181849,37.952255,6326.9823168,169.419,-44.321,15.262,1.0
10.3666,128.181859,37.952295,6323.4822984,169.481,-44.512,15.281,1.0
10.3833,128.18187,37.952335,6319.96704,169.542,-44.703,15.301,1.0
10.4,128.18188,37.952374,6316.436846400001,169.601,-44.894,15.322,1.0
10.4166,128.18189,37.952414,6312.8914128,169.658,-45.084,15.345,1.0
10.4333,128.1819,37.952453,6309.3307392,169.713,-45.275,15.369,1.0
10.45,128.181911,37.952492,6305.7551304,169.766,-45.465,15.393,1.0
10.4666,128.181921,37.952532,6302.1645864,169.817,-45.654,15.419,1.0
10.4833,128.181931,37.952571,6298.5588024,169.867,-45.844,15.446,1.0
10.5,128.181942,37.95261,6294.938083200001,169.914,-46.033,15.474,1.0
10.5166,128.181952,37.952649,6291.302428800001,169.959,-46.222,15.503,1.0
10.5333,128.181962,37.952688,6287.6518392,170.002,-46.411,15.532,1.0
10.55,128.181973,37.952726,6283.9863144,170.044,-46.6,15.561,1.0
10.5666,128.181983,37.952765,6280.3058544000005,170.083,-46.789,15.59,1.0
10.5833,128.181993,37.952804,6276.6104592,170.12,-46.978,15.62,1.0
10.6,128.182004,37.952842,6272.900433600001,170.156,-47.167,15.649,1.0
10.6166,128.182014,37.95288,6269.1754728000005,170.19,-47.356,15.678,1.0
10.6333,128.182024,37.952919,6265.4355768000005,170.223,-47.544,15.708,1.0
10.65,128.182035,37.952957,6261.6810504000005,170.255,-47.733,15.738,1.0
10.6666,128.182045,37.952995,6257.9118935999995,170.285,-47.922,15.768,1.0
10.6833,128.182055,37.953033,6254.127801600001,170.315,-48.11,15.798,1.0
10.7,128.182066,37.95307,6250.329384000001,170.343,-48.299,15.829,1.0
10.7166,128.182076,37.953108,6246.5160312,170.37,-48.487,15.859,1.0
10.7333,128.182086,37.953146,6242.688048,170.396,-48.675,15.89,1.0
10.75,128.182097,37.953183,6238.8454344,170.421,-48.863,15.921,1.0
10.7666,128.182107,37.95322,6234.9881904,170.445,-49.052,15.952,1.0
10.7833,128.182118,37.953258,6231.1166207999995,170.469,-49.24,15.984,1.0
10.8,128.182128,37.953295,6227.2304208,170.491,-49.428,16.016,1.0
10.8166,128.182138,37.953332,6223.329590400001,170.512,-49.616,16.048,1.0
10.8333,128.182149,37.953369,6219.4144344,170.532,-49.804,16.08,1.0
10.85,128.182159,37.953406,6215.4849527999995,170.551,-49.992,16.112,1.0
10.8666,128.182169,37.953442,6211.5408408,170.569,-50.18,16.145,1.0
10.8833,128.18218,37.953479,6207.582708,170.587,-50.368,16.178,1.0
10.9,128.18219,37.953516,6203.6099448,170.603,-50.556,16.211,1.0
10.9166,128.182201,37.953552,6199.622856000001,170.618,-50.744,16.245,1.0
10.9333,128.182211,37.953588,6195.6214416,170.632,-50.932,16.278,1.0
10.95,128.182221,37.953624,6191.6057016,170.646,-51.12,16.312,1.0
10.9666,128.182232,37.95366,6187.5759408,170.658,-51.308,16.347,1.0
10.9833,128.182242,37.953696,6183.5318544,170.669,-51.495,16.381,1.0
11.0,128.182252,37.953732,6179.473747200001,170.68,-51.683,16.416,1.0
11.0166,128.182263,37.953768,6175.4013144,170.689,-51.871,16.451,1.0
11.0333,128.182273,37.953804,6171.314860800001,170.698,-52.059,16.487,1.0
11.05,128.182283,37.953839,6167.2143864,170.706,-52.247,16.522,1.0
11.0666,128.182294,37.953874,6163.099586400001,170.712,-52.434,16.558,1.0
11.0833,128.182304,37.95391,6158.971070400001,170.718,-52.622,16.595,1.0
11.1,128.182314,37.953945,6154.828533600001,170.723,-52.81,16.632,1.0
11.1166,128.182325,37.95398,6150.671976,170.727,-52.998,16.669,1.0
11.1333,128.182335,37.954015,6146.501397600001,170.73,-53.185,16.706,1.0
11.15,128.182345,37.95405,6142.3171032,170.732,-53.373,16.744,1.0
11.1666,128.182356,37.954084,6138.118788000001,170.733,-53.561,16.782,1.0
11.1833,128.182366,37.954119,6133.906756800001,170.733,-53.748,16.82,1.0
11.2,128.182376,37.954153,6129.681009600001,170.733,-53.936,16.859,1.0
11.2166,128.182386,37.954188,6125.4415464,170.731,-54.124,16.898,1.0
11.2333,128.182397,37.954222,6121.1880624,170.729,-54.311,16.938,1.0
11.25,128.182407,37.954256,6116.9211672,170.726,-54.499,16.978,1.0
11.2666,128.182417,37.95429,6112.6402512,170.722,-54.687,17.018,1.0
11.2833,128.182428,37.954324,6108.346228800001,170.717,-54.874,17.059,1.0
11.3,128.182438,37.954357,6104.0381856,170.711,-55.062,17.1,1.0
11.3166,128.182448,37.954391,6099.7167312,170.704,-55.25,17.142,1.0
11.3333,128.182458,37.954425,6095.381865600001,170.696,-55.437,17.183,1.0
11.35,128.182469,37.954458,6091.033284000001,170.688,-55.625,17.226,1.0
11.3666,128.182479,37.954491,6086.671596,170.678,-55.813,17.269,1.0
11.3833,128.182489,37.954524,6082.296192000001,170.668,-56.0,17.312,1.0
11.4,128.182499,37.954557,6077.9073768,170.656,-56.188,17.356,1.0
11.4166,128.182509,37.95459,6073.5054552,170.644,-56.375,17.4,1.0
11.4333,128.18252,37.954623,6069.0901224,170.631,-56.563,17.444,1.0
11.45,128.18253,37.954656,6064.661378400001,170.617,-56.75,17.489,1.0
11.4666,128.18254,37.954688,6060.2195280000005,170.602,-56.938,17.535,1.0
11.4833,128.18255,37.95472,6055.7642663999995,170.587,-57.125,17.581,1.0
11.5,128.18256,37.954753,6051.2962032,170.57,-57.313,17.628,1.0
11.5166,128.18257,37.954785,6046.814728800001,170.553,-57.5,17.675,1.0
11.5333,128.18258,37.954817,6042.320148,170.535,-57.687,17.722,1.0
11.55,128.182591,37.954849,6037.812765600001,170.515,-57.875,17.77,1.0
11.5666,128.182601,37.95488,6033.291972,170.495,-58.062,17.819,1.0
11.5833,128.182611,37.954912,6028.7586816,170.474,-58.25,17.868,1.0
11.6,128.182621,37.954944,6024.21198,170.453,-58.437,17.918,1.0
11.6166,128.182631,37.954975,6019.6524768,170.43,-58.624,17.968,1.0
11.6333,128.182641,37.955006,6015.0804768,170.406,-58.812,18.019,1.0
11.65,128.182651,37.955037,6010.495065600001,170.382,-58.999,18.07,1.0
11.6666,128.182661,37.955068,6005.8971576,170.357,-59.186,18.122,1.0
11.6833,128.182671,37.955099,6001.2867528,170.33,-59.374,18.175,1.0
11.7,128.182681,37.95513,5996.6632416,170.303,-59.561,18.228,1.0
11.7166,128.182691,37.95516,5992.027233600001,170.275,-59.748,18.282,1.0
11.7333,128.182701,37.955191,5987.378424,170.246,-59.936,18.336,1.0
11.75,128.182711,37.955221,5982.7171176,170.217,-60.123,18.391,1.0
11.7666,128.182721,37.955251,5978.043314400001,170.186,-60.31,18.447,1.0
11.7833,128.182731,37.955282,5973.356709600001,170.154,-60.497,18.503,1.0
11.8,128.182741,37.955311,5968.6579128,170.122,-60.685,18.561,1.0
11.8166,128.182751,37.955341,5963.946619200001,170.088,-60.872,18.618,1.0
11.8333,128.18276,37.955371,5959.222828800001,170.054,-61.059,18.677,1.0
11.85,128.18277,37.9554,5954.4865416,170.018,-61.246,18.736,1.0
11.8666,128.18278,37.95543,5949.7383672,169.982,-61.434,18.796,1.0
11.8833,128.18279,37.955459,5944.9773912,169.944,-61.621,18.857,1.0
11.9,128.1828,37.955488,5940.204528,169.906,-61.808,18.919,1.0
11.9166,128.18281,37.955517,5935.4194728,169.867,-61.995,18.981,1.0
11.9333,128.182819,37.955546,5930.6222256,169.827,-62.183,19.044,1.0
11.95,128.182829,37.955575,5925.812786400001,169.785,-62.37,19.108,1.0
11.9666,128.182839,37.955603,5920.9911552,169.743,-62.557,19.173,1.0
11.9833,128.182849,37.955632,5916.157636800001,169.7,-62.744,19.239,1.0
12.0,128.182858,37.95566,5911.3119264,169.655,-62.932,19.305,1.0
12.0166,128.182868,37.955688,5906.4546336,169.61,-63.119,19.373,1.0
12.0333,128.182878,37.955716,5901.5851488,169.564,-63.306,19.441,1.0
12.05,128.182888,37.955744,5896.7037768,169.516,-63.493,19.51,1.0
12.0666,128.182897,37.955772,5891.8108224,169.468,-63.68,19.58,1.0
12.0833,128.182907,37.9558,5886.9059808,169.418,-63.868,19.652,1.0
12.1,128.182916,37.955827,5881.989252000001,169.367,-64.055,19.724,1.0
12.1166,128.182926,37.955855,5877.0609408,169.315,-64.242,19.797,1.0
12.1333,128.182936,37.955882,5872.121047200001,169.262,-64.429,19.871,1.0
12.15,128.182945,37.955909,5867.1695712,169.208,-64.616,19.946,1.0
12.1666,128.182955,37.955936,5862.2065128,169.153,-64.803,20.022,1.0
12.1833,128.182964,37.955962,5857.231872,169.096,-64.991,20.1,1.0
12.2,128.182974,37.955989,5852.2456488,169.039,-65.178,20.178,1.0
12.2166,128.182983,37.956016,5847.248148,168.98,-65.365,20.258,1.0
12.2333,128.182993,37.956042,5842.239064800001,168.92,-65.552,20.338,1.0
12.25,128.183002,37.956068,5837.219008800001,168.859,-65.739,20.42,1.0
12.2666,128.183012,37.956094,5832.187370400001,168.797,-65.926,20.503,1.0
12.2833,128.183021,37.95612,5827.1444544000005,168.734,-66.113,20.587,1.0
12.3,128.18303,37.956146,5822.0905656,168.67,-66.3,20.672,1.0
12.3166,128.18304,37.956172,5817.0253992,168.605,-66.488,20.759,1.0
12.3333,128.183049,37.956197,5811.94926,168.54,-66.675,20.846,1.0
12.35,128.183058,37.956222,5806.861843199999,168.473,-66.862,20.935,1.0
12.3666,128.183068,37.956248,5801.7634536000005,168.405,-67.049,21.026,1.0
12.3833,128.183077,37.956273,5796.6540912,168.336,-67.236,21.117,1.0
12.4,128.183086,37.956298,5791.534060800001,168.266,-67.423,21.21,1.0
12.4166,128.183096,37.956322,5786.4027528,168.195,-67.61,21.305,1.0
12.4333,128.183105,37.956347,5781.2607768,168.123,-67.797,21.401,1.0
12.45,128.183114,37.956372,5776.108132800001,168.049,-67.984,21.498,1.0
12.4666,128.183123,37.956396,5770.944820799999,167.974,-68.171,21.597,1.0
12.4833,128.183132,37.95642,5765.770536,167.898,-68.358,21.697,1.0
12.5,128.183141,37.956444,5760.585583200001,167.821,-68.545,21.799,1.0
12.5166,128.183151,37.956468,5755.3902672,167.742,-68.732,21.903,1.0
12.5333,128.18316,37.956492,5750.1842832,167.662,-68.919,22.008,1.0
12.55,128.183169,37.956515,5744.967936,167.58,-69.105,22.115,1.0
12.5666,128.183178,37.956539,5739.7412256,167.496,-69.292,22.223,1.0
12.5833,128.183187,37.956562,5734.503847200001,167.412,-69.479,22.333,1.0
12.6,128.183196,37.956585,5729.2561056,167.325,-69.666,22.446,1.0
12.6166,128.183205,37.956608,5723.9983056,167.237,-69.853,22.56,1.0
12.6333,128.183214,37.956631,5718.730142400001,167.147,-70.04,22.675,1.0
12.65,128.183223,37.956654,5713.451615999999,167.055,-70.227,22.793,1.0
12.6666,128.183232,37.956676,5708.1630312,166.962,-70.413,22.913,1.0
12.6833,128.18324,37.956698,5702.864388000001,166.866,-70.6,23.035,1.0
12.7,128.183249,37.956721,5697.5556864,166.768,-70.787,23.159,1.0
12.7166,128.183258,37.956743,5692.2369264,166.669,-70.973,23.286,1.0
12.7333,128.183267,37.956765,5686.9084128,166.567,-71.16,23.414,1.0
12.75,128.183276,37.956786,5681.5698408,166.463,-71.347,23.545,1.0
12.7666,128.183284,37.956808,5676.221515200001,166.356,-71.533,23.679,1.0
12.7833,128.183293,37.95683,5670.8631312,166.248,-71.72,23.814,1.0
12.8,128.183302,37.956851,5665.4952984,166.137,-71.906,23.953,1.0
12.8166,128.18331,37.956872,5660.117407199999,166.023,-72.093,24.094,1.0
12.8333,128.183319,37.956893,5654.7300672,165.907,-72.279,24.238,1.0
12.85,128.183328,37.956914,5649.3332784,165.788,-72.466,24.384,1.0
12.8666,128.183336,37.956934,5643.926736,165.666,-72.652,24.533,1.0
12.8833,128.183345,37.956955,5638.5107448,165.541,-72.838,24.686,1.0
12.9,128.183353,37.956975,5633.0853048,165.414,-73.024,24.841,1.0
12.9166,128.183362,37.956996,5627.650720799999,165.283,-73.211,25.0,1.0
12.9333,128.18337,37.957016,5622.2063832,165.149,-73.397,25.162,1.0
12.95,128.183379,37.957035,5616.753206400001,165.012,-73.583,25.327,1.0
12.9666,128.183387,37.957055,5611.2905808,164.871,-73.769,25.496,1.0
12.9833,128.183396,37.957075,5605.818811200001,164.726,-73.955,25.668,1.0
13.0,128.183404,37.957094,5600.3375928000005,164.578,-74.14,25.845,1.0
13.0166,128.183412,37.957113,5594.84784,164.426,-74.326,26.025,1.0
13.0333,128.183421,37.957133,5589.348638400001,164.271,-74.512,26.209,1.0
13.0499,128.183429,37.957152,5583.8405976,164.111,-74.697,26.397,1.0
13.0666,128.183437,37.95717,5578.3237176,163.946,-74.883,26.59,1.0
13.0833,128.183445,37.957189,5572.7979984,163.778,-75.068,26.787,1.0
13.1,128.183453,37.957207,5567.26344,163.604,-75.253,26.988,1.0
13.1166,128.183462,37.957226,5561.720347200001,163.426,-75.438,27.195,1.0
13.1333,128.18347,37.957244,5556.168415200001,163.243,-75.623,27.406,1.0
13.15,128.183478,37.957262,5550.607644,163.055,-75.808,27.623,1.0
13.1666,128.183486,37.95728,5545.0386432,162.861,-75.993,27.845,1.0
13.1833,128.183494,37.957297,5539.4608032,162.662,-76.178,28.073,1.0
13.2,128.183502,37.957315,5533.874733600001,162.457,-76.362,28.307,1.0
13.2166,128.18351,37.957332,5528.2801296,162.246,-76.547,28.546,1.0
13.2333,128.183518,37.957349,5522.677296000001,162.028,-76.731,28.792,1.0
13.25,128.183526,37.957366,5517.065928000001,161.804,-76.915,29.045,1.0
13.2666,128.183534,37.957383,5511.4466352,161.573,-77.099,29.304,1.0
13.2833,128.183541,37.9574,5505.818808,161.335,-77.282,29.571,1.0
13.3,128.183549,37.957416,5500.183056000001,161.09,-77.466,29.845,1.0
13.3166,128.183557,37.957433,5494.5393792,160.836,-77.649,30.127,1.0
13.3333,128.183565,37.957449,5488.8874728,160.575,-77.832,30.417,1.0
13.35,128.183572,37.957465,5483.2276416,160.305,-78.014,30.715,1.0
13.3666,128.18358,37.957481,5477.5598856,160.026,-78.197,31.022,1.0
13.3833,128.183588,37.957496,5471.8845096000005,159.738,-78.379,31.339,1.0
13.4,128.183595,37.957512,5466.2012088,159.441,-78.561,31.664,1.0
13.4166,128.183603,37.957527,5460.5099832000005,159.135,-78.743,31.998,1.0
13.4333,128.18361,37.957542,5454.8114424000005,158.819,-78.924,32.342,1.0
13.45,128.183618,37.957557,5449.1049768,158.492,-79.106,32.696,1.0
13.4666,128.183625,37.957572,5443.3911960000005,158.155,-79.287,33.06,1.0
13.4833,128.183633,37.957587,5437.6697952,157.806,-79.467,33.436,1.0
13.5,128.18364,37.957601,5431.941079200001,157.446,-79.648,33.823,1.0
13.5166,128.183648,37.957616,5426.205048,157.072,-79.828,34.223,1.0
13.5333,128.183655,37.95763,5420.461701600001,156.686,-80.008,34.636,1.0
13.55,128.183662,37.957644,5414.71104,156.286,-80.187,35.062,1.0
13.5666,128.183669,37.957658,5408.953368,155.872,-80.366,35.504,1.0
13.5833,128.183677,37.957671,5403.1883808,155.442,-80.544,35.96,1.0
13.6,128.183684,37.957685,5397.4163832,154.995,-80.722,36.433,1.0
13.6166,128.183691,37.957698,5391.6373752,154.531,-80.9,36.923,1.0
13.6333,128.183698,37.957711,5385.851356800001,154.049,-81.077,37.431,1.0
13.65,128.183705,37.957724,5380.058328,153.548,-81.253,37.959,1.0
13.6666,128.183712,37.957737,5374.258898399999,153.026,-81.429,38.507,1.0
13.6833,128.183719,37.95775,5368.4524584,152.483,-81.604,39.076,1.0
13.7,128.183726,37.957762,5362.6393128,151.917,-81.779,39.668,1.0
13.7166,128.183733,37.957774,5356.8194616,151.326,-81.952,40.284,1.0
13.7333,128.18374,37.957787,5350.9932096,150.71,-82.125,40.926,1.0
13.75,128.183747,37.957799,5345.1605568,150.066,-82.297,41.595,1.0
13.7666,128.183753,37.95781,5339.3211984,149.392,-82.468,42.294,1.0
13.7833,128.18376,37.957822,5333.4754391999995,148.688,-82.638,43.023,1.0
13.8,128.183767,37.957833,5327.623584000001,147.951,-82.807,43.786,1.0
13.8166,128.183774,37.957845,5321.765328,147.178,-82.975,44.583,1.0
13.8333,128.18378,37.957856,5315.900976,146.367,-83.141,45.419,1.0
13.85,128.183787,37.957867,5310.030528,145.516,-83.307,46.294,1.0
13.8666,128.183793,37.957877,5304.1539840000005,144.622,-83.47,47.212,1.0
13.8833,128.1838,37.957888,5298.271344,143.683,-83.632,48.176,1.0
13.9,128.183806,37.957898,5292.3829128,142.695,-83.793,49.188,1.0
13.9166,128.183813,37.957908,5286.4883856,141.654,-83.951,50.252,1.0
13.9333,128.183819,37.957918,5280.588372,140.559,-84.108,51.371,1.0
13.95,128.183826,37.957928,5274.6822624,139.403,-84.262,52.55,1.0
13.9666,128.183832,37.957938,5268.7706664,138.184,-84.414,53.792,1.0
13.9833,128.183838,37.957948,5262.853584,136.897,-84.563,55.102,1.0
14.0,128.183844,37.957957,5256.930710400001,135.538,-84.71,56.484,1.0
14.0166,128.183851,37.957966,5251.0023504,134.103,-84.853,57.942,1.0
14.0333,128.183857,37.957975,5245.068808800001,132.585,-84.994,59.481,1.0
14.05,128.183863,37.957984,5239.1297808,130.982,-85.13,61.107,1.0
14.0666,128.183869,37.957992,5233.1855712,129.286,-85.263,62.824,1.0
14.0833,128.183875,37.958001,5227.23618,127.495,-85.391,64.637,1.0
14.1,128.183881,37.958009,5221.2813024,125.603,-85.515,66.551,1.0
14.1166,128.183887,37.958017,5215.321548,123.605,-85.633,68.569,1.0
14.1333,128.183893,37.958025,5209.3569168,121.499,-85.746,70.697,1.0
14.15,128.183898,37.958033,5203.387104,119.28,-85.853,72.937,1.0
14.1666,128.183904,37.95804,5197.4127192000005,116.946,-85.954,75.291,1.0
14.1833,128.18391,37.958048,5191.4331528,114.498,-86.047,77.76,1.0
14.2,128.183916,37.958055,5185.449319200001,111.935,-86.133,80.343,1.0
14.2166,128.183921,37.958062,5179.460304,109.26,-86.212,83.037,1.0
14.2333,128.183927,37.958069,5173.4670216,106.479,-86.281,85.839,1.0
14.25,128.183933,37.958075,5167.4691672,103.597,-86.342,88.74,1.0
14.2666,128.183938,37.958082,5161.4667408000005,100.625,-86.393,91.731,1.0
14.2833,128.183944,37.958088,5155.4597424,97.576,-86.434,94.8,1.0
14.3,128.183949,37.958094,5149.4487816,94.463,-86.465,97.932,1.0
14.3166,128.183954,37.9581,5143.4332488,91.303,-86.486,101.111,1.0
14.3333,128.18396,37.958106,5137.4137536,88.115,-86.495,104.317,1.0
14.35,128.183965,37.958112,5131.389991200001,84.918,-86.494,107.533,1.0
14.3666,128.18397,37.958117,5125.3619616,81.731,-86.482,110.737,1.0
14.3833,128.183975,37.958122,5119.3302744,78.575,-86.46,113.912,1.0
14.4,128.183981,37.958127,5113.294624800001,75.467,-86.427,117.038,1.0
14.4166,128.183986,37.958132,5107.2550128,72.421,-86.383,120.101,1.0
14.4333,128.183991,37.958137,5101.2117432,69.45,-86.331,123.088,1.0
14.45,128.183996,37.958141,5095.1648159999995,66.563,-86.27,125.99,1.0
14.4666,128.184001,37.958146,5089.1139264,63.767,-86.2,128.8,1.0
14.4833,128.184006,37.95815,5083.059684000001,61.068,-86.123,131.511,1.0
14.5,128.184011,37.958154,5077.0020888,58.469,-86.038,134.122,1.0
14.5166,128.184015,37.958157,5070.940836,55.971,-85.947,136.63,1.0
14.5333,128.18402,37.958161,5064.8765352,53.573,-85.85,139.037,1.0
14.55,128.184025,37.958164,5058.8085768,51.274,-85.747,141.345,1.0
