Time,Longitude,Latitude,Altitude,Roll (deg),Pitch (deg),Yaw (deg),Health
0.0,128.181881,37.968463,7002.830292000001,0.0,-0.003,179.999,1.0
0.0166,128.181881,37.968418,7002.8116992000005,0.0,-0.012,180.0,1.0
0.0333,128.181881,37.968374,7002.793411200001,-0.087,-0.025,179.988,1.0
0.05,128.181881,37.968329,7002.775428000001,-0.258,-0.041,179.965,1.0
0.0666,128.181881,37.968284,7002.7577496,-0.516,-0.059,179.935,1.0
0.0833,128.181881,37.968239,7002.7409856,-0.864,-0.077,179.902,1.0
0.1,128.181881,37.968194,7002.725745600001,-1.3,-0.096,179.867,1.0
0.1166,128.181881,37.968149,7002.712029599999,-1.824,-0.114,179.832,1.0
0.1333,128.181881,37.968104,7002.700142400001,-2.432,-0.132,179.798,1.0
0.15,128.181881,37.968059,7002.6903888,-3.122,-0.15,179.764,1.0
0.1666,128.181881,37.968014,7002.683378400001,-3.891,-0.166,179.732,1.0
0.1833,128.181881,37.967969,7002.677587200001,-4.73,-0.182,179.7,1.0
0.2,128.181881,37.967924,7002.673320000001,-5.63,-0.198,179.671,1.0
0.2166,128.181881,37.967879,7002.6705768,-6.585,-0.213,179.644,1.0
0.2333,128.181881,37.967834,7002.6693576,-7.587,-0.227,179.618,1.0
0.25,128.181881,37.967789,7002.6690528,-8.632,-0.241,179.594,1.0
0.2666,128.181881,37.967744,7002.6699672,-9.717,-0.255,179.571,1.0
0.2833,128.181881,37.967699,7002.6717960000005,-10.838,-0.268,179.55,1.0
0.3,128.181881,37.967654,7002.6751488,-11.993,-0.281,179.529,1.0
0.3166,128.181881,37.967609,7002.679416,-13.181,-0.294,179.51,1.0
0.3333,128.181881,37.967564,7002.684597600001,-14.4,-0.306,179.491,1.0
0.35,128.181881,37.967519,7002.6909984,-15.651,-0.319,179.473,1.0
0.3666,128.181881,37.967474,7002.698618400001,-16.932,-0.331,179.455,1.0
0.3833,128.181881,37.967429,7002.7071528,-18.245,-0.343,179.437,1.0
0.4,128.181882,37.967384,7002.716906400001,-19.588,-0.356,179.42,1.0
0.4166,128.181882,37.967339,7002.727879200001,-20.962,-0.368,179.403,1.0
0.4333,128.181882,37.967294,7002.7400712,-22.367,-0.38,179.387,1.0
0.45,128.181882,37.967249,7002.7531776000005,-23.803,-0.393,179.371,1.0
0.4666,128.181882,37.967204,7002.7675032,-25.271,-0.405,179.355,1.0
0.4833,128.181882,37.967159,7002.7827431999995,-26.772,-0.418,179.34,1.0
0.5,128.181883,37.967114,7002.7992024,-28.304,-0.431,179.324,1.0
0.5166,128.181883,37.967069,7002.8168808,-29.869,-0.444,179.31,1.0
0.5333,128.181883,37.967024,7002.835778400001,-31.467,-0.457,179.295,1.0
0.55,128.181884,37.966979,7002.855285600001,-33.098,-0.471,179.281,1.0
0.5666,128.181884,37.966934,7002.876012,-34.762,-0.484,179.267,1.0
0.5833,128.181884,37.966888,7002.8979576,-36.459,-0.498,179.253,1.0
0.6,128.181885,37.966843,7002.9205128,-38.189,-0.512,179.24,1.0
0.6166,128.181885,37.966798,7002.9436776,-39.95,-0.526,179.228,1.0
0.6333,128.181886,37.966753,7002.967756800001,-41.741,-0.541,179.216,1.0
0.65,128.181886,37.966708,7002.9921408,-43.561,-0.555,179.205,1.0
0.6666,128.181887,37.966663,7003.0171344,-45.408,-0.569,179.194,1.0
0.6833,128.181887,37.966618,7003.042432800001,-47.281,-0.584,179.184,1.0
0.7,128.181888,37.966573,7003.068036000001,-49.18,-0.598,179.175,1.0
0.7166,128.181889,37.966528,7003.0936392,-51.102,-0.612,179.166,1.0
0.7333,128.181889,37.966483,7003.119547200001,-53.047,-0.627,179.158,1.0
0.75,128.18189,37.966438,7003.145150400001,-55.014,-0.641,179.151,1.0
0.7666,128.181891,37.966393,7003.1704488000005,-57.002,-0.656,179.144,1.0
0.7833,128.181892,37.966348,7003.1954424000005,-59.01,-0.67,179.138,1.0
0.8,128.181893,37.966303,7003.2198264,-61.037,-0.684,179.132,1.0
0.8166,128.181894,37.966258,7003.2436008,-63.083,-0.699,179.127,1.0
0.8333,128.181894,37.966213,7003.2664608000005,-65.146,-0.713,179.123,1.0
0.85,128.181896,37.966167,7003.288711200001,-67.225,-0.727,179.119,1.0
0.8666,128.181897,37.966122,7003.309742400001,-69.321,-0.742,179.116,1.0
0.8833,128.181898,37.966077,7003.3292496,-71.432,-0.756,179.113,1.0
0.9,128.181899,37.966032,7003.347537600001,-73.557,-0.77,179.11,1.0
0.9166,128.1819,37.965987,7003.3643016000005,-75.697,-0.783,179.109,1.0
0.9333,128.181901,37.965942,7003.3792368,-77.85,-0.797,179.107,1.0
0.95,128.181903,37.965897,7003.3923432,-80.016,-0.811,179.106,1.0
0.9666,128.181904,37.965852,7003.4036208,-82.194,-0.824,179.105,1.0
0.9833,128.181905,37.965807,7003.4124600000005,-84.384,-0.837,179.105,1.0
1.0,128.181907,37.965762,7003.4188608,-86.586,-0.85,179.105,1.0
1.0166,128.181908,37.965717,7003.4228232000005,-88.798,-0.863,179.105,1.0
1.0333,128.18191,37.965672,7003.423737600001,-91.02,-0.876,179.105,1.0
1.05,128.181912,37.965626,7003.4219088,-93.253,-0.888,179.106,1.0
1.0666,128.181913,37.965581,7003.4173368,-95.495,-0.901,179.107,1.0
1.0833,128.181915,37.965536,7003.4091072,-97.746,-0.913,179.108,1.0
1.1,128.181917,37.965491,7003.397524800001,-100.006,-0.925,179.109,1.0
1.1166,128.181918,37.965446,7003.3825896,-102.275,-0.937,179.11,1.0
1.1333,128.18192,37.965401,7003.363692000001,-104.551,-0.949,179.111,1.0
1.15,128.181922,37.965356,7003.341136800001,-106.835,-0.96,179.113,1.0
1.1666,128.181924,37.965311,7003.3143144000005,-109.125,-0.972,179.114,1.0
1.1833,128.181926,37.965266,7003.2832248,-111.423,-0.983,179.116,1.0
1.2,128.181928,37.965221,7003.247868,-113.728,-0.994,179.117,1.0
1.2166,128.18193,37.965176,7003.2079392,-116.038,-1.006,179.117,1.0
1.2333,128.181932,37.96513,7003.163438400001,-118.354,-1.02,179.113,1.0
1.25,128.181934,37.965085,7003.113756000001,-120.676,-1.039,179.101,1.0
1.2666,128.181937,37.96504,7003.059196800001,-123.002,-1.062,179.081,1.0
1.2833,128.181939,37.964995,7002.999151200001,-125.333,-1.093,179.051,1.0
1.3,128.181941,37.96495,7002.933619200001,-127.668,-1.132,179.012,1.0
1.3166,128.181944,37.964905,7002.8626008,-130.006,-1.179,178.964,1.0
1.3333,128.181946,37.96486,7002.785791200001,-132.347,-1.235,178.908,1.0
1.35,128.181948,37.964815,7002.7028856,-134.689,-1.3,178.846,1.0
1.3666,128.181951,37.96477,7002.6135792000005,-137.032,-1.375,178.778,1.0
1.3833,128.181953,37.964724,7002.5175672000005,-139.375,-1.458,178.706,1.0
1.4,128.181956,37.964679,7002.415154400001,-141.717,-1.551,178.631,1.0
1.4166,128.181958,37.964634,7002.3057312,-144.058,-1.652,178.555,1.0
1.4333,128.181961,37.964589,7002.188992800001,-146.396,-1.762,178.477,1.0
1.45,128.181964,37.964544,7002.0649392,-148.732,-1.88,178.401,1.0
1.4666,128.181966,37.964499,7001.933265600001,-151.064,-2.006,178.326,1.0
1.4833,128.181969,37.964454,7001.7936672000005,-153.393,-2.138,178.253,1.0
1.5,128.181972,37.964409,7001.6455344,-155.718,-2.278,178.184,1.0
1.5166,128.181974,37.964364,7001.4894768,-158.04,-2.423,178.119,1.0
1.5333,128.181977,37.964318,7001.3245799999995,-160.358,-2.574,178.058,1.0
1.55,128.18198,37.964273,7001.150844,-162.674,-2.73,178.003,1.0
1.5666,128.181983,37.964228,7000.9682688,-164.988,-2.89,177.955,1.0
1.5833,128.181986,37.964183,7000.7762448,-167.3,-3.054,177.912,1.0
1.6,128.181989,37.964138,7000.574772,-169.611,-3.22,177.876,1.0
1.6166,128.181992,37.964093,7000.3635456,-171.922,-3.39,177.848,1.0
1.6333,128.181994,37.964048,7000.142870400001,-174.233,-3.562,177.826,1.0
1.65,128.181997,37.964003,6999.911832000001,-176.544,-3.737,177.812,1.0
1.6666,128.182,37.963958,6999.6713448,-178.853,-3.914,177.805,1.0
1.6833,128.182003,37.963912,6999.4207992,178.842,-4.093,177.806,1.0
1.7,128.182006,37.963867,6999.1601952,176.544,-4.273,177.814,1.0
1.7166,128.182009,37.963822,6998.889532800001,174.256,-4.455,177.829,1.0
1.7333,128.182012,37.963777,6998.6091168,171.979,-4.638,177.852,1.0
1.75,128.182015,37.963732,6998.3186424000005,169.715,-4.822,177.883,1.0
1.7666,128.182018,37.963687,6998.017804800001,167.466,-5.006,177.922,1.0
1.7833,128.182021,37.963642,6997.707213600001,165.232,-5.19,177.968,1.0
1.8,128.182023,37.963597,6997.3868688,163.015,-5.373,178.023,1.0
1.8166,128.182026,37.963552,6997.056160800001,160.815,-5.556,178.086,1.0
1.8333,128.182029,37.963506,6996.7156992,158.634,-5.737,178.157,1.0
1.85,128.182032,37.963461,6996.365179200001,156.471,-5.916,178.236,1.0
1.8666,128.182035,37.963416,6996.004905600001,154.328,-6.093,178.323,1.0
1.8833,128.182037,37.963371,6995.6345736,152.204,-6.267,178.417,1.0
1.9,128.18204,37.963326,6995.2547928,150.1,-6.438,178.52,1.0
1.9166,128.182043,37.963281,6994.8652584,148.017,-6.606,178.629,1.0
1.9333,128.182045,37.963236,6994.4662751999995,145.955,-6.77,178.746,1.0
1.95,128.182048,37.963191,6994.0578432,143.915,-6.93,178.871,1.0
1.9666,128.18205,37.963146,6993.6399624,141.897,-7.085,179.001,1.0
1.9833,128.182053,37.963101,6993.2129376,139.901,-7.236,179.139,1.0
2.0,128.182055,37.963055,6992.7770736,137.927,-7.382,179.283,1.0
2.0166,128.182057,37.96301,6992.3320656000005,135.977,-7.523,179.433,1.0
2.0333,128.182059,37.962965,6991.8782184,134.05,-7.659,179.588,1.0
2.05,128.182062,37.96292,6991.415836800001,132.146,-7.788,179.749,1.0
2.0666,128.182064,37.962875,6990.9449208,130.267,-7.911,179.914,1.0
2.0833,128.182066,37.96283,6990.465470400001,128.412,-8.029,180.084,1.0
2.1,128.182068,37.962785,6989.9780952,126.582,-8.139,180.259,1.0
2.1166,128.18207,37.96274,6989.4827952000005,124.777,-8.244,180.436,1.0
2.1333,128.182072,37.962694,6988.979570400001,122.997,-8.341,180.618,1.0
2.15,128.182073,37.962649,6988.4687256,121.242,-8.432,180.802,1.0
2.1666,128.182075,37.962604,6987.950565600001,119.514,-8.516,180.989,1.0
2.1833,128.182077,37.962559,6987.4250904,117.811,-8.594,181.177,1.0
2.2,128.182078,37.962514,6986.8926048,116.135,-8.664,181.368,1.0
2.2166,128.18208,37.962469,6986.3531088,114.486,-8.727,181.559,1.0
2.2333,128.182081,37.962424,6985.807212,112.864,-8.784,181.752,1.0
2.25,128.182082,37.962379,6985.254609600001,111.27,-8.834,181.946,1.0
2.2666,128.182083,37.962333,6984.695911200001,109.705,-8.878,182.14,1.0
2.2833,128.182084,37.962288,6984.130812,108.169,-8.916,182.334,1.0
2.3,128.182085,37.962243,6983.5602264,106.662,-8.947,182.528,1.0
2.3166,128.182086,37.962198,6982.9838496,105.185,-8.972,182.721,1.0
2.3333,128.182087,37.962153,6982.4019864,103.739,-8.99,182.914,1.0
2.35,128.182088,37.962108,6981.814636800001,102.324,-9.004,183.106,1.0
2.3666,128.182089,37.962062,6981.222410400001,100.941,-9.011,183.296,1.0
2.3833,128.182089,37.962017,6980.6250024,99.59,-9.013,183.485,1.0
2.4,128.18209,37.961972,6980.023022400001,98.272,-9.01,183.672,1.0
2.4166,128.18209,37.961927,6979.416775199999,96.987,-9.001,183.857,1.0
2.4333,128.18209,37.961882,6978.8056512,95.738,-8.988,184.04,1.0
2.45,128.18209,37.961837,6978.190564800001,94.523,-8.971,184.221,1.0
2.4666,128.182091,37.961791,6977.571516,93.345,-8.949,184.4,1.0
2.4833,128.182091,37.961746,6976.948504800001,92.204,-8.923,184.577,1.0
2.5,128.18209,37.961701,6976.321836,91.1,-8.893,184.751,1.0
2.5166,128.18209,37.961656,6975.6915096,90.035,-8.86,184.923,1.0
2.5333,128.18209,37.961611,6975.0575256,89.01,-8.823,185.093,1.0
2.55,128.18209,37.961565,6974.4204936,88.024,-8.784,185.26,1.0
2.5666,128.182089,37.96152,6973.7804136,87.078,-8.741,185.425,1.0
2.5833,128.182089,37.961475,6973.1372856,86.172,-8.695,185.586,1.0
2.6,128.182088,37.96143,6972.4911096000005,85.308,-8.647,185.746,1.0
2.6166,128.182087,37.961384,6971.8424952000005,84.484,-8.597,185.902,1.0
2.6333,128.182086,37.961339,6971.190832800001,83.702,-8.544,186.056,1.0
2.65,128.182085,37.961294,6970.5370368,82.96,-8.49,186.207,1.0
2.6666,128.182084,37.961249,6969.880497600001,82.26,-8.434,186.355,1.0
2.6833,128.182083,37.961203,6969.221824800001,81.601,-8.377,186.501,1.0
2.7,128.182082,37.961158,6968.560713600001,80.917,-8.314,186.644,1.0
2.7166,128.182081,37.961113,6967.897773600001,80.219,-8.246,186.785,1.0
2.7333,128.182079,37.961067,6967.2333096,79.519,-8.177,186.923,1.0
2.75,128.182078,37.961022,6966.5670168,78.83,-8.106,187.06,1.0
2.7666,128.182076,37.960977,6965.8988952,78.166,-8.036,187.195,1.0
2.7833,128.182075,37.960932,6965.2292496,77.537,-7.967,187.33,1.0
2.8,128.182073,37.960886,6964.55808,76.95,-7.899,187.465,1.0
2.8166,128.182071,37.960841,6963.8856912,76.411,-7.831,187.599,1.0
2.8333,128.182069,37.960796,6963.2114736,75.921,-7.765,187.733,1.0
2.85,128.182067,37.96075,6962.5360368,75.479,-7.699,187.867,1.0
2.8666,128.182065,37.960705,6961.8596856,75.084,-7.633,188.001,1.0
2.8833,128.182062,37.96066,6961.1818104,74.729,-7.567,188.135,1.0
2.9,128.18206,37.960614,6960.5030208,74.412,-7.502,188.264,1.0
2.9166,128.182057,37.960569,6959.8233168,74.13,-7.438,188.387,1.0
2.9333,128.182055,37.960524,6959.1426984,73.884,-7.378,188.499,1.0
2.95,128.182052,37.960478,6958.461165600001,73.674,-7.321,188.602,1.0
2.9666,128.182049,37.960433,6957.778718400001,73.504,-7.269,188.694,1.0
2.9833,128.182047,37.960387,6957.095356800001,73.375,-7.226,188.776,1.0
3.0,128.182044,37.960342,6956.4113856,73.293,-7.19,188.85,1.0
3.0166,128.182041,37.960297,6955.7258904,73.265,-7.162,188.917,1.0
3.0333,128.182038,37.960251,6955.0394808,73.298,-7.141,188.978,1.0
3.05,128.182034,37.960206,6954.352156800001,73.396,-7.124,189.034,1.0
3.0666,128.182031,37.960161,6953.6633088,73.561,-7.111,189.086,1.0
3.0833,128.182028,37.960115,6952.9735464000005,73.791,-7.1,189.137,1.0
3.1,128.182024,37.96007,6952.282260000001,74.083,-7.092,189.188,1.0
3.1166,128.182021,37.960024,6951.590059200001,74.432,-7.084,189.239,1.0
3.1333,128.182017,37.959979,6950.8966392,74.832,-7.077,189.292,1.0
3.15,128.182014,37.959933,6950.2023048,75.276,-7.07,189.348,1.0
3.1666,128.18201,37.959888,6949.5067512000005,75.757,-7.062,189.407,1.0
3.1833,128.182006,37.959842,6948.809978400001,76.267,-7.055,189.469,1.0
3.2,128.182002,37.959797,6948.1122912,76.801,-7.047,189.536,1.0
3.2166,128.181998,37.959752,6947.4133848,77.353,-7.04,189.607,1.0
3.2333,128.181994,37.959706,6946.713259200001,77.916,-7.032,189.682,1.0
3.25,128.18199,37.959661,6946.012219200001,78.487,-7.024,189.761,1.0
3.2666,128.181985,37.959615,6945.309655200001,79.06,-7.017,189.845,1.0
3.2833,128.181981,37.95957,6944.6061768,79.633,-7.01,189.933,1.0
3.3,128.181976,37.959524,6943.901174400001,80.202,-7.004,190.024,1.0
3.3166,128.181972,37.959479,6943.1949528,80.764,-6.999,190.119,1.0
3.3333,128.181967,37.959433,6942.4872072,81.318,-6.994,190.218,1.0
3.35,128.181962,37.959388,6941.777937600001,81.862,-6.991,190.319,1.0
3.3666,128.181957,37.959342,6941.0674488,82.394,-6.99,190.423,1.0
3.3833,128.181952,37.959297,6940.3551312,82.914,-6.989,190.528,1.0
3.4,128.181947,37.959251,6939.6412896,83.42,-6.99,190.636,1.0
3.4166,128.181942,37.959206,6938.925924000001,83.912,-6.993,190.746,1.0
3.4333,128.181936,37.959161,6938.2087296,84.389,-6.996,190.857,1.0
3.45,128.181931,37.959115,6937.489706400001,84.85,-7.002,190.97,1.0
3.4666,128.181925,37.95907,6936.7685496,85.296,-7.008,191.083,1.0
3.4833,128.181919,37.959024,6936.045868800001,85.726,-7.017,191.198,1.0
3.5,128.181913,37.958979,6935.3210544,86.14,-7.026,191.313,1.0
3.5166,128.181907,37.958933,6934.594106400001,86.537,-7.037,191.429,1.0
3.5333,128.181901,37.958888,6933.865024800001,86.918,-7.049,191.546,1.0
3.55,128.181895,37.958842,6933.133809600001,87.283,-7.063,191.663,1.0
3.5666,128.181889,37.958797,6932.4004608000005,87.631,-7.077,191.781,1.0
3.5833,128.181882,37.958752,6931.664978400001,87.963,-7.093,191.899,1.0
3.6,128.181876,37.958706,6930.9270576,88.279,-7.11,192.017,1.0
3.6166,128.181869,37.958661,6930.1866984,88.58,-7.128,192.135,1.0
3.6333,128.181862,37.958615,6929.444205600001,88.864,-7.147,192.254,1.0
3.65,128.181855,37.95857,6928.698969600001,89.134,-7.167,192.372,1.0
3.6666,128.181848,37.958525,6927.9512952000005,89.389,-7.187,192.491,1.0
3.6833,128.181841,37.958479,6927.201487200001,89.629,-7.209,192.61,1.0
3.7,128.181834,37.958434,6926.4486312,89.854,-7.231,192.73,1.0
3.7166,128.181826,37.958389,6925.693641600001,90.067,-7.254,192.85,1.0
3.7333,128.181819,37.958343,6924.935604,90.265,-7.278,192.969,1.0
3.75,128.181811,37.958298,6924.175128000001,90.452,-7.303,193.09,1.0
3.7666,128.181803,37.958253,6923.4122136000005,90.626,-7.328,193.21,1.0
3.7833,128.181796,37.958207,6922.646251200001,90.788,-7.354,193.33,1.0
3.8,128.181788,37.958162,6921.8775456,90.94,-7.38,193.45,1.0
3.8166,128.18178,37.958117,6921.106401600001,91.081,-7.407,193.57,1.0
3.8333,128.181771,37.958071,6920.3322096,91.213,-7.434,193.69,1.0
3.85,128.181763,37.958026,6919.555274400001,91.336,-7.461,193.81,1.0
3.8666,128.181755,37.957981,6918.775596,91.451,-7.489,193.93,1.0
3.8833,128.181746,37.957935,6917.992869600001,91.559,-7.518,194.05,1.0
3.9,128.181737,37.95789,6917.2074,91.66,-7.547,194.169,1.0
3.9166,128.181728,37.957845,6916.4191872,91.755,-7.576,194.289,1.0
3.9333,128.18172,37.9578,6915.6279264,91.844,-7.605,194.408,1.0
3.95,128.18171,37.957755,6914.8339224,91.93,-7.635,194.527,1.0
3.9666,128.181701,37.957709,6914.036870400001,92.012,-7.664,194.645,1.0
3.9833,128.181692,37.957664,6913.2370752,92.091,-7.694,194.762,1.0
4.0,128.181683,37.957619,6912.433927200001,92.17,-7.723,194.876,1.0
4.0166,128.181673,37.957574,6911.628036,92.248,-7.75,194.988,1.0
4.0333,128.181664,37.957529,6910.819096800001,92.326,-7.776,195.097,1.0
4.05,128.181654,37.957483,6910.0071096,92.404,-7.8,195.203,1.0
4.0666,128.181644,37.957438,6909.191769600001,92.48,-7.823,195.306,1.0
4.0833,128.181634,37.957393,6908.3736864,92.555,-7.843,195.407,1.0
4.1,128.181624,37.957348,6907.552555200001,92.627,-7.863,195.507,1.0
4.1166,128.181614,37.957303,6906.728376,92.696,-7.88,195.605,1.0
4.1333,128.181603,37.957258,6905.9011488,92.762,-7.897,195.702,1.0
4.15,128.181593,37.957213,6905.070873600001,92.823,-7.914,195.799,1.0
4.1666,128.181582,37.957168,6904.2375504,92.88,-7.93,195.897,1.0
4.1833,128.181572,37.957123,6903.401179200001,92.932,-7.947,195.995,1.0
4.2,128.181561,37.957078,6902.5617600000005,92.98,-7.963,196.094,1.0
4.2166,128.18155,37.957033,6901.7192928,93.023,-7.981,196.193,1.0
4.2333,128.181539,37.956988,6900.874996800001,93.146,-8.009,196.278,1.0
4.25,128.181528,37.956943,6900.0276527999995,93.348,-8.049,196.333,1.0
4.2666,128.181517,37.956898,6899.177260800001,93.628,-8.094,196.345,1.0
4.2833,128.181505,37.956853,6898.3238208,93.986,-8.139,196.3,1.0
4.3,128.181494,37.956808,6897.467332800001,94.416,-8.18,196.188,1.0
4.3166,128.181483,37.956763,6896.607796800001,94.911,-8.218,196.026,1.0
4.3333,128.181471,37.956718,6895.7452128,95.463,-8.252,195.832,1.0
4.35,128.18146,37.956673,6894.8795808,96.066,-8.283,195.624,1.0
4.3666,128.181448,37.956628,6894.010596,96.713,-8.312,195.413,1.0
4.3833,128.181436,37.956583,6893.1385632,97.403,-8.339,195.206,1.0
4.4,128.181425,37.956538,6892.263177600001,98.133,-8.366,195.007,1.0
4.4166,128.181413,37.956493,6891.384744,98.902,-8.392,194.818,1.0
4.4333,128.181401,37.956448,6890.5032624000005,99.71,-8.416,194.639,1.0
4.45,128.181389,37.956403,6889.618428000001,100.556,-8.44,194.471,1.0
4.4666,128.181377,37.956357,6888.7302408000005,101.441,-8.464,194.312,1.0
4.4833,128.181365,37.956312,6887.839005600001,102.364,-8.487,194.164,1.0
4.5,128.181353,37.956267,6886.9447224000005,103.327,-8.509,194.025,1.0
4.5166,128.181341,37.956222,6886.047086400001,104.329,-8.532,193.896,1.0
4.5333,128.181329,37.956177,6885.1464024,105.372,-8.554,193.775,1.0
4.55,128.181317,37.956132,6884.242670400001,106.456,-8.577,193.662,1.0
4.5666,128.181305,37.956087,6883.3361952000005,107.582,-8.599,193.556,1.0
4.5833,128.181293,37.956042,6882.4263672,108.751,-8.622,193.458,1.0
4.6,128.181281,37.955997,6881.5134912,109.965,-8.644,193.366,1.0
4.6166,128.181269,37.955952,6880.597872,111.224,-8.667,193.28,1.0
4.6333,128.181256,37.955907,6879.6795096000005,112.529,-8.691,193.2,1.0
4.65,128.181244,37.955862,6878.758404,113.883,-8.715,193.125,1.0
4.6666,128.181232,37.955817,6877.8342504,115.284,-8.739,193.056,1.0
4.6833,128.18122,37.955771,6876.9079632,116.736,-8.763,192.99,1.0
4.7,128.181207,37.955726,6875.978628000001,118.239,-8.788,192.929,1.0
4.7166,128.181195,37.955681,6875.0471592,119.794,-8.813,192.872,1.0
4.7333,128.181183,37.955636,6874.113252000001,121.402,-8.839,192.818,1.0
4.75,128.181171,37.955591,6873.177211200001,123.064,-8.865,192.767,1.0
4.7666,128.181159,37.955545,6872.238732000001,124.782,-8.892,192.719,1.0
4.7833,128.181146,37.9555,6871.2984240000005,126.556,-8.919,192.674,1.0
4.8,128.181134,37.955455,6870.3559824,128.388,-8.947,192.63,1.0
4.8166,128.181122,37.95541,6869.4120168,130.278,-8.975,192.589,1.0
4.8333,128.18111,37.955364,6868.4662224,132.228,-9.003,192.549,1.0
4.85,128.181097,37.955319,6867.5189040000005,134.236,-9.031,192.51,1.0
4.8666,128.181085,37.955273,6866.5697568000005,136.3,-9.059,192.473,1.0
4.8833,128.181073,37.955228,6865.6193904,138.416,-9.086,192.437,1.0
4.9,128.181061,37.955183,6864.6675000000005,140.584,-9.114,192.403,1.0
4.9166,128.181049,37.955137,6863.7140856000005,142.801,-9.141,192.369,1.0
4.9333,128.181036,37.955092,6862.759756800001,145.064,-9.168,192.337,1.0
4.95,128.181024,37.955046,6861.803904,147.371,-9.194,192.305,1.0
4.9666,128.181012,37.955001,6860.846832,149.72,-9.219,192.274,1.0
4.9833,128.181,37.954955,6859.8888456,152.108,-9.245,192.244,1.0
5.0,128.180988,37.95491,6858.9299448,154.534,-9.269,192.215,1.0
5.0166,128.180975,37.954864,6857.970129599999,156.996,-9.293,192.186,1.0
5.0333,128.180963,37.954819,6857.0090952,159.49,-9.316,192.157,1.0
5.05,128.180951,37.954773,6856.0471464,162.016,-9.339,192.129,1.0
5.0666,128.180939,37.954727,6855.084588000001,164.572,-9.36,192.101,1.0
5.0833,128.180927,37.954682,6854.1211152000005,167.154,-9.381,192.073,1.0
5.1,128.180914,37.954636,6853.156728000001,169.762,-9.401,192.046,1.0
5.1166,128.180902,37.95459,6852.1917312000005,172.394,-9.42,192.019,1.0
5.1333,128.18089,37.954545,6851.225820000001,175.047,-9.437,191.993,1.0
5.15,128.180878,37.954499,6850.2592992,177.72,-9.454,191.966,1.0
5.1666,128.180866,37.954453,6849.291864000001,-179.588,-9.469,191.94,1.0
5.1833,128.180853,37.954407,6848.3232096,-176.88,-9.49,191.915,1.0
5.2,128.180841,37.954361,6847.3536408,-174.157,-9.522,191.888,1.0
5.2166,128.180829,37.954316,6846.382548,-171.421,-9.573,191.859,1.0
5.2333,128.180817,37.95427,6845.410236000001,-168.672,-9.644,191.826,1.0
5.25,128.180804,37.954224,6844.436095200001,-165.913,-9.738,191.787,1.0
5.2666,128.180792,37.954178,6843.4598208,-163.147,-9.853,191.739,1.0
5.2833,128.18078,37.954132,6842.480193599999,-160.391,-9.99,191.682,1.0
5.3,128.180767,37.954086,6841.497213600001,-157.657,-10.148,191.614,1.0
5.3166,128.180755,37.95404,6840.5099664,-154.961,-10.326,191.534,1.0
5.3333,128.180743,37.953994,6839.5181472,-152.315,-10.521,191.439,1.0
5.35,128.180731,37.953949,6838.5211464,-149.73,-10.732,191.328,1.0
5.3666,128.180718,37.953903,6837.5183544,-147.215,-10.957,191.2,1.0
5.3833,128.180706,37.953857,6836.5094664,-144.778,-11.192,191.054,1.0
5.4,128.180694,37.953811,6835.493872800001,-142.422,-11.435,190.891,1.0
5.4166,128.180682,37.953765,6834.471878400001,-140.151,-11.682,190.71,1.0
5.4333,128.180669,37.953719,6833.442873600001,-137.968,-11.929,190.512,1.0
5.45,128.180657,37.953673,6832.4062488,-135.871,-12.175,190.299,1.0
5.4666,128.180645,37.953627,6831.3626136,-133.86,-12.418,190.072,1.0
5.4833,128.180633,37.953581,6830.3113584,-131.934,-12.655,189.832,1.0
5.5,128.180621,37.953535,6829.252178400001,-130.09,-12.885,189.58,1.0
5.5166,128.180609,37.953489,6828.1853784,-128.324,-13.107,189.318,1.0
5.5333,128.180597,37.953443,6827.1109584000005,-126.633,-13.321,189.047,1.0
5.55,128.180586,37.953397,6826.028308800001,-125.014,-13.524,188.769,1.0
5.5666,128.180574,37.953351,6824.9380392,-123.462,-13.718,188.485,1.0
5.5833,128.180562,37.953305,6823.8398448,-121.974,-13.901,188.196,1.0
5.6,128.180551,37.953258,6822.7337256,-120.546,-14.074,187.903,1.0
5.6166,128.180539,37.953212,6821.6196816,-119.174,-14.236,187.609,1.0
5.6333,128.180528,37.953166,6820.4980176,-117.855,-14.388,187.313,1.0
5.65,128.180517,37.95312,6819.368733600001,-116.585,-14.529,187.016,1.0
5.6666,128.180505,37.953074,6818.2315248,-115.362,-14.661,186.719,1.0
5.6833,128.180494,37.953028,6817.086696,-114.182,-14.782,186.423,1.0
5.7,128.180483,37.952982,6815.934552000001,-113.042,-14.895,186.129,1.0
5.7166,128.180473,37.952936,6814.774788000001,-111.94,-14.998,185.836,1.0
5.7333,128.180462,37.952889,6813.6077088,-110.874,-15.092,185.545,1.0
5.75,128.180451,37.952843,6812.433619200001,-109.842,-15.178,185.257,1.0
5.7666,128.180441,37.952797,6811.2522144,-108.84,-15.256,184.972,1.0
5.7833,128.18043,37.952751,6810.0637992,-107.869,-15.327,184.69,1.0
5.8,128.18042,37.952705,6808.8683736,-106.926,-15.39,184.413,1.0
5.8166,128.18041,37.952659,6807.666242400001,-106.011,-15.445,184.141,1.0
5.8333,128.1804,37.952612,6806.457405600001,-105.121,-15.493,183.877,1.0
5.85,128.18039,37.952566,6805.242168000001,-104.256,-15.535,183.619,1.0
5.8666,128.18038,37.95252,6804.0205295999995,-103.415,-15.569,183.368,1.0
5.8833,128.180371,37.952474,6802.7927952,-102.597,-15.598,183.124,1.0
5.9,128.180361,37.952427,6801.5589648000005,-101.8,-15.621,182.886,1.0
5.9166,128.180352,37.952381,6800.319038400001,-101.023,-15.639,182.653,1.0
5.9333,128.180343,37.952335,6799.0733208,-100.266,-15.653,182.427,1.0
5.95,128.180334,37.952288,6797.821812,-99.527,-15.661,182.205,1.0
5.9666,128.180325,37.952242,6796.5648168,-98.807,-15.666,181.987,1.0
5.9833,128.180316,37.952196,6795.30264,-98.103,-15.667,181.774,1.0
6.0,128.180307,37.952149,6794.034976800001,-97.417,-15.665,181.565,1.0
6.0166,128.180299,37.952103,6792.762132000001,-96.746,-15.659,181.359,1.0
6.0333,128.180291,37.952057,6791.484715200001,-96.091,-15.65,181.157,1.0
6.05,128.180282,37.95201,6790.2021168,-95.45,-15.639,180.958,1.0
6.0666,128.180274,37.951964,6788.9149464,-94.824,-15.624,180.762,1.0
6.0833,128.180266,37.951917,6787.623204,-94.212,-15.607,180.568,1.0
6.1,128.180259,37.951871,6786.3268896,-93.614,-15.588,180.378,1.0
6.1166,128.180251,37.951825,6785.0266128,-93.028,-15.567,180.189,1.0
6.1333,128.180244,37.951778,6783.721764000001,-92.455,-15.543,180.004,1.0
6.15,128.180237,37.951732,6782.4132576,-91.894,-15.518,179.82,1.0
6.1666,128.180229,37.951685,6781.1007887999995,-91.345,-15.49,179.639,1.0
6.1833,128.180222,37.951639,6779.7843576,-90.808,-15.461,179.46,1.0
6.2,128.180216,37.951592,6778.4642688,-90.281,-15.43,179.282,1.0
6.2166,128.180209,37.951546,6777.1408272,-89.764,-15.398,179.106,1.0
6.2333,128.180203,37.951499,6775.814032800001,-89.258,-15.363,178.932,1.0
6.25,128.180196,37.951453,6774.483885600001,-88.761,-15.328,178.76,1.0
6.2666,128.18019,37.951406,6773.1503856,-88.273,-15.291,178.589,1.0
6.2833,128.180184,37.95136,6771.8141424000005,-87.794,-15.253,178.419,1.0
6.3,128.180178,37.951313,6770.474851200001,-87.324,-15.213,178.251,1.0
6.3166,128.180172,37.951267,6769.132512,-86.861,-15.173,178.084,1.0
6.3333,128.180167,37.95122,6767.7877344,-86.406,-15.131,177.918,1.0
6.35,128.180161,37.951173,6766.4402136,-85.958,-15.088,177.754,1.0
6.3666,128.180156,37.951127,6765.0902544,-85.516,-15.044,177.59,1.0
6.3833,128.180151,37.95108,6763.7381616,-85.081,-14.998,177.428,1.0
6.4,128.180146,37.951034,6762.3833256,-84.652,-14.952,177.266,1.0
6.4166,128.180141,37.950987,6761.026660800001,-84.229,-14.905,177.106,1.0
6.4333,128.180137,37.95094,6759.6678624,-83.811,-14.857,176.946,1.0
6.45,128.180132,37.950894,6758.3069304,-83.397,-14.808,176.788,1.0
6.4666,128.180128,37.950847,6756.944474400001,-82.988,-14.758,176.63,1.0
6.4833,128.180124,37.9508,6755.57958,-82.506,-14.703,176.474,1.0
6.5,128.18012,37.950754,6754.2134664,-82.029,-14.646,176.319,1.0
6.5166,128.180116,37.950707,6752.845828800001,-81.561,-14.591,176.164,1.0
6.5333,128.180112,37.95066,6751.476972,-81.104,-14.536,176.01,1.0
6.55,128.180109,37.950614,6750.1062864000005,-80.582,-14.478,175.858,1.0
6.5666,128.180105,37.950567,6748.7340768,-79.995,-14.413,175.707,1.0
6.5833,128.180102,37.95052,6747.3609528,-79.35,-14.345,175.559,1.0
6.6,128.180099,37.950474,6745.9866096000005,-78.653,-14.275,175.411,1.0
6.6166,128.180096,37.950427,6744.611047200001,-77.912,-14.205,175.265,1.0
6.6333,128.180093,37.95038,6743.2348752,-77.138,-14.134,175.12,1.0
6.65,128.180091,37.950333,6741.8577888,-76.337,-14.062,174.977,1.0
6.6666,128.180088,37.950287,6740.4807024,-75.52,-13.991,174.838,1.0
6.6833,128.180086,37.95024,6739.103006400001,-74.693,-13.921,174.707,1.0
6.7,128.180083,37.950193,6737.725615200001,-73.864,-13.852,174.585,1.0
6.7166,128.180081,37.950146,6736.348224,-73.038,-13.784,174.475,1.0
6.7333,128.180079,37.9501,6734.9711376000005,-72.218,-13.719,174.377,1.0
6.75,128.180078,37.950053,6733.5943560000005,-71.406,-13.656,174.291,1.0
6.7666,128.180076,37.950006,6732.2184888,-70.606,-13.594,174.216,1.0
6.7833,128.180074,37.949959,6730.8432312,-69.818,-13.534,174.151,1.0
6.8,128.180073,37.949912,6729.468888,-69.043,-13.476,174.095,1.0
6.8166,128.180072,37.949865,6728.095459200001,-68.285,-13.42,174.046,1.0
6.8333,128.180071,37.949818,6726.7235544000005,-67.542,-13.364,174.003,1.0
6.85,128.18007,37.949772,6725.352868800001,-66.818,-13.309,173.965,1.0
6.8666,128.180069,37.949725,6723.9837072,-66.112,-13.255,173.93,1.0
6.8833,128.180068,37.949678,6722.616069600001,-65.423,-13.202,173.9,1.0
6.9,128.180068,37.949631,6721.2502608,-64.752,-13.15,173.873,1.0
6.9166,128.180067,37.949584,6719.8859760000005,-64.099,-13.098,173.849,1.0
6.9333,128.180067,37.949537,6718.523520000001,-63.464,-13.046,173.827,1.0
6.95,128.180067,37.94949,6717.162892800001,-62.844,-12.995,173.808,1.0
6.9666,128.180067,37.949443,6715.8040944,-62.238,-12.946,173.791,1.0
6.9833,128.180067,37.949396,6714.447124800001,-61.647,-12.897,173.777,1.0
7.0,128.180067,37.949349,6713.0922888,-61.067,-12.849,173.764,1.0
7.0166,128.180067,37.949302,6711.7395864,-60.498,-12.802,173.754,1.0
7.0333,128.180068,37.949255,6710.388712800001,-59.939,-12.756,173.746,1.0
7.05,128.180068,37.949208,6709.039668,-59.384,-12.712,173.74,1.0
7.0666,128.180069,37.949161,6707.6930616,-58.836,-12.669,173.737,1.0
7.0833,128.18007,37.949114,6706.347979200001,-58.288,-12.627,173.736,1.0
7.1,128.180071,37.949067,6705.0047256,-57.738,-12.586,173.739,1.0
7.1166,128.180072,37.94902,6703.663605600001,-57.184,-12.547,173.744,1.0
7.1333,128.180073,37.948973,6702.324314400001,-56.622,-12.509,173.752,1.0
7.15,128.180074,37.948926,6700.986852000001,-56.051,-12.473,173.762,1.0
7.1666,128.180075,37.948879,6699.6509136,-55.466,-12.437,173.774,1.0
7.1833,128.180076,37.948831,6698.316804,-54.866,-12.403,173.788,1.0
7.2,128.180078,37.948784,6696.984218400001,-54.246,-12.37,173.805,1.0
7.2166,128.180079,37.948737,6695.653156800001,-53.597,-12.338,173.825,1.0
7.2333,128.180081,37.94869,6694.3233144000005,-52.92,-12.307,173.847,1.0
7.25,128.180083,37.948643,6692.994386400001,-52.196,-12.277,173.873,1.0
7.2666,128.180084,37.948595,6691.6682016,-51.513,-12.253,173.899,1.0
7.2833,128.180086,37.948548,6690.3435408000005,-50.868,-12.235,173.924,1.0
7.3,128.180088,37.948501,6689.0213184,-50.254,-12.22,173.949,1.0
7.3166,128.18009,37.948454,6687.7015344,-49.667,-12.207,173.976,1.0
7.3333,128.180092,37.948406,6686.383579200001,-49.092,-12.195,174.004,1.0
7.35,128.180094,37.948359,6685.0674528,-48.52,-12.183,174.036,1.0
7.3666,128.180097,37.948312,6683.7525456,-47.938,-12.171,174.07,1.0
7.3833,128.180099,37.948264,6682.4385528,-47.321,-12.159,174.11,1.0
7.4,128.180101,37.948217,6681.125779200001,-46.662,-12.149,174.155,1.0
7.4166,128.180104,37.94817,6679.813310400001,-45.948,-12.14,174.203,1.0
7.4333,128.180106,37.948122,6678.501146400001,-45.177,-12.131,174.254,1.0
7.45,128.180109,37.948075,6677.189287200001,-44.341,-12.124,174.307,1.0
7.4666,128.180111,37.948027,6675.877428000001,-43.433,-12.118,174.362,1.0
7.4833,128.180114,37.94798,6674.5658736000005,-42.46,-12.112,174.418,1.0
7.5,128.180116,37.947933,6673.253709600001,-41.407,-12.108,174.475,1.0
7.5166,128.180119,37.947885,6671.9418504000005,-40.284,-12.104,174.533,1.0
7.5333,128.180122,37.947838,6670.6296864000005,-39.089,-12.102,174.59,1.0
7.55,128.180124,37.94779,6669.318132,-37.833,-12.099,174.646,1.0
7.5666,128.180127,37.947742,6668.0062728,-36.518,-12.097,174.701,1.0
7.5833,128.18013,37.947695,6666.6941088,-35.141,-12.096,174.755,1.0
7.6,128.180133,37.947647,6665.3816400000005,-33.705,-12.094,174.808,1.0
7.6166,128.180136,37.9476,6664.0688664,-32.209,-12.093,174.861,1.0
7.6333,128.180139,37.947552,6662.756397600001,-30.662,-12.092,174.913,1.0
7.65,128.180141,37.947505,6661.443319200001,-29.065,-12.09,174.964,1.0
7.6666,128.180144,37.947457,6660.1305456,-27.427,-12.088,175.013,1.0
7.6833,128.180147,37.947409,6658.8168576,-25.74,-12.086,175.062,1.0
7.7,128.18015,37.947362,6657.503779200001,-24.012,-12.084,175.109,1.0
7.7166,128.180153,37.947314,6656.1897864,-22.244,-12.081,175.156,1.0
7.7333,128.180156,37.947266,6654.8757936,-20.436,-12.077,175.202,1.0
7.75,128.180159,37.947218,6653.562105600001,-18.597,-12.072,175.248,1.0
7.7666,128.180162,37.947171,6652.2471984,-16.72,-12.067,175.293,1.0
7.7833,128.180165,37.947123,6650.932596000001,-14.813,-12.062,175.337,1.0
7.8,128.180169,37.947075,6649.6176888,-12.879,-12.054,175.38,1.0
7.8166,128.180172,37.947027,6648.3033912,-10.926,-12.045,175.423,1.0
7.8333,128.180175,37.946979,6646.988484,-8.955,-12.035,175.464,1.0
7.85,128.180178,37.946932,6645.673881600001,-6.969,-12.022,175.505,1.0
7.8666,128.180181,37.946884,6644.358974400001,-4.969,-12.008,175.546,1.0
7.8833,128.180184,37.946836,6643.044372,-2.955,-11.992,175.587,1.0
7.9,128.180187,37.946788,6641.7300744,-0.935,-11.974,175.628,1.0
7.9166,128.180191,37.94674,6640.4157768000005,1.089,-11.953,175.669,1.0
7.9333,128.180194,37.946692,6639.1014792000005,3.118,-11.931,175.711,1.0
7.95,128.180197,37.946644,6637.7874864000005,5.15,-11.906,175.753,1.0
7.9666,128.1802,37.946596,6636.4741032,7.179,-11.879,175.796,1.0
7.9833,128.180203,37.946548,6635.161024800001,9.204,-11.85,175.84,1.0
8.0,128.180206,37.9465,6633.848251200001,11.22,-11.818,175.885,1.0
8.0166,128.18021,37.946452,6632.5357824,13.231,-11.784,175.932,1.0
8.0333,128.180213,37.946404,6631.224228000001,15.231,-11.748,175.98,1.0
8.05,128.180216,37.946356,6629.912978400001,17.221,-11.711,176.031,1.0
8.0666,128.180219,37.946308,6628.602338400001,19.198,-11.671,176.083,1.0
8.0833,128.180222,37.94626,6627.2920032,21.16,-11.63,176.138,1.0
8.1,128.180225,37.946212,6625.982582400001,23.108,-11.587,176.195,1.0
8.1166,128.180229,37.946163,6624.6737712,25.04,-11.543,176.256,1.0
8.1333,128.180232,37.946115,6623.3655696000005,26.956,-11.497,176.319,1.0
8.15,128.180235,37.946067,6622.0579776,28.853,-11.451,176.385,1.0
8.1666,128.180238,37.946019,6620.7513,30.73,-11.404,176.454,1.0
8.1833,128.180241,37.945971,6619.445232,32.589,-11.356,176.526,1.0
8.2,128.180244,37.945922,6618.140078400001,34.427,-11.308,176.602,1.0
8.2166,128.180247,37.945874,6616.8358392,36.243,-11.26,176.68,1.0
8.2333,128.18025,37.945826,6615.532209600001,38.037,-11.211,176.762,1.0
8.25,128.180253,37.945777,6614.2291896,39.808,-11.163,176.848,1.0
8.2666,128.180256,37.945729,6612.9273888,41.555,-11.115,176.937,1.0
8.2833,128.180259,37.945681,6611.6261976000005,43.277,-11.067,177.029,1.0
8.3,128.180262,37.945632,6610.3259208,44.974,-11.021,177.124,1.0
8.3166,128.180265,37.945584,6609.0262536,46.645,-10.975,177.223,1.0
8.3333,128.180268,37.945535,6607.727500800001,48.289,-10.93,177.325,1.0
8.35,128.180271,37.945487,6606.4296624,49.905,-10.887,177.431,1.0
8.3666,128.180274,37.945439,6605.132738400001,51.494,-10.845,177.539,1.0
8.3833,128.180277,37.94539,6603.836424000001,53.054,-10.804,177.65,1.0
8.4,128.180279,37.945342,6602.5407192,54.585,-10.766,177.764,1.0
8.4166,128.180282,37.945293,6601.245624000001,56.086,-10.729,177.881,1.0
8.4333,128.180285,37.945245,6599.9514432,57.558,-10.695,178.0,1.0
8.45,128.180287,37.945196,6598.657872,58.998,-10.662,178.122,1.0
8.4666,128.18029,37.945148,6597.364910400001,60.407,-10.632,178.247,1.0
8.4833,128.180292,37.945099,6596.0722536,61.784,-10.603,178.374,1.0
8.5,128.180295,37.94505,6594.780206400001,63.129,-10.578,178.503,1.0
8.5166,128.180297,37.945002,6593.488768800001,64.442,-10.554,178.634,1.0
8.5333,128.180299,37.944953,6592.197636,65.721,-10.533,178.767,1.0
8.55,128.180302,37.944904,6590.906808,66.966,-10.515,178.901,1.0
8.5666,128.180304,37.944856,6589.61598,68.178,-10.499,179.037,1.0
8.5833,128.180306,37.944807,6588.3257616,69.354,-10.485,179.175,1.0
8.6,128.180308,37.944758,6587.035238400001,70.496,-10.475,179.314,1.0
8.6166,128.18031,37.94471,6585.745020000001,71.602,-10.466,179.454,1.0
8.6333,128.180312,37.944661,6584.454801600001,72.672,-10.46,179.595,1.0
8.65,128.180314,37.944612,6583.1645832,73.706,-10.456,179.738,1.0
8.6666,128.180316,37.944563,6581.87406,74.702,-10.455,179.881,1.0
8.6833,128.180317,37.944515,6580.583232,75.661,-10.456,180.025,1.0
8.7,128.180319,37.944466,6579.2920992,76.583,-10.459,180.17,1.0
8.7166,128.18032,37.944417,6578.0006616,77.468,-10.465,180.315,1.0
8.7333,128.180322,37.944368,6576.7086144,78.315,-10.473,180.46,1.0
8.75,128.180323,37.94432,6575.4159576,79.125,-10.483,180.605,1.0
8.7666,128.180325,37.944271,6574.1226912,79.897,-10.495,180.75,1.0
8.7833,128.180326,37.944222,6572.8288152000005,80.63,-10.509,180.896,1.0
8.8,128.180327,37.944173,6571.534024800001,81.324,-10.524,181.044,1.0
8.8166,128.180328,37.944124,6570.238624800001,81.981,-10.541,181.191,1.0
8.8333,128.180329,37.944075,6568.942005600001,82.6,-10.559,181.339,1.0
8.85,128.18033,37.944026,6567.644472,83.181,-10.578,181.486,1.0
8.8666,128.180331,37.943977,6566.346024,83.812,-10.605,181.634,1.0
8.8833,128.180331,37.943929,6565.046052000001,84.48,-10.639,181.782,1.0
8.9,128.180332,37.94388,6563.744556000001,85.168,-10.675,181.93,1.0
8.9166,128.180332,37.943831,6562.441536,85.856,-10.711,182.076,1.0
8.9333,128.180333,37.943782,6561.136992000001,86.521,-10.743,182.224,1.0
8.95,128.180333,37.943733,6559.830619200001,87.145,-10.771,182.372,1.0
8.9666,128.180333,37.943684,6558.5227224,87.713,-10.797,182.523,1.0
8.9833,128.180334,37.943635,6557.213301600001,88.219,-10.821,182.675,1.0
9.0,128.180334,37.943586,6555.902052,88.66,-10.845,182.83,1.0
9.0166,128.180333,37.943537,6554.589278400001,89.041,-10.87,182.986,1.0
9.0333,128.180333,37.943488,6553.274676,89.367,-10.897,183.144,1.0
9.05,128.180333,37.943439,6551.95794,89.647,-10.926,183.302,1.0
9.0666,128.180332,37.94339,6550.639375199999,89.89,-10.957,183.457,1.0
9.0833,128.180332,37.943341,6549.3189816,90.102,-10.99,183.606,1.0
9.1,128.180331,37.943292,6547.9961496000005,90.285,-11.023,183.747,1.0
9.1166,128.180331,37.943243,6546.6714888,90.437,-11.056,183.878,1.0
9.1333,128.18033,37.943194,6545.3443896,90.557,-11.086,184.0,1.0
9.15,128.180329,37.943145,6544.015156800001,90.637,-11.111,184.114,1.0
9.1666,128.180328,37.943096,6542.6834856000005,90.669,-11.131,184.22,1.0
9.1833,128.180326,37.943047,6541.3496808,90.642,-11.145,184.32,1.0
9.2,128.180325,37.942998,6540.0137424,90.552,-11.155,184.417,1.0
9.2166,128.180324,37.942949,6538.675670400001,90.397,-11.163,184.512,1.0
9.2333,128.180322,37.9429,6537.3354648,90.178,-11.171,184.606,1.0
9.25,128.18032,37.942851,6535.9934304,89.905,-11.18,184.702,1.0
9.2666,128.180318,37.942802,6534.6495672,89.59,-11.189,184.801,1.0
9.2833,128.180317,37.942753,6533.3038752,89.243,-11.201,184.904,1.0
9.3,128.180315,37.942704,6531.9560496,88.871,-11.213,185.009,1.0
9.3166,128.180312,37.942655,6530.6063952,88.479,-11.225,185.116,1.0
9.3333,128.18031,37.942606,6529.254912,88.078,-11.237,185.226,1.0
9.35,128.180308,37.942557,6527.9019048,87.672,-11.249,185.339,1.0
9.3666,128.180305,37.942508,6526.546764000001,87.264,-11.261,185.454,1.0
9.3833,128.180303,37.942459,6525.190404,86.855,-11.272,185.57,1.0
9.4,128.1803,37.94241,6523.8319104,86.452,-11.283,185.689,1.0
9.4166,128.180297,37.942361,6522.472197600001,86.05,-11.292,185.808,1.0
9.4333,128.180294,37.942312,6521.110960800001,85.652,-11.3,185.927,1.0
9.45,128.180291,37.942263,6519.7482,85.258,-11.307,186.046,1.0
9.4666,128.180288,37.942214,6518.384220000001,84.869,-11.313,186.166,1.0
9.4833,128.180285,37.942165,6517.018716,84.489,-11.319,186.286,1.0
9.5,128.180282,37.942116,6515.651992800001,84.119,-11.323,186.408,1.0
9.5166,128.180278,37.942067,6514.2840504000005,83.759,-11.327,186.53,1.0
9.5333,128.180275,37.942018,6512.9148888,83.41,-11.33,186.652,1.0
9.55,128.180271,37.941969,6511.544508,83.072,-11.333,186.774,1.0
9.5666,128.180267,37.94192,6510.1732128,82.747,-11.334,186.897,1.0
9.5833,128.180263,37.941871,6508.8010032,82.439,-11.335,187.021,1.0
9.6,128.180259,37.941822,6507.427574400001,82.146,-11.336,187.147,1.0
9.6166,128.180255,37.941773,6506.0532312000005,81.869,-11.335,187.273,1.0
9.6333,128.180251,37.941723,6504.677973600001,81.608,-11.334,187.399,1.0
9.65,128.180247,37.941674,6503.3021064,81.361,-11.332,187.525,1.0
9.6666,128.180242,37.941625,6501.9253248,81.129,-11.33,187.651,1.0
9.6833,128.180238,37.941576,6500.547628800001,80.912,-11.327,187.777,1.0
9.7,128.180233,37.941527,6499.169628000001,80.71,-11.323,187.903,1.0
9.7166,128.180228,37.941478,6497.790408,80.523,-11.319,188.031,1.0
9.7333,128.180223,37.941429,6496.410883200001,80.353,-11.315,188.16,1.0
9.75,128.180218,37.94138,6495.0307488,80.199,-11.31,188.291,1.0
9.7666,128.180213,37.941331,6493.650004800001,80.059,-11.304,188.422,1.0
9.7833,128.180208,37.941282,6492.268651200001,79.933,-11.298,188.553,1.0
9.8,128.180202,37.941233,6490.8866880000005,79.821,-11.292,188.685,1.0
9.8166,128.180197,37.941184,6489.504420000001,79.721,-11.285,188.816,1.0
9.8333,128.180191,37.941135,6488.121542400001,79.633,-11.278,188.947,1.0
9.85,128.180186,37.941086,6486.73836,79.557,-11.271,189.079,1.0
9.8666,128.18018,37.941036,6485.3548728000005,79.491,-11.264,189.211,1.0
9.8833,128.180174,37.940987,6483.970776,79.435,-11.256,189.343,1.0
9.9,128.180168,37.940938,6482.586374400001,79.39,-11.249,189.476,1.0
9.9166,128.180162,37.940889,6481.201668000001,79.353,-11.241,189.609,1.0
9.9333,128.180155,37.94084,6479.816656800001,79.326,-11.233,189.743,1.0
9.95,128.180149,37.940791,6478.431340800001,79.306,-11.225,189.877,1.0
9.9666,128.180142,37.940742,6477.045720000001,79.295,-11.217,190.011,1.0
9.9833,128.180136,37.940693,6475.6594896,79.29,-11.209,190.146,1.0
10.0,128.180129,37.940644,6474.2732592,79.293,-11.201,190.282,1.0
10.0166,128.180122,37.940595,6472.887028800001,79.302,-11.193,190.418,1.0
10.0333,128.180115,37.940546,6471.5001888,79.317,-11.184,190.555,1.0
10.05,128.180108,37.940497,6470.1133488,79.337,-11.176,190.693,1.0
10.0666,128.1801,37.940448,6468.7258992,79.362,-11.168,190.83,1.0
10.0833,128.180093,37.940399,6467.3384496,79.393,-11.16,190.968,1.0
10.1,128.180086,37.940349,6465.951,79.428,-11.153,191.108,1.0
10.1166,128.180078,37.9403,6464.5632456,79.466,-11.145,191.248,1.0
10.1333,128.18007,37.940251,6463.1748816,79.509,-11.137,191.389,1.0
10.15,128.180062,37.940202,6461.7868224,79.555,-11.129,191.53,1.0
10.1666,128.180054,37.940153,6460.3981536,79.605,-11.122,191.673,1.0
10.1833,128.180046,37.940104,6459.0094848,79.657,-11.114,191.815,1.0
10.2,128.180038,37.940055,6457.620816,79.712,-11.107,191.959,1.0
10.2166,128.180029,37.940006,6456.2318424000005,79.769,-11.1,192.102,1.0
10.2333,128.180021,37.939957,6454.8425640000005,79.829,-11.093,192.246,1.0
10.25,128.180012,37.939908,6453.4529808,79.89,-11.087,192.389,1.0
10.2666,128.180003,37.939859,6452.063397600001,79.953,-11.081,192.532,1.0
10.2833,128.179994,37.93981,6450.6735096,80.017,-11.075,192.676,1.0
10.3,128.179985,37.939761,6449.2833168,80.083,-11.069,192.818,1.0
10.3166,128.179976,37.939712,6447.893124000001,80.15,-11.064,192.961,1.0
10.3333,128.179966,37.939663,6446.5026264,80.217,-11.059,193.104,1.0
10.35,128.179957,37.939614,6445.1121288,80.285,-11.055,193.248,1.0
10.3666,128.179947,37.939565,6443.7213264,80.354,-11.051,193.392,1.0
10.3833,128.179937,37.939516,6442.330219200001,80.422,-11.047,193.538,1.0
10.4,128.179928,37.939467,6440.9388072,80.491,-11.044,193.684,1.0
10.4166,128.179918,37.939418,6439.5473952,80.56,-11.042,193.83,1.0
10.4333,128.179907,37.939369,6438.1556784,80.63,-11.04,193.976,1.0
10.45,128.179897,37.939321,6436.763656800001,80.7,-11.038,194.123,1.0
10.4666,128.179887,37.939272,6435.3713304,80.77,-11.037,194.271,1.0
10.4833,128.179876,37.939223,6433.979004,80.841,-11.036,194.419,1.0
10.5,128.179865,37.939174,6432.5860680000005,80.911,-11.035,194.567,1.0
10.5166,128.179854,37.939125,6431.193132,80.983,-11.035,194.715,1.0
10.5333,128.179843,37.939076,6429.7998912,81.054,-11.035,194.863,1.0
10.55,128.179832,37.939027,6428.4063456,81.126,-11.035,195.012,1.0
10.5666,128.179821,37.938978,6427.0121904,81.197,-11.035,195.161,1.0
10.5833,128.17981,37.93893,6425.6180352,81.269,-11.035,195.31,1.0
10.6,128.179798,37.938881,6424.2235752,81.341,-11.035,195.458,1.0
10.6166,128.179786,37.938832,6422.8288104,81.412,-11.035,195.608,1.0
10.6333,128.179774,37.938783,6421.4337408,81.483,-11.035,195.757,1.0
10.65,128.179762,37.938735,6420.0383664,81.554,-11.035,195.907,1.0
10.6666,128.17975,37.938686,6418.6423824,81.625,-11.036,196.057,1.0
10.6833,128.179738,37.938637,6417.2463984,81.695,-11.036,196.207,1.0
10.7,128.179726,37.938588,6415.8498048,81.765,-11.036,196.358,1.0
10.7166,128.179713,37.93854,6414.453211200001,81.835,-11.036,196.51,1.0
10.7333,128.1797,37.938491,6413.0560080000005,81.903,-11.036,196.662,1.0
10.75,128.179687,37.938442,6411.6585000000005,81.972,-11.036,196.816,1.0
10.7666,128.179674,37.938394,6410.260382400001,82.04,-11.036,196.971,1.0
10.7833,128.179661,37.938345,6408.862264800001,82.107,-11.036,197.127,1.0
10.8,128.179648,37.938296,6407.463537600001,82.174,-11.036,197.283,1.0
10.8166,128.179634,37.938248,6406.0645056,82.24,-11.036,197.438,1.0
10.8333,128.179621,37.938199,6404.664864,82.305,-11.036,197.594,1.0
10.85,128.179607,37.938151,6403.2652224,82.37,-11.037,197.75,1.0
10.8666,128.179593,37.938102,6401.8646664,82.434,-11.038,197.905,1.0
10.8833,128.179579,37.938054,6400.4641104,82.497,-11.039,198.062,1.0
10.9,128.179565,37.938005,6399.0629448,82.559,-11.04,198.219,1.0
10.9166,128.179551,37.937957,6397.661474400001,82.621,-11.041,198.378,1.0
10.9333,128.179536,37.937908,6396.2593944,82.682,-11.043,198.538,1.0
10.95,128.179522,37.93786,6394.8570096,82.743,-11.044,198.698,1.0
10.9666,128.179507,37.937812,6393.454015200001,82.803,-11.046,198.858,1.0
10.9833,128.179492,37.937763,6392.050716,82.862,-11.048,199.018,1.0
11.0,128.179477,37.937715,6390.647112,82.921,-11.05,199.178,1.0
11.0166,128.179462,37.937666,6389.2425936,82.978,-11.053,199.332,1.0
11.0333,128.179446,37.937618,6387.837160800001,82.937,-11.047,199.459,1.0
11.05,128.179431,37.93757,6386.431118400001,82.807,-11.035,199.541,1.0
11.0666,128.179415,37.937522,6385.0247712,82.586,-11.025,199.561,1.0
11.0833,128.179399,37.937473,6383.618424,82.276,-11.023,199.501,1.0
11.1,128.179383,37.937425,6382.211772000001,81.875,-11.031,199.376,1.0
11.1166,128.179367,37.937377,6380.805424800001,81.382,-11.046,199.207,1.0
11.1333,128.179351,37.937329,6379.3990776,80.795,-11.065,199.018,1.0
11.15,128.179334,37.937281,6377.9930352,80.116,-11.086,198.832,1.0
11.1666,128.179318,37.937233,6376.5876024,79.344,-11.103,198.669,1.0
11.1833,128.179301,37.937185,6375.1824744000005,78.481,-11.117,198.534,1.0
11.2,128.179284,37.937137,6373.778260800001,77.533,-11.127,198.424,1.0
11.2166,128.179267,37.937089,6372.3749616,76.502,-11.135,198.336,1.0
11.2333,128.17925,37.937041,6370.972272,75.392,-11.139,198.267,1.0
11.25,128.179233,37.936993,6369.570801600001,74.207,-11.141,198.215,1.0
11.2666,128.179215,37.936945,6368.1705504,72.951,-11.139,198.178,1.0
11.2833,128.179198,37.936897,6366.771823200001,71.626,-11.133,198.158,1.0
11.3,128.17918,37.936849,6365.3746200000005,70.235,-11.123,198.152,1.0
11.3166,128.179162,37.936801,6363.9792456000005,68.782,-11.108,198.161,1.0
11.3333,128.179144,37.936753,6362.5860048,67.268,-11.087,198.185,1.0
11.35,128.179126,37.936706,6361.1952024,65.697,-11.059,198.223,1.0
11.3666,128.179108,37.936658,6359.8071432,64.071,-11.024,198.275,1.0
11.3833,128.17909,37.93661,6358.422132000001,62.392,-10.98,198.339,1.0
11.4,128.179072,37.936562,6357.0401688,60.662,-10.928,198.416,1.0
11.4166,128.179053,37.936514,6355.6618632,58.884,-10.867,198.505,1.0
11.4333,128.179035,37.936467,6354.287215200001,57.06,-10.795,198.604,1.0
11.45,128.179016,37.936419,6352.917444,55.191,-10.712,198.713,1.0
11.4666,128.178997,37.936371,6351.55194,53.28,-10.618,198.83,1.0
11.4833,128.178978,37.936323,6350.1916176,51.331,-10.511,198.956,1.0
11.5,128.178959,37.936276,6348.8364768,49.368,-10.394,199.09,1.0
11.5166,128.17894,37.936228,6347.4862128,47.41,-10.266,199.232,1.0
11.5333,128.178921,37.93618,6346.1414352,45.477,-10.127,199.381,1.0
11.55,128.178902,37.936133,6344.802144,43.588,-9.977,199.536,1.0
11.5666,128.178882,37.936085,6343.4683392,41.755,-9.815,199.695,1.0
11.5833,128.178863,37.936037,6342.1403256,39.99,-9.641,199.858,1.0
11.6,128.178843,37.93599,6340.8181032,38.301,-9.455,200.021,1.0
11.6166,128.178824,37.935942,6339.501672,36.693,-9.257,200.185,1.0
11.6333,128.178804,37.935894,6338.1916416,35.168,-9.048,200.347,1.0
11.65,128.178784,37.935847,6336.888012,33.728,-8.829,200.507,1.0
11.6666,128.178764,37.935799,6335.591392800001,32.371,-8.6,200.663,1.0
11.6833,128.178744,37.935751,6334.3023936,31.096,-8.364,200.815,1.0
11.7,128.178724,37.935704,6333.0210144,29.899,-8.12,200.961,1.0
11.7166,128.178704,37.935656,6331.747864800001,28.777,-7.87,201.103,1.0
11.7333,128.178684,37.935608,6330.483554400001,27.727,-7.616,201.238,1.0
11.75,128.178663,37.935561,6329.228083200001,26.743,-7.359,201.367,1.0
11.7666,128.178643,37.935513,6327.982060800001,25.822,-7.102,201.489,1.0
11.7833,128.178622,37.935465,6326.745487200001,24.96,-6.85,201.601,1.0
11.8,128.178602,37.935418,6325.519276800001,24.152,-6.604,201.704,1.0
11.8166,128.178581,37.93537,6324.303124800001,23.394,-6.366,201.798,1.0
11.8333,128.17856,37.935322,6323.097640800001,22.683,-6.135,201.883,1.0
11.85,128.17854,37.935274,6321.903129599999,22.015,-5.911,201.96,1.0
11.8666,128.178519,37.935227,6320.719591200001,21.386,-5.693,202.03,1.0
11.8833,128.178498,37.935179,6319.5476352,20.793,-5.481,202.094,1.0
11.9,128.178477,37.935131,6318.3872616,20.233,-5.275,202.153,1.0
11.9166,128.178456,37.935084,6317.238470400001,19.703,-5.073,202.206,1.0
11.9333,128.178434,37.935036,6316.1015664,19.201,-4.875,202.255,1.0
11.95,128.178413,37.934988,6314.9768544,18.725,-4.681,202.3,1.0
11.9666,128.178392,37.93494,6313.8643344,18.273,-4.491,202.34,1.0
11.9833,128.178371,37.934893,6312.7643112000005,17.843,-4.304,202.378,1.0
12.0,128.178349,37.934845,6311.6767848,17.433,-4.12,202.412,1.0
12.0166,128.178328,37.934797,6310.602669600001,16.952,-3.937,202.437,1.0
12.0333,128.178306,37.934749,6309.54288,16.405,-3.754,202.452,1.0
12.05,128.178284,37.934702,6308.497416,15.803,-3.573,202.463,1.0
12.0666,128.178263,37.934654,6307.4668872,15.157,-3.393,202.472,1.0
12.0833,128.178241,37.934606,6306.450074400001,14.484,-3.216,202.481,1.0
12.1,128.178219,37.934558,6305.4472824,13.797,-3.041,202.491,1.0
12.1166,128.178197,37.93451,6304.457596800001,13.111,-2.867,202.502,1.0
12.1333,128.178175,37.934463,6303.4813224,12.437,-2.696,202.512,1.0
12.15,128.178153,37.934415,6302.5184592000005,11.785,-2.525,202.521,1.0
12.1666,128.178131,37.934367,6301.568397600001,11.16,-2.355,202.529,1.0
12.1833,128.178109,37.934319,6300.631442400001,10.569,-2.186,202.535,1.0
12.2,128.178087,37.934272,6299.7072888,10.012,-2.019,202.539,1.0
12.2166,128.178065,37.934224,6298.796546400001,9.492,-1.852,202.541,1.0
12.2333,128.178043,37.934176,6297.8986056,9.008,-1.687,202.541,1.0
12.25,128.17802,37.934128,6297.014076,8.559,-1.522,202.538,1.0
12.2666,128.177998,37.93408,6296.1426528,8.143,-1.359,202.534,1.0
12.2833,128.177976,37.934032,6295.284336000001,7.759,-1.197,202.528,1.0
12.3,128.177953,37.933985,6294.4397352,7.405,-1.036,202.52,1.0
12.3166,128.177931,37.933937,6293.6082408,7.078,-0.875,202.51,1.0
12.3333,128.177909,37.933889,6292.7904624,6.776,-0.716,202.499,1.0
12.35,128.177886,37.933841,6291.9860952,6.497,-0.558,202.487,1.0
12.3666,128.177864,37.933793,6291.195444,6.238,-0.401,202.473,1.0
12.3833,128.177841,37.933745,6290.4182040000005,5.998,-0.245,202.459,1.0
12.4,128.177819,37.933698,6289.6549847999995,5.774,-0.09,202.444,1.0
12.4166,128.177796,37.93365,6288.905481600001,5.565,0.064,202.428,1.0
12.4333,128.177773,37.933602,6288.1699992,5.369,0.217,202.412,1.0
12.45,128.177751,37.933554,6287.4482328,5.186,0.37,202.396,1.0
12.4666,128.177728,37.933506,6286.740487200001,5.013,0.523,202.379,1.0
12.4833,128.177705,37.933458,6286.0464576,4.851,0.674,202.363,1.0
12.5,128.177683,37.93341,6285.3664488,4.697,0.825,202.346,1.0
12.5166,128.17766,37.933362,6284.7007656000005,4.552,0.976,202.329,1.0
12.5333,128.177637,37.933314,6284.0487984,4.414,1.126,202.312,1.0
12.55,128.177614,37.933266,6283.410852000001,4.284,1.276,202.295,1.0
12.5666,128.177591,37.933219,6282.7872312,4.16,1.425,202.278,1.0
12.5833,128.177569,37.933171,6282.1773264,4.041,1.574,202.262,1.0
12.6,128.177546,37.933123,6281.581747200001,3.929,1.722,202.245,1.0
12.6166,128.177523,37.933075,6281.0004936,3.821,1.87,202.228,1.0
12.6333,128.1775,37.933027,6280.432956000001,3.718,2.018,202.211,1.0
12.65,128.177477,37.932979,6279.8800488,3.619,2.166,202.194,1.0
12.6666,128.177454,37.932931,6279.3408576,3.524,2.313,202.178,1.0
12.6833,128.177431,37.932883,6278.816296800001,3.433,2.46,202.161,1.0
12.7,128.177408,37.932835,6278.3054520000005,3.346,2.607,202.145,1.0
12.7166,128.177385,37.932787,6277.8092376,3.262,2.754,202.129,1.0
12.7333,128.177362,37.932739,6277.327044,3.181,2.9,202.112,1.0
12.75,128.177339,37.932691,6276.8588712,3.103,3.046,202.096,1.0
12.7666,128.177316,37.932643,6276.405024000001,3.027,3.192,202.081,1.0
12.7833,128.177293,37.932596,6275.965502399999,2.954,3.338,202.065,1.0
12.8,128.17727,37.932548,6275.540306400001,2.884,3.484,202.049,1.0
12.8166,128.177247,37.9325,6275.1291312,2.816,3.629,202.034,1.0
12.8333,128.177224,37.932452,6274.7322816000005,2.751,3.775,202.018,1.0
12.85,128.177201,37.932404,6274.3497576,2.687,3.92,202.003,1.0
12.8666,128.177178,37.932356,6273.981254400001,2.625,4.065,201.988,1.0
12.8833,128.177154,37.932308,6273.6273816,2.566,4.21,201.973,1.0
12.9,128.177131,37.93226,6273.2875296,2.508,4.355,201.958,1.0
12.9166,128.177108,37.932212,6272.9620032,2.452,4.5,201.944,1.0
12.9333,128.177085,37.932164,6272.650497600001,2.398,4.645,201.929,1.0
12.95,128.177062,37.932116,6272.3536224,2.345,4.789,201.915,1.0
12.9666,128.177039,37.932068,6272.0707680000005,2.294,4.934,201.901,1.0
12.9833,128.177015,37.93202,6271.8022392,2.245,5.078,201.887,1.0
13.0,128.176992,37.931972,6271.548036,2.197,5.223,201.873,1.0
13.0166,128.176969,37.931925,6271.3078536,2.15,5.367,201.859,1.0
13.0333,128.176946,37.931877,6271.0823016,2.104,5.511,201.846,1.0
13.0499,128.176922,37.931829,6270.870770400001,2.06,5.655,201.832,1.0
13.0666,128.176899,37.931781,6270.6735648,2.018,5.8,201.819,1.0
13.0833,128.176876,37.931733,6270.4906848,1.976,5.944,201.806,1.0
13.1,128.176853,37.931685,6270.3221304,1.936,6.087,201.793,1.0
13.1166,128.176829,37.931637,6270.167596800001,1.897,6.231,201.781,1.0
13.1333,128.176806,37.931589,6270.0273888,1.858,6.375,201.768,1.0
13.15,128.176783,37.931541,6269.9015064000005,1.821,6.519,201.755,1.0
13.1666,128.17676,37.931494,6269.7899496,1.785,6.663,201.743,1.0
13.1833,128.176736,37.931446,6269.692718400001,1.75,6.806,201.731,1.0
13.2,128.176713,37.931398,6269.6095080000005,1.716,6.95,201.719,1.0
13.2166,128.17669,37.93135,6269.5406232000005,1.683,7.093,201.707,1.0
13.2333,128.176666,37.931302,6269.486064000001,1.651,7.237,201.695,1.0
13.25,128.176643,37.931254,6269.4455256,1.62,7.38,201.684,1.0
13.2666,128.17662,37.931207,6269.4193128,1.59,7.524,201.672,1.0
13.2833,128.176596,37.931159,6269.4074256,1.56,7.667,201.661,1.0
13.3,128.176573,37.931111,6269.409864,1.532,7.81,201.65,1.0
13.3166,128.17655,37.931063,6269.4263232,1.504,7.953,201.639,1.0
13.3333,128.176527,37.931015,6269.457108,1.477,8.097,201.628,1.0
13.35,128.176503,37.930968,6269.5019136,1.451,8.24,201.617,1.0
13.3666,128.17648,37.93092,6269.5610448,1.425,8.383,201.607,1.0
13.3833,128.176457,37.930872,6269.6345016000005,1.4,8.526,201.596,1.0
13.4,128.176433,37.930824,6269.7219792000005,1.376,8.669,201.586,1.0
13.4166,128.17641,37.930777,6269.823782400001,1.353,8.812,201.576,1.0
13.4333,128.176387,37.930729,6269.939606400001,1.33,8.955,201.566,1.0
13.45,128.176363,37.930681,6270.069756000001,1.308,9.098,201.556,1.0
13.4666,128.17634,37.930633,6270.2139264,1.287,9.241,201.546,1.0
13.4833,128.176317,37.930586,6270.372422400001,1.266,9.384,201.536,1.0
13.5,128.176293,37.930538,6270.545244,1.246,9.526,201.527,1.0
13.5166,128.17627,37.93049,6270.7317816,1.227,9.669,201.518,1.0
13.5333,128.176247,37.930443,6270.9326448,1.208,9.812,201.508,1.0
13.55,128.176223,37.930395,6271.147833600001,1.19,9.955,201.499,1.0
13.5666,128.1762,37.930348,6271.3770432,1.172,10.097,201.49,1.0
13.5833,128.176177,37.9303,6271.6202736000005,1.155,10.24,201.481,1.0
13.6,128.176153,37.930252,6271.877524800001,1.139,10.382,201.472,1.0
13.6166,128.17613,37.930205,6272.149101600001,1.123,10.525,201.464,1.0
13.6333,128.176107,37.930157,6272.4346992,1.107,10.667,201.455,1.0
13.65,128.176083,37.93011,6272.7346224,1.092,10.81,201.447,1.0
13.6666,128.17606,37.930062,6273.0482616,1.078,10.952,201.439,1.0
13.6833,128.176037,37.930015,6273.3762264,1.064,11.095,201.43,1.0
13.7,128.176013,37.929967,6273.7179072,1.05,11.237,201.422,1.0
13.7166,128.17599,37.92992,6274.0739136,1.037,11.379,201.414,1.0
13.7333,128.175967,37.929872,6274.4439408,1.025,11.522,201.407,1.0
13.75,128.175943,37.929825,6274.8279888,1.013,11.664,201.399,1.0
13.7666,128.17592,37.929777,6275.2260576,1.001,11.806,201.391,1.0
13.7833,128.175897,37.92973,6275.638147200001,0.99,11.948,201.384,1.0
13.8,128.175874,37.929682,6276.0642576,0.98,12.091,201.376,1.0
13.8166,128.17585,37.929635,6276.5043888,0.969,12.233,201.369,1.0
13.8333,128.175827,37.929588,6276.958236,0.96,12.375,201.362,1.0
13.85,128.175804,37.92954,6277.4264088,0.95,12.517,201.355,1.0
13.8666,128.175781,37.929493,6277.908297600001,0.941,12.659,201.348,1.0
13.8833,128.175757,37.929446,6278.4042072,0.933,12.801,201.341,1.0
13.9,128.175734,37.929398,6278.914137600001,0.925,12.943,201.334,1.0
13.9166,128.175711,37.929351,6279.437784000001,0.917,13.085,201.328,1.0
13.9333,128.175688,37.929304,6279.975451200001,0.91,13.227,201.321,1.0
13.95,128.175664,37.929257,6280.5271391999995,0.903,13.369,201.315,1.0
13.9666,128.175641,37.92921,6281.092543199999,0.896,13.51,201.309,1.0
13.9833,128.175618,37.929162,6281.671968000001,0.89,13.652,201.302,1.0
14.0,128.175595,37.929115,6282.2654136,0.884,13.794,201.296,1.0
14.0166,128.175572,37.929068,6282.872270400001,0.879,13.936,201.29,1.0
14.0333,128.175548,37.929021,6283.4934528,0.873,14.077,201.284,1.0
14.05,128.175525,37.928974,6284.1280464,0.869,14.219,201.278,1.0
14.0666,128.175502,37.928927,6284.776660800001,0.864,14.361,201.273,1.0
14.0833,128.175479,37.92888,6285.438991200001,0.86,14.502,201.267,1.0
14.1,128.175456,37.928833,6286.1153424,0.856,14.644,201.262,1.0
14.1166,128.175433,37.928786,6286.805104800001,0.853,14.785,201.256,1.0
14.1333,128.175409,37.928739,6287.508888,0.85,14.927,201.251,1.0
14.15,128.175386,37.928692,6288.2263872,0.847,15.068,201.246,1.0
14.1666,128.175363,37.928645,6288.9576024,0.845,15.209,201.24,1.0
14.1833,128.17534,37.928598,6289.702533600001,0.843,15.351,201.235,1.0
14.2,128.175317,37.928551,6290.4611808,0.841,15.492,201.23,1.0
14.2166,128.175294,37.928504,6291.233544,0.839,15.633,201.226,1.0
14.2333,128.175271,37.928458,6292.0193184,0.838,15.775,201.221,1.0
14.25,128.175248,37.928411,6292.8191136000005,0.837,15.916,201.216,1.0
14.2666,128.175225,37.928364,6293.632320000001,0.836,16.057,201.212,1.0
14.2833,128.175202,37.928317,6294.459242400001,0.836,16.198,201.207,1.0
14.3,128.175179,37.928271,6295.2998808,0.836,16.339,201.203,1.0
14.3166,128.175156,37.928224,6296.1542352,0.836,16.48,201.198,1.0
14.3333,128.175133,37.928177,6297.022000800001,0.837,16.621,201.194,1.0
14.35,128.17511,37.928131,6297.9031776,0.838,16.762,201.19,1.0
14.3666,128.175087,37.928084,6298.798070400001,0.839,16.903,201.186,1.0
14.3833,128.175064,37.928037,6299.706374400001,0.84,17.044,201.182,1.0
14.4,128.175041,37.927991,6300.6283944,0.841,17.185,201.178,1.0
14.4166,128.175018,37.927944,6301.5638256,0.843,17.326,201.174,1.0
14.4333,128.174995,37.927898,6302.5129728,0.845,17.467,201.171,1.0
14.45,128.174972,37.927852,6303.4752264,0.848,17.607,201.167,1.0
14.4666,128.174949,37.927805,6304.451196000001,0.85,17.748,201.163,1.0
14.4833,128.174926,37.927759,6305.440576800001,0.853,17.889,201.16,1.0
14.5,128.174903,37.927712,6306.443368800001,0.856,18.029,201.157,1.0
