Time,Longitude,Latitude,Altitude,Roll (deg),Pitch (deg),Yaw (deg),Health
0.0,128.181881,37.923646,7000.146528,0.0,-0.003,0.0,1.0
0.0166,128.181881,37.923691,7000.1605488000005,0.0,-0.012,0.0,1.0
0.0333,128.181881,37.923736,7000.173960000001,0.0,-0.025,0.0,1.0
0.05,128.181881,37.923781,7000.186152000001,0.0,-0.039,0.0,1.0
0.0666,128.181881,37.923826,7000.1977344,0.0,-0.054,0.0,1.0
0.0833,128.181881,37.923871,7000.2084024,0.0,-0.069,359.999,1.0
0.1,128.181881,37.923916,7000.218156000001,0.0,-0.085,359.999,1.0
0.1166,128.181881,37.923961,7000.2273000000005,0.0,-0.099,359.999,1.0
0.1333,128.181881,37.924006,7000.235224800001,0.0,-0.112,359.999,1.0
0.15,128.181881,37.924051,7000.24254,0.0,-0.125,359.999,1.0
0.1666,128.181881,37.924096,7000.2489408,0.0,-0.136,359.999,1.0
0.1833,128.181881,37.924141,7000.2544272000005,0.0,-0.146,0.0,1.0
0.2,128.181881,37.924186,7000.2589992,0.0,-0.155,0.0,1.0
0.2166,128.181881,37.924231,7000.2626568000005,0.0,-0.163,0.0,1.0
0.2333,128.181881,37.924276,7000.2657048,0.0,-0.17,0.0,1.0
0.25,128.181881,37.924321,7000.267838400001,0.0,-0.176,0.0,1.0
0.2666,128.181881,37.924366,7000.2690575999995,0.0,-0.181,0.0,1.0
0.2833,128.181881,37.924411,7000.2696672,0.0,-0.186,0.0,1.0
0.3,128.181881,37.924456,7000.2690575999995,0.0,-0.19,0.0,1.0
0.3166,128.181881,37.924501,7000.267838400001,0.0,-0.195,0.0,1.0
0.3333,128.181881,37.924546,7000.266009600001,0.0,-0.199,0.0,1.0
0.35,128.181881,37.924591,7000.2632664,0.0,-0.202,0.0,1.0
0.3666,128.181881,37.924636,7000.2596088,0.001,-0.206,0.0,1.0
0.3833,128.181881,37.924682,7000.255341600001,0.001,-0.21,0.0,1.0
0.4,128.181881,37.924727,7000.2501600000005,0.001,-0.214,0.0,1.0
0.4166,128.181881,37.924772,7000.2443688,0.001,-0.217,0.0,1.0
0.4333,128.181881,37.924817,7000.2376632000005,0.001,-0.221,0.0,1.0
0.45,128.181881,37.924862,7000.2300432,0.001,-0.225,0.0,1.0
0.4666,128.181881,37.924907,7000.2218136,0.002,-0.229,0.0,1.0
0.4833,128.181881,37.924952,7000.2129744,0.002,-0.233,0.0,1.0
0.5,128.181881,37.924998,7000.2032208,0.002,-0.238,0.001,1.0
0.5166,128.181881,37.925043,7000.1928576,0.002,-0.242,0.001,1.0
0.5333,128.181881,37.925088,7000.1818848,0.002,-0.246,0.001,1.0
0.55,128.181881,37.925133,7000.169997600001,0.002,-0.251,0.001,1.0
0.5666,128.181881,37.925179,7000.157500800001,0.003,-0.255,0.001,1.0
0.5833,128.181881,37.925224,7000.1440896,0.003,-0.26,0.001,1.0
0.6,128.181881,37.925269,7000.1300688,0.003,-0.264,0.001,1.0
0.6166,128.181881,37.925314,7000.115438400001,0.003,-0.269,0.001,1.0
0.6333,128.181881,37.92536,7000.1001984,0.003,-0.273,0.001,1.0
0.65,128.181881,37.925405,7000.084044,0.003,-0.278,0.0,1.0
0.6666,128.181881,37.92545,7000.06728,0.003,-0.282,0.0,1.0
0.6833,128.181881,37.925495,7000.0499064000005,0.003,-0.287,0.001,1.0
0.7,128.181881,37.925541,7000.0316184,0.003,-0.291,0.001,1.0
0.7166,128.181881,37.925586,7000.012720799999,0.004,-0.295,0.001,1.0
0.7333,128.181881,37.925631,6999.993213600001,0.004,-0.3,0.001,1.0
0.75,128.181881,37.925677,6999.9730968,0.007,-0.305,0.002,1.0
0.7666,128.181881,37.925722,6999.9520656,0.011,-0.31,0.003,1.0
0.7833,128.181881,37.925767,6999.930120000001,0.017,-0.316,0.004,1.0
0.8,128.181881,37.925813,6999.907869600001,0.023,-0.321,0.005,1.0
0.8166,128.181881,37.925858,6999.885009600001,0.029,-0.326,0.006,1.0
0.8333,128.181881,37.925903,6999.86154,0.034,-0.33,0.006,1.0
0.85,128.181881,37.925949,6999.837765600001,0.034,-0.335,0.005,1.0
0.8666,128.181881,37.925994,6999.813991200001,0.025,-0.34,0.003,1.0
0.8833,128.181881,37.92604,6999.7902168,0.002,-0.346,0.0,1.0
0.9,128.181881,37.926085,6999.7652232,-0.025,-0.352,359.996,1.0
0.9166,128.181881,37.92613,6999.7402296,-0.059,-0.358,359.992,1.0
0.9333,128.181881,37.926176,6999.7146264,-0.099,-0.366,359.988,1.0
0.95,128.181881,37.926221,6999.6890232000005,-0.147,-0.373,359.983,1.0
0.9666,128.181881,37.926267,6999.662810400001,-0.202,-0.381,359.978,1.0
0.9833,128.181881,37.926312,6999.636292800001,-0.264,-0.389,359.972,1.0
1.0,128.181881,37.926358,6999.609470400001,-0.335,-0.396,359.966,1.0
1.0166,128.181881,37.926403,6999.5823432,-0.412,-0.404,359.96,1.0
1.0333,128.181881,37.926449,6999.554606400001,-0.496,-0.412,359.954,1.0
1.05,128.181881,37.926494,6999.5265648,-0.587,-0.42,359.947,1.0
1.0666,128.181881,37.92654,6999.496999200001,-0.575,-0.432,359.944,1.0
1.0833,128.181881,37.926585,6999.4662144,-0.462,-0.449,359.945,1.0
1.1,128.181881,37.926631,6999.433296,-0.247,-0.47,359.948,1.0
1.1166,128.181881,37.926676,6999.400377600001,-0.129,-0.492,359.938,1.0
1.1333,128.181881,37.926722,6999.3668496,-0.102,-0.515,359.916,1.0
1.15,128.181881,37.926767,6999.3330168,-0.17,-0.538,359.887,1.0
1.1666,128.181881,37.926813,6999.2994888,-0.336,-0.562,359.854,1.0
1.1833,128.181881,37.926858,6999.266570400001,-0.599,-0.584,359.82,1.0
1.2,128.181881,37.926904,6999.2345663999995,-0.958,-0.607,359.786,1.0
1.2166,128.181881,37.926949,6999.2034768,-1.409,-0.628,359.753,1.0
1.2333,128.181881,37.926995,6999.174215999999,-1.948,-0.648,359.72,1.0
1.25,128.181881,37.927041,6999.1467840000005,-2.573,-0.668,359.689,1.0
1.2666,128.181881,37.927086,6999.121485600001,-3.28,-0.687,359.659,1.0
1.2833,128.181881,37.927132,6999.0983208,-4.064,-0.704,359.629,1.0
1.3,128.181881,37.927177,6999.0772896,-4.923,-0.721,359.601,1.0
1.3166,128.181881,37.927223,6999.058392000001,-5.854,-0.737,359.574,1.0
1.3333,128.181881,37.927269,6999.0413232,-6.853,-0.753,359.547,1.0
1.35,128.181881,37.927314,6999.0260832,-7.917,-0.767,359.522,1.0
1.3666,128.181881,37.92736,6999.012976800001,-9.045,-0.781,359.497,1.0
1.3833,128.181881,37.927405,6999.0016992,-10.232,-0.795,359.474,1.0
1.4,128.181881,37.927451,6998.992250400001,-11.476,-0.808,359.451,1.0
1.4166,128.181881,37.927497,6998.9846304,-12.775,-0.821,359.428,1.0
1.4333,128.181881,37.927542,6998.9785344,-14.127,-0.833,359.407,1.0
1.45,128.181881,37.927588,6998.9742672,-15.528,-0.845,359.387,1.0
1.4666,128.181881,37.927633,6998.9715240000005,-16.977,-0.857,359.367,1.0
1.4833,128.18188,37.927679,6998.9703048,-18.472,-0.868,359.348,1.0
1.5,128.18188,37.927725,6998.970914400001,-20.01,-0.88,359.329,1.0
1.5166,128.18188,37.92777,6998.9727432,-21.59,-0.892,359.312,1.0
1.5333,128.18188,37.927816,6998.976096,-23.21,-0.903,359.295,1.0
1.55,128.18188,37.927862,6998.9809728,-24.867,-0.915,359.279,1.0
1.5666,128.18188,37.927907,6998.9870688,-26.56,-0.927,359.264,1.0
1.5833,128.181879,37.927953,6998.994079200001,-28.285,-0.939,359.249,1.0
1.6,128.181879,37.927998,6999.0013944,-30.033,-0.95,359.236,1.0
1.6166,128.181879,37.928044,6999.009624,-31.794,-0.962,359.225,1.0
1.6333,128.181878,37.92809,6999.0175488,-33.561,-0.973,359.216,1.0
1.65,128.181878,37.928135,6999.0257784000005,-35.327,-0.984,359.209,1.0
1.6666,128.181878,37.928181,6999.0340080000005,-37.088,-0.995,359.203,1.0
1.6833,128.181877,37.928227,6999.041628000001,-38.837,-1.005,359.199,1.0
1.7,128.181877,37.928272,6999.049248,-40.571,-1.015,359.196,1.0
1.7166,128.181877,37.928318,6999.0559536,-42.287,-1.025,359.194,1.0
1.7333,128.181876,37.928364,6999.0620496,-43.981,-1.035,359.194,1.0
1.75,128.181876,37.928409,6999.0675360000005,-45.652,-1.044,359.194,1.0
1.7666,128.181875,37.928455,6999.072108,-47.296,-1.054,359.196,1.0
1.7833,128.181875,37.928501,6999.0757656000005,-48.913,-1.063,359.198,1.0
1.8,128.181874,37.928547,6999.078204,-50.501,-1.073,359.201,1.0
1.8166,128.181874,37.928592,6999.079728000001,-52.058,-1.082,359.204,1.0
1.8333,128.181873,37.928638,6999.079728000001,-53.584,-1.091,359.208,1.0
1.85,128.181872,37.928684,6999.0785088,-55.076,-1.1,359.213,1.0
1.8666,128.181872,37.92873,6999.0757656000005,-56.532,-1.108,359.218,1.0
1.8833,128.181871,37.928775,6999.0714984,-57.953,-1.116,359.223,1.0
1.9,128.18187,37.928821,6999.0654024,-59.336,-1.125,359.229,1.0
1.9166,128.18187,37.928867,6999.0577824,-60.679,-1.132,359.235,1.0
1.9333,128.181869,37.928913,6999.048333600001,-61.982,-1.14,359.242,1.0
1.95,128.181868,37.928958,6999.0367512,-63.241,-1.147,359.248,1.0
1.9666,128.181867,37.929004,6999.02334,-64.457,-1.153,359.255,1.0
1.9833,128.181867,37.92905,6999.0077952,-65.626,-1.16,359.263,1.0
2.0,128.181866,37.929096,6998.9901168,-66.746,-1.166,359.27,1.0
2.0166,128.181865,37.929142,6998.97,-67.817,-1.171,359.278,1.0
2.0333,128.181864,37.929187,6998.9477496,-68.835,-1.176,359.286,1.0
2.05,128.181863,37.929233,6998.923060800001,-69.798,-1.181,359.293,1.0
2.0666,128.181863,37.929279,6998.895933600001,-70.704,-1.185,359.301,1.0
2.0833,128.181862,37.929325,6998.8660632,-71.551,-1.189,359.31,1.0
2.1,128.181861,37.929371,6998.8337544000005,-72.335,-1.193,359.318,1.0
2.1166,128.18186,37.929417,6998.7983976000005,-72.98,-1.191,359.328,1.0
2.1333,128.181859,37.929463,6998.760297600001,-73.491,-1.185,359.339,1.0
2.15,128.181858,37.929509,6998.718844800001,-73.869,-1.177,359.351,1.0
2.1666,128.181858,37.929555,6998.6746488,-74.118,-1.168,359.364,1.0
2.1833,128.181857,37.9296,6998.6274048000005,-74.242,-1.16,359.376,1.0
2.2,128.181856,37.929646,6998.576808,-74.246,-1.151,359.389,1.0
2.2166,128.181855,37.929692,6998.522858400001,-74.135,-1.142,359.403,1.0
2.2333,128.181854,37.929738,6998.465860800001,-73.916,-1.134,359.416,1.0
2.25,128.181854,37.929784,6998.405510400001,-73.592,-1.124,359.431,1.0
2.2666,128.181853,37.92983,6998.342112,-73.224,-1.113,359.446,1.0
2.2833,128.181852,37.929877,6998.275665600001,-72.811,-1.1,359.462,1.0
2.3,128.181851,37.929923,6998.2080000000005,-72.496,-1.097,359.46,1.0
2.3166,128.181851,37.929969,6998.137896,-72.268,-1.102,359.426,1.0
2.3333,128.18185,37.930015,6998.0653536,-72.139,-1.104,359.348,1.0
2.35,128.181849,37.930061,6997.990982400001,-72.114,-1.095,359.216,1.0
2.3666,128.181848,37.930107,6997.9147824,-72.193,-1.068,359.02,1.0
2.3833,128.181847,37.930153,6997.8373632,-72.376,-1.019,358.754,1.0
2.4,128.181846,37.930199,6997.758420000001,-72.66,-0.948,358.415,1.0
2.4166,128.181845,37.930245,6997.6782576,-73.04,-0.859,358.017,1.0
2.4333,128.181844,37.930291,6997.5974856,-73.515,-0.756,357.57,1.0
2.45,128.181843,37.930337,6997.516104,-74.078,-0.646,357.091,1.0
2.4666,128.181842,37.930384,6997.434112800001,-74.728,-0.535,356.597,1.0
2.4833,128.181841,37.93043,6997.3518168,-75.458,-0.428,356.105,1.0
2.5,128.181839,37.930476,6997.269216,-76.266,-0.331,355.631,1.0
2.5166,128.181838,37.930522,6997.186615200001,-77.147,-0.249,355.193,1.0
2.5333,128.181836,37.930568,6997.1034048,-78.099,-0.184,354.806,1.0
2.55,128.181834,37.930614,6997.0201944,-79.117,-0.141,354.488,1.0
2.5666,128.181832,37.93066,6996.9360696,-80.199,-0.119,354.253,1.0
2.5833,128.181831,37.930706,6996.8510304,-81.342,-0.121,354.115,1.0
2.6,128.181828,37.930752,6996.7653816,-82.546,-0.14,354.06,1.0
2.6166,128.181826,37.930798,6996.6782088,-83.81,-0.172,354.072,1.0
2.6333,128.181824,37.930845,6996.5898168,-85.132,-0.213,354.136,1.0
2.65,128.181821,37.930891,6996.499596000001,-86.513,-0.259,354.235,1.0
2.6666,128.181819,37.930937,6996.407546400001,-87.953,-0.307,354.354,1.0
2.6833,128.181816,37.930983,6996.3130584,-89.453,-0.355,354.476,1.0
2.7,128.181814,37.931029,6996.2164368,-91.012,-0.402,354.585,1.0
2.7166,128.181811,37.931075,6996.117072,-92.629,-0.448,354.665,1.0
2.7333,128.181808,37.931121,6996.014964000001,-94.305,-0.495,354.706,1.0
2.75,128.181805,37.931167,6995.909808,-96.038,-0.544,354.707,1.0
2.7666,128.181802,37.931213,6995.8012992,-97.826,-0.596,354.672,1.0
2.7833,128.181798,37.931259,6995.6891328,-99.668,-0.652,354.604,1.0
2.8,128.181795,37.931305,6995.573308800001,-101.561,-0.715,354.505,1.0
2.8166,128.181792,37.931351,6995.4535224,-103.503,-0.787,354.377,1.0
2.8333,128.181788,37.931397,6995.329164000001,-105.487,-0.867,354.224,1.0
2.85,128.181785,37.931443,6995.200538400001,-107.491,-0.957,354.047,1.0
2.8666,128.181781,37.93149,6995.0673408,-109.491,-1.058,353.847,1.0
2.8833,128.181777,37.931536,6994.9292663999995,-111.467,-1.17,353.626,1.0
2.9,128.181773,37.931582,6994.786315200001,-113.4,-1.295,353.386,1.0
2.9166,128.181769,37.931628,6994.638182400001,-115.275,-1.434,353.128,1.0
2.9333,128.181765,37.931674,6994.484563200001,-117.076,-1.587,352.854,1.0
2.95,128.181761,37.93172,6994.3254576,-118.793,-1.756,352.566,1.0
2.9666,128.181757,37.931766,6994.161170400001,-120.418,-1.942,352.266,1.0
2.9833,128.181753,37.931812,6993.9907872,-121.942,-2.145,351.956,1.0
3.0,128.181748,37.931858,6993.814308,-123.362,-2.364,351.636,1.0
3.0166,128.181744,37.931904,6993.6320376,-124.672,-2.598,351.312,1.0
3.0333,128.18174,37.93195,6993.4436712,-125.872,-2.841,350.992,1.0
3.05,128.181735,37.931996,6993.2492088,-126.961,-3.09,350.68,1.0
3.0666,128.18173,37.932042,6993.0480408,-127.94,-3.342,350.38,1.0
3.0833,128.181726,37.932088,6992.8398624,-128.862,-3.596,350.097,1.0
3.1,128.181721,37.932134,6992.6246736,-129.707,-3.85,349.83,1.0
3.1166,128.181716,37.93218,6992.402474400001,-130.458,-4.1,349.578,1.0
3.1333,128.181711,37.932226,6992.173264800001,-131.112,-4.345,349.341,1.0
3.15,128.181706,37.932272,6991.93674,-131.672,-4.585,349.118,1.0
3.1666,128.181701,37.932318,6991.693509600001,-132.132,-4.807,348.92,1.0
3.1833,128.181696,37.932365,6991.442964000001,-132.497,-5.0,348.757,1.0
3.2,128.181691,37.932411,6991.1851032,-132.781,-5.15,348.637,1.0
3.2166,128.181686,37.932457,6990.9205368,-132.988,-5.252,348.561,1.0
3.2333,128.18168,37.932503,6990.648655200001,-133.122,-5.307,348.528,1.0
3.25,128.181675,37.932549,6990.370068,-133.183,-5.319,348.538,1.0
3.2666,128.18167,37.932595,6990.0847752,-133.17,-5.295,348.584,1.0
3.2833,128.181664,37.932641,6989.794605600001,-133.259,-5.239,348.692,1.0
3.3,128.181659,37.932687,6989.4971208,-133.447,-5.16,348.851,1.0
3.3166,128.181653,37.932733,6989.1932352,-133.738,-5.065,349.044,1.0
3.3333,128.181647,37.932779,6988.8823392,-134.138,-4.961,349.256,1.0
3.35,128.181641,37.932826,6988.564737600001,-134.648,-4.857,349.472,1.0
3.3666,128.181636,37.932872,6988.2401256,-135.267,-4.754,349.686,1.0
3.3833,128.18163,37.932918,6987.908808,-135.996,-4.656,349.893,1.0
3.4,128.181624,37.932964,6987.57048,-136.831,-4.564,350.091,1.0
3.4166,128.181618,37.93301,6987.225141600001,-137.771,-4.478,350.279,1.0
3.4333,128.181612,37.933056,6986.873097600001,-138.813,-4.399,350.455,1.0
3.45,128.181606,37.933102,6986.513738400001,-139.954,-4.326,350.621,1.0
3.4666,128.1816,37.933148,6986.147368800001,-141.192,-4.261,350.776,1.0
3.4833,128.181594,37.933195,6985.7739888,-142.524,-4.202,350.92,1.0
3.5,128.181587,37.933241,6985.3929888,-143.947,-4.149,351.054,1.0
3.5166,128.181581,37.933287,6985.0049784,-145.458,-4.104,351.178,1.0
3.5333,128.181575,37.933333,6984.609348,-147.054,-4.064,351.293,1.0
3.55,128.181569,37.933379,6984.2064024,-148.734,-4.031,351.399,1.0
3.5666,128.181562,37.933425,6983.795532,-150.492,-4.004,351.497,1.0
3.5833,128.181556,37.933471,6983.3776512,-152.327,-3.982,351.587,1.0
3.6,128.181549,37.933517,6982.9524552,-154.235,-3.967,351.67,1.0
3.6166,128.181543,37.933563,6982.5205536,-156.213,-3.957,351.746,1.0
3.6333,128.181536,37.933609,6982.081336800001,-158.258,-3.96,351.813,1.0
3.65,128.18153,37.933656,6981.635414400001,-160.368,-3.982,351.869,1.0
3.6666,128.181523,37.933702,6981.1821768,-162.539,-4.026,351.916,1.0
3.6833,128.181517,37.933748,6980.7222336,-164.769,-4.094,351.954,1.0
3.7,128.18151,37.933794,6980.25528,-167.056,-4.186,351.985,1.0
3.7166,128.181503,37.93384,6979.781316,-169.396,-4.303,352.011,1.0
3.7333,128.181497,37.933886,6979.3000368,-171.785,-4.443,352.033,1.0
3.75,128.18149,37.933932,6978.8117472,-174.222,-4.606,352.055,1.0
3.7666,128.181483,37.933978,6978.316142400001,-176.701,-4.79,352.079,1.0
3.7833,128.181477,37.934024,6977.8129176,-179.218,-4.996,352.106,1.0
3.8,128.18147,37.93407,6977.3032920000005,178.245,-5.221,352.138,1.0
3.8166,128.181463,37.934116,6976.7863512,175.708,-5.463,352.176,1.0
3.8333,128.181456,37.934162,6976.2627048,173.187,-5.723,352.221,1.0
3.85,128.18145,37.934208,6975.7326576,170.695,-5.997,352.275,1.0
3.8666,128.181443,37.934255,6975.1956,168.246,-6.286,352.339,1.0
3.8833,128.181436,37.934301,6974.651836800001,165.849,-6.587,352.416,1.0
3.9,128.18143,37.934347,6974.101368000001,163.513,-6.9,352.506,1.0
3.9166,128.181423,37.934393,6973.5438888,161.243,-7.222,352.61,1.0
3.9333,128.181416,37.934439,6972.9790944,159.043,-7.551,352.73,1.0
3.95,128.18141,37.934485,6972.4069848,156.914,-7.884,352.865,1.0
3.9666,128.181403,37.934531,6971.827255200001,154.857,-8.219,353.015,1.0
3.9833,128.181396,37.934577,6971.2399056,152.871,-8.552,353.18,1.0
4.0,128.18139,37.934623,6970.6443264,150.955,-8.88,353.357,1.0
4.0166,128.181383,37.93467,6970.039908,149.101,-9.201,353.547,1.0
4.0333,128.181376,37.934716,6969.4269552000005,147.303,-9.511,353.746,1.0
4.05,128.18137,37.934762,6968.805163200001,145.553,-9.807,353.953,1.0
4.0666,128.181363,37.934808,6968.1739224,143.844,-10.089,354.166,1.0
4.0833,128.181357,37.934854,6967.5332328,142.169,-10.355,354.385,1.0
4.1,128.18135,37.9349,6966.8827896,140.522,-10.604,354.606,1.0
4.1166,128.181344,37.934946,6966.222897600001,138.896,-10.837,354.829,1.0
4.1333,128.181338,37.934993,6965.553252000001,137.287,-11.053,355.054,1.0
4.15,128.181332,37.935039,6964.8738528,135.688,-11.254,355.278,1.0
4.1666,128.181325,37.935085,6964.1843952,134.097,-11.438,355.502,1.0
4.1833,128.181319,37.935131,6963.4854888,132.51,-11.608,355.725,1.0
4.2,128.181313,37.935177,6962.776524000001,130.922,-11.764,355.946,1.0
4.2166,128.181307,37.935223,6962.0581104,129.332,-11.906,356.165,1.0
4.2333,128.181302,37.93527,6961.330248,127.737,-12.034,356.383,1.0
4.25,128.181296,37.935316,6960.592936800001,126.134,-12.151,356.598,1.0
4.2666,128.18129,37.935362,6959.846176800001,124.522,-12.255,356.81,1.0
4.2833,128.181285,37.935408,6959.090577600001,122.899,-12.349,357.02,1.0
4.3,128.181279,37.935454,6958.3273584,121.422,-12.43,357.21,1.0
4.3166,128.181274,37.9355,6957.5562144000005,120.086,-12.493,357.365,1.0
4.3333,128.181268,37.935547,6956.777755200001,118.893,-12.531,357.472,1.0
4.35,128.181263,37.935593,6955.9928952,117.843,-12.535,357.52,1.0
4.3666,128.181258,37.935639,6955.201634399999,116.932,-12.502,357.493,1.0
4.3833,128.181253,37.935685,6954.4045824,116.149,-12.445,357.405,1.0
4.4,128.181247,37.935731,6953.6017392,115.484,-12.372,357.273,1.0
4.4166,128.181242,37.935778,6952.793409600001,114.932,-12.291,357.112,1.0
4.4333,128.181237,37.935824,6951.9802032,114.486,-12.208,356.939,1.0
4.45,128.181232,37.93587,6951.162120000001,114.138,-12.131,356.771,1.0
4.4666,128.181227,37.935916,6950.33916,113.887,-12.061,356.612,1.0
4.4833,128.181222,37.935963,6949.511932800001,113.728,-11.997,356.465,1.0
4.5,128.181218,37.936009,6948.6807432,113.66,-11.939,356.327,1.0
4.5166,128.181213,37.936055,6947.8452864,113.679,-11.886,356.2,1.0
4.5333,128.181208,37.936102,6947.0058672000005,113.784,-11.838,356.081,1.0
4.55,128.181203,37.936148,6946.1624856,113.971,-11.795,355.971,1.0
4.5666,128.181198,37.936194,6945.315446400001,114.238,-11.754,355.868,1.0
4.5833,128.181193,37.936241,6944.4644448,114.583,-11.717,355.772,1.0
4.6,128.181188,37.936287,6943.609785600001,115.004,-11.682,355.682,1.0
4.6166,128.181183,37.936333,6942.751164,115.498,-11.65,355.597,1.0
4.6333,128.181178,37.93638,6941.8891896000005,116.063,-11.62,355.517,1.0
4.65,128.181173,37.936426,6941.0235576,116.698,-11.592,355.442,1.0
4.6666,128.181169,37.936473,6940.1545728,117.4,-11.565,355.371,1.0
4.6833,128.181164,37.936519,6939.2819304,118.167,-11.54,355.304,1.0
4.7,128.181159,37.936566,6938.4059352,118.997,-11.516,355.241,1.0
4.7166,128.181154,37.936612,6937.526587200001,119.889,-11.493,355.18,1.0
4.7333,128.181149,37.936659,6936.6438864,120.84,-11.471,355.122,1.0
4.75,128.181144,37.936705,6935.757832800001,121.849,-11.449,355.067,1.0
4.7666,128.181139,37.936752,6934.8687312,122.913,-11.428,355.014,1.0
4.7833,128.181134,37.936798,6933.9762768,124.033,-11.408,354.964,1.0
4.8,128.181129,37.936845,6933.0807744,125.204,-11.389,354.915,1.0
4.8166,128.181125,37.936892,6932.1819192,126.427,-11.369,354.869,1.0
4.8333,128.18112,37.936938,6931.2803208,127.7,-11.35,354.824,1.0
4.85,128.181115,37.936985,6930.3753696,129.02,-11.331,354.781,1.0
4.8666,128.18111,37.937031,6929.4676752,130.387,-11.313,354.739,1.0
4.8833,128.181105,37.937078,6928.5569328,131.8,-11.294,354.699,1.0
4.9,128.1811,37.937125,6927.643142400001,133.256,-11.276,354.659,1.0
4.9166,128.181095,37.937171,6926.726608800001,134.754,-11.257,354.622,1.0
4.9333,128.18109,37.937218,6925.807332,136.294,-11.239,354.585,1.0
4.95,128.181085,37.937265,6924.885312,137.873,-11.22,354.549,1.0
4.9666,128.18108,37.937312,6923.9605488,139.491,-11.202,354.515,1.0
4.9833,128.181075,37.937358,6923.0330424,141.147,-11.183,354.482,1.0
5.0,128.18107,37.937405,6922.1003544000005,142.631,-11.164,354.476,1.0
5.0166,128.181065,37.937452,6921.1643136,143.949,-11.157,354.507,1.0
5.0333,128.18106,37.937499,6920.223396,145.095,-11.181,354.578,1.0
5.05,128.181055,37.937546,6919.277601600001,146.067,-11.252,354.689,1.0
5.0666,128.18105,37.937592,6918.326016,146.864,-11.381,354.843,1.0
5.0833,128.181045,37.937639,6917.3680296,147.49,-11.575,355.039,1.0
5.1,128.18104,37.937686,6916.4036424000005,147.95,-11.823,355.266,1.0
5.1166,128.181035,37.937733,6915.4316352,148.253,-12.114,355.517,1.0
5.1333,128.18103,37.93778,6914.4517032,148.408,-12.432,355.78,1.0
5.15,128.181026,37.937826,6913.4632368,148.423,-12.761,356.047,1.0
5.1666,128.181021,37.937873,6912.4659312,148.307,-13.085,356.308,1.0
5.1833,128.181016,37.93792,6911.458872,148.069,-13.396,356.559,1.0
5.2,128.181012,37.937967,6910.4414496,147.716,-13.694,356.8,1.0
5.2166,128.181007,37.938014,6909.413359200001,147.254,-13.978,357.033,1.0
5.2333,128.181002,37.93806,6908.3739912,146.688,-14.249,357.258,1.0
5.25,128.180998,37.938107,6907.3230408,146.025,-14.508,357.477,1.0
5.2666,128.180994,37.938154,6906.2598984,145.269,-14.755,357.691,1.0
5.2833,128.180989,37.938201,6905.1842592,144.425,-14.992,357.902,1.0
5.3,128.180985,37.938248,6904.096428000001,143.496,-15.219,358.11,1.0
5.3166,128.180981,37.938294,6902.9967096,142.493,-15.437,358.317,1.0
5.3333,128.180977,37.938341,6901.8854088,141.433,-15.648,358.522,1.0
5.35,128.180973,37.938388,6900.7622208,140.329,-15.852,358.727,1.0
5.3666,128.180969,37.938434,6899.628060000001,139.194,-16.05,358.931,1.0
5.3833,128.180965,37.938481,6898.4826216,138.038,-16.242,359.135,1.0
5.4,128.180961,37.938528,6897.3262104000005,136.869,-16.428,359.34,1.0
5.4166,128.180958,37.938575,6896.1585216,135.693,-16.607,359.547,1.0
5.4333,128.180954,37.938621,6894.97986,134.515,-16.78,359.754,1.0
5.45,128.18095,37.938668,6893.7905304,133.339,-16.946,359.962,1.0
5.4666,128.180947,37.938714,6892.590228000001,132.166,-17.105,0.171,1.0
5.4833,128.180944,37.938761,6891.3792576,131.0,-17.257,0.381,1.0
5.5,128.180941,37.938808,6890.1576192,129.84,-17.402,0.592,1.0
5.5166,128.180937,37.938854,6888.9256176,128.687,-17.54,0.804,1.0
5.5333,128.180934,37.938901,6887.682948,127.54,-17.67,1.016,1.0
5.55,128.180932,37.938948,6886.4299152,126.4,-17.793,1.228,1.0
5.5666,128.180929,37.938994,6885.166824000001,125.266,-17.909,1.44,1.0
5.5833,128.180926,37.939041,6883.893674400001,124.137,-18.018,1.651,1.0
5.6,128.180924,37.939087,6882.6122952000005,123.136,-18.125,1.838,1.0
5.6166,128.180921,37.939134,6881.3220768,122.263,-18.222,1.986,1.0
5.6333,128.180919,37.93918,6880.023628800001,121.524,-18.298,2.082,1.0
5.65,128.180916,37.939227,6878.7166464,120.927,-18.342,2.117,1.0
5.6666,128.180914,37.939274,6877.4026536,120.474,-18.343,2.076,1.0
5.6833,128.180912,37.93932,6876.0813456000005,120.166,-18.298,1.956,1.0
5.7,128.18091,37.939367,6874.753332,119.994,-18.217,1.773,1.0
5.7166,128.180908,37.939413,6873.4186128,119.946,-18.109,1.545,1.0
5.7333,128.180906,37.93946,6872.0781024,120.013,-17.986,1.29,1.0
5.75,128.180904,37.939506,6870.7318008,120.186,-17.856,1.025,1.0
5.7666,128.180902,37.939553,6869.3800128,120.453,-17.73,0.767,1.0
5.7833,128.1809,37.9396,6868.0230432,120.808,-17.616,0.533,1.0
5.8,128.180898,37.939646,6866.660892000001,121.246,-17.517,0.326,1.0
5.8166,128.180897,37.939693,6865.2935592,121.766,-17.43,0.142,1.0
5.8333,128.180895,37.93974,6863.9216544,122.368,-17.353,359.975,1.0
5.85,128.180893,37.939786,6862.5448728,123.048,-17.283,359.823,1.0
5.8666,128.180891,37.939833,6861.1635192,123.807,-17.218,359.682,1.0
5.8833,128.18089,37.939879,6859.7775936,124.641,-17.159,359.552,1.0
5.9,128.180888,37.939926,6858.3874008,125.55,-17.102,359.43,1.0
5.9166,128.180886,37.939973,6856.992940800001,126.53,-17.049,359.315,1.0
5.9333,128.180885,37.94002,6855.5942136,127.58,-16.999,359.208,1.0
5.95,128.180883,37.940066,6854.191524000001,128.698,-16.952,359.106,1.0
5.9666,128.180881,37.940113,6852.7845672,129.881,-16.907,359.011,1.0
5.9833,128.18088,37.94016,6851.373648,131.128,-16.863,358.921,1.0
6.0,128.180878,37.940207,6849.9590712,132.437,-16.822,358.836,1.0
6.0166,128.180876,37.940253,6848.540532,133.805,-16.782,358.756,1.0
6.0333,128.180875,37.9403,6847.11864,135.231,-16.744,358.68,1.0
6.05,128.180873,37.940347,6845.6927856,136.713,-16.707,358.608,1.0
6.0666,128.180871,37.940394,6844.2635784,138.249,-16.673,358.542,1.0
6.0833,128.18087,37.940441,6842.8304088,139.836,-16.648,358.485,1.0
6.1,128.180868,37.940487,6841.3941912,141.47,-16.633,358.441,1.0
6.1166,128.180866,37.940534,6839.9540112,143.152,-16.631,358.408,1.0
6.1333,128.180865,37.940581,6838.5104784000005,144.877,-16.645,358.389,1.0
6.15,128.180863,37.940628,6837.0629832,146.645,-16.675,358.382,1.0
6.1666,128.180862,37.940675,6835.6121352,148.455,-16.72,358.386,1.0
6.1833,128.18086,37.940722,6834.1573248,150.303,-16.782,358.4,1.0
6.2,128.180858,37.940769,6832.698552000001,152.19,-16.861,358.422,1.0
6.2166,128.180857,37.940816,6831.2358168,154.113,-16.957,358.451,1.0
6.2333,128.180855,37.940863,6829.7685096000005,156.072,-17.072,358.486,1.0
6.25,128.180854,37.94091,6828.29724,158.064,-17.204,358.526,1.0
6.2666,128.180852,37.940957,6826.8210936,160.088,-17.354,358.569,1.0
6.2833,128.18085,37.941004,6825.3400704000005,162.144,-17.523,358.613,1.0
6.3,128.180849,37.941051,6823.853560800001,164.23,-17.71,358.656,1.0
6.3166,128.180847,37.941098,6822.360955200001,166.327,-17.917,358.7,1.0
6.3333,128.180846,37.941145,6820.861644,168.411,-18.142,358.743,1.0
6.35,128.180844,37.941192,6819.3541032,170.298,-18.393,358.801,1.0
6.3666,128.180842,37.941239,6817.838942400001,172.001,-18.653,358.874,1.0
6.3833,128.180841,37.941286,6816.315247200001,173.522,-18.909,358.953,1.0
6.4,128.180839,37.941333,6814.7827128,174.862,-19.15,359.031,1.0
6.4166,128.180838,37.94138,6813.2410344,176.026,-19.37,359.105,1.0
6.4333,128.180836,37.941427,6811.688992800001,177.017,-19.569,359.17,1.0
6.45,128.180835,37.941474,6810.127197600001,177.843,-19.749,359.227,1.0
6.4666,128.180833,37.94152,6808.5544296,178.51,-19.911,359.277,1.0
6.4833,128.180832,37.941567,6806.970384000001,179.028,-20.058,359.321,1.0
6.5,128.18083,37.941614,6805.375365600001,179.403,-20.194,359.36,1.0
6.5166,128.180829,37.941661,6803.76846,179.644,-20.319,359.395,1.0
6.5333,128.180828,37.941708,6802.1493624,179.756,-20.436,359.428,1.0
6.55,128.180826,37.941755,6800.5180728000005,179.746,-20.546,359.459,1.0
6.5666,128.180825,37.941802,6798.8742864000005,179.62,-20.65,359.489,1.0
6.5833,128.180823,37.941849,6797.2173936,179.382,-20.751,359.518,1.0
6.6,128.180822,37.941895,6795.5473944000005,179.038,-20.849,359.546,1.0
6.6166,128.18082,37.941942,6793.8648984,178.592,-20.947,359.575,1.0
6.6333,128.180819,37.941989,6792.169600800001,178.048,-21.045,359.603,1.0
6.65,128.180817,37.942035,6790.461501600001,177.411,-21.144,359.632,1.0
6.6666,128.180816,37.942082,6788.740600800001,176.683,-21.246,359.662,1.0
6.6833,128.180815,37.942129,6787.0072032,175.869,-21.353,359.694,1.0
6.7,128.180813,37.942175,6785.261004,174.973,-21.463,359.727,1.0
6.7166,128.180812,37.942222,6783.5020032,173.996,-21.58,359.762,1.0
6.7333,128.180811,37.942268,6781.7305056000005,172.942,-21.703,359.8,1.0
6.75,128.180809,37.942315,6779.9471207999995,172.044,-21.85,359.827,1.0
6.7666,128.180808,37.942361,6778.1509344,171.297,-22.037,359.846,1.0
6.7833,128.180807,37.942408,6776.3428608,170.698,-22.276,359.867,1.0
6.8,128.180805,37.942454,6774.5219856,170.248,-22.576,359.896,1.0
6.8166,128.180804,37.9425,6772.6892232,169.941,-22.927,359.936,1.0
6.8333,128.180803,37.942547,6770.8418304,169.545,-23.313,0.005,1.0
6.85,128.180802,37.942593,6768.9804168,169.063,-23.715,0.1,1.0
6.8666,128.1808,37.942639,6767.1046776,168.492,-24.115,0.211,1.0
6.8833,128.180799,37.942686,6765.2136984,167.829,-24.496,0.327,1.0
6.9,128.180798,37.942732,6763.307479200001,167.076,-24.84,0.439,1.0
6.9166,128.180797,37.942778,6761.3869343999995,166.238,-25.128,0.542,1.0
6.9333,128.180796,37.942824,6759.4514544,165.322,-25.345,0.629,1.0
6.95,128.180795,37.94287,6757.5010392,164.33,-25.499,0.702,1.0
6.9666,128.180794,37.942916,6755.5359935999995,163.264,-25.606,0.765,1.0
6.9833,128.180793,37.942962,6753.5563176000005,162.125,-25.684,0.822,1.0
7.0,128.180792,37.943008,6751.562011200001,160.914,-25.749,0.878,1.0
7.0166,128.180791,37.943054,6749.553074400001,159.628,-25.819,0.94,1.0
7.0333,128.180791,37.9431,6747.5301168,158.27,-25.9,1.01,1.0
7.05,128.18079,37.943145,6745.4925288,156.838,-25.994,1.09,1.0
7.0666,128.180789,37.943191,6743.441224800001,155.337,-26.1,1.179,1.0
7.0833,128.180789,37.943237,6741.376204800001,153.769,-26.217,1.279,1.0
7.1,128.180788,37.943283,6739.2977736,152.155,-26.344,1.387,1.0
7.1166,128.180788,37.943328,6737.206845600001,150.514,-26.481,1.504,1.0
7.1333,128.180787,37.943374,6735.1034208,148.862,-26.629,1.631,1.0
7.15,128.180787,37.943419,6732.9881088,147.216,-26.786,1.768,1.0
7.1666,128.180787,37.943465,6730.8606048,145.59,-26.951,1.916,1.0
7.1833,128.180786,37.94351,6728.7218232000005,143.994,-27.125,2.077,1.0
7.2,128.180786,37.943556,6726.5714592,142.438,-27.305,2.249,1.0
7.2166,128.180786,37.943601,6724.4104272,140.927,-27.49,2.435,1.0
7.2333,128.180786,37.943647,6722.238422400001,139.467,-27.679,2.634,1.0
7.25,128.180786,37.943692,6720.0557496,138.06,-27.87,2.846,1.0
7.2666,128.180786,37.943737,6717.862104,136.71,-28.063,3.07,1.0
7.2833,128.180787,37.943783,6715.6577904000005,135.415,-28.256,3.305,1.0
7.3,128.180787,37.943828,6713.442504000001,134.177,-28.447,3.551,1.0
7.3166,128.180787,37.943873,6711.216854400001,132.994,-28.637,3.808,1.0
7.3333,128.180788,37.943919,6708.980232000001,131.866,-28.822,4.071,1.0
7.35,128.180788,37.943964,6706.7329416,130.792,-29.0,4.337,1.0
7.3666,128.180789,37.944009,6704.474983200001,129.771,-29.17,4.603,1.0
7.3833,128.18079,37.944054,6702.2066616,128.802,-29.329,4.867,1.0
7.4,128.180791,37.944099,6699.927672,127.883,-29.479,5.129,1.0
7.4166,128.180792,37.944144,6697.6383192,127.01,-29.619,5.388,1.0
7.4333,128.180793,37.944189,6695.3382984,126.182,-29.751,5.643,1.0
7.45,128.180794,37.944234,6693.0282192,125.395,-29.874,5.895,1.0
7.4666,128.180795,37.944279,6690.707472,124.646,-29.989,6.144,1.0
7.4833,128.180797,37.944324,6688.3766663999995,123.934,-30.098,6.389,1.0
7.5,128.180798,37.944369,6686.0358024,123.255,-30.201,6.632,1.0
7.5166,128.1808,37.944414,6683.6845752,122.607,-30.297,6.872,1.0
7.5333,128.180802,37.944459,6681.3232896,121.99,-30.388,7.109,1.0
7.55,128.180804,37.944504,6678.9516408,121.315,-30.47,7.347,1.0
7.5666,128.180806,37.944549,6676.569324000001,120.589,-30.542,7.586,1.0
7.5833,128.180808,37.944593,6674.1769488,119.822,-30.609,7.824,1.0
7.6,128.18081,37.944638,6671.774210400001,119.027,-30.671,8.06,1.0
7.6166,128.180813,37.944683,6669.3617184,118.216,-30.732,8.294,1.0
7.6333,128.180815,37.944727,6666.9400824,117.402,-30.791,8.526,1.0
7.65,128.180818,37.944772,6664.508997600001,116.597,-30.848,8.755,1.0
7.6666,128.180821,37.944817,6662.068768800001,115.81,-30.904,8.983,1.0
7.6833,128.180824,37.944861,6659.619700800001,115.049,-30.958,9.209,1.0
7.7,128.180827,37.944905,6657.1620984,114.321,-31.009,9.434,1.0
7.7166,128.18083,37.94495,6654.6956568000005,113.629,-31.058,9.658,1.0
7.7333,128.180834,37.944994,6652.2206808,112.975,-31.105,9.881,1.0
7.75,128.180837,37.945039,6649.7374752,112.361,-31.149,10.103,1.0
7.7666,128.180841,37.945083,6647.24604,111.786,-31.191,10.324,1.0
7.7833,128.180845,37.945127,6644.746375199999,111.251,-31.23,10.544,1.0
7.8,128.180849,37.945172,6642.2387856000005,110.752,-31.266,10.762,1.0
7.8166,128.180853,37.945216,6639.7229664,110.289,-31.3,10.979,1.0
7.8333,128.180857,37.94526,6637.1992224000005,109.859,-31.332,11.195,1.0
7.85,128.180862,37.945304,6634.6678584,109.461,-31.362,11.41,1.0
7.8666,128.180866,37.945348,6632.1285696,109.091,-31.391,11.623,1.0
7.8833,128.180871,37.945392,6629.5816608000005,108.748,-31.418,11.834,1.0
7.9,128.180876,37.945436,6627.0268272,108.429,-31.445,12.043,1.0
7.9166,128.18088,37.94548,6624.464678400001,108.133,-31.471,12.251,1.0
7.9333,128.180886,37.945524,6621.8952144,107.857,-31.496,12.458,1.0
7.95,128.180891,37.945568,6619.3181304,107.6,-31.521,12.662,1.0
7.9666,128.180896,37.945612,6616.7334264,107.359,-31.546,12.865,1.0
7.9833,128.180902,37.945656,6614.141712,107.132,-31.571,13.067,1.0
8.0,128.180907,37.9457,6611.542682400001,106.918,-31.595,13.268,1.0
8.0166,128.180913,37.945744,6608.936337600001,106.716,-31.62,13.467,1.0
8.0333,128.180919,37.945787,6606.322982400001,106.524,-31.648,13.664,1.0
8.05,128.180925,37.945831,6603.7029216,106.344,-31.681,13.858,1.0
8.0666,128.180932,37.945875,6601.0761552,106.179,-31.72,14.049,1.0
8.0833,128.180938,37.945918,6598.442378400001,106.04,-31.763,14.238,1.0
8.1,128.180944,37.945962,6595.801896000001,105.938,-31.809,14.425,1.0
8.1166,128.180951,37.946005,6593.1550128,105.882,-31.858,14.61,1.0
8.1333,128.180958,37.946049,6590.501424000001,105.885,-31.91,14.792,1.0
8.15,128.180965,37.946092,6587.8417392,105.956,-31.965,14.973,1.0
8.1666,128.180972,37.946136,6585.1753488,106.107,-32.024,15.15,1.0
8.1833,128.180979,37.946179,6582.5025576,106.349,-32.086,15.325,1.0
8.2,128.180986,37.946223,6579.8227560000005,106.6,-32.144,15.499,1.0
8.2166,128.180994,37.946266,6577.1362488,106.858,-32.198,15.673,1.0
8.2333,128.181001,37.946309,6574.443036000001,107.126,-32.251,15.846,1.0
8.25,128.181009,37.946352,6571.742508,107.407,-32.303,16.017,1.0
8.2666,128.181017,37.946396,6569.0349696,107.704,-32.357,16.186,1.0
8.2833,128.181025,37.946439,6566.3207256,108.022,-32.414,16.353,1.0
8.3,128.181033,37.946482,6563.5991664,108.366,-32.473,16.517,1.0
8.3166,128.181041,37.946525,6560.8705968,108.739,-32.534,16.68,1.0
8.3333,128.18105,37.946568,6558.134712,109.145,-32.598,16.842,1.0
8.35,128.181058,37.946611,6555.3918168,109.586,-32.665,17.002,1.0
8.3666,128.181067,37.946654,6552.6416064000005,110.063,-32.734,17.16,1.0
8.3833,128.181076,37.946697,6549.8840808,110.578,-32.804,17.316,1.0
8.4,128.181085,37.946739,6547.1189352,111.131,-32.876,17.467,1.0
8.4166,128.181094,37.946782,6544.3461696,111.723,-32.948,17.612,1.0
8.4333,128.181103,37.946825,6541.5660888,112.353,-33.021,17.751,1.0
8.45,128.181113,37.946868,6538.778083200001,113.018,-33.095,17.885,1.0
8.4666,128.181122,37.94691,6535.9821528,113.717,-33.17,18.014,1.0
8.4833,128.181132,37.946953,6533.178602399999,114.447,-33.247,18.139,1.0
8.5,128.181141,37.946995,6530.3668224,115.203,-33.325,18.261,1.0
8.5166,128.181151,37.947038,6527.5468128,115.984,-33.405,18.381,1.0
8.5333,128.181161,37.94708,6524.7185736,116.787,-33.488,18.5,1.0
8.55,128.181171,37.947123,6521.8818,117.605,-33.573,18.618,1.0
8.5666,128.181182,37.947165,6519.036796800001,118.438,-33.661,18.737,1.0
8.5833,128.181192,37.947207,6516.1829544,119.282,-33.753,18.856,1.0
8.6,128.181203,37.947249,6513.320272800001,120.133,-33.849,18.977,1.0
8.6166,128.181213,37.947291,6510.448752000001,120.989,-33.948,19.099,1.0
8.6333,128.181224,37.947334,6507.5680872,121.847,-34.052,19.224,1.0
8.65,128.181235,37.947376,6504.678278400001,122.703,-34.161,19.351,1.0
8.6666,128.181246,37.947418,6501.7790208,123.555,-34.274,19.482,1.0
8.6833,128.181257,37.947459,6498.8700096,124.401,-34.393,19.615,1.0
8.7,128.181268,37.947501,6495.9515496,125.237,-34.517,19.751,1.0
8.7166,128.181279,37.947543,6493.023336,126.063,-34.646,19.89,1.0
8.7333,128.181291,37.947585,6490.085064000001,126.877,-34.781,20.032,1.0
8.75,128.181302,37.947626,6487.136733600001,127.679,-34.921,20.177,1.0
8.7666,128.181314,37.947668,6484.178344800001,128.465,-35.067,20.324,1.0
8.7833,128.181326,37.947709,6481.209288000001,129.237,-35.217,20.472,1.0
8.8,128.181338,37.947751,6478.2295632000005,129.993,-35.371,20.62,1.0
8.8166,128.18135,37.947792,6475.2394752,130.734,-35.529,20.767,1.0
8.8333,128.181362,37.947833,6472.238414400001,131.46,-35.69,20.912,1.0
8.85,128.181374,37.947875,6469.2263808,132.169,-35.853,21.056,1.0
8.8666,128.181386,37.947916,6466.203374400001,132.863,-36.019,21.198,1.0
8.8833,128.181399,37.947957,6463.169090400001,133.541,-36.187,21.337,1.0
8.9,128.181411,37.947998,6460.123528800001,134.205,-36.357,21.473,1.0
8.9166,128.181424,37.948039,6457.0663848,134.852,-36.529,21.607,1.0
8.9333,128.181437,37.948079,6453.9979632,135.485,-36.704,21.739,1.0
8.95,128.18145,37.94812,6450.9179592,136.103,-36.88,21.868,1.0
8.9666,128.181462,37.948161,6447.8263728,136.706,-37.057,21.995,1.0
8.9833,128.181475,37.948201,6444.7228992,137.295,-37.237,22.12,1.0
9.0,128.181489,37.948242,6441.6075384000005,137.871,-37.418,22.243,1.0
9.0166,128.181502,37.948282,6438.4802904,138.433,-37.601,22.363,1.0
9.0333,128.181515,37.948323,6435.341155200001,138.982,-37.785,22.481,1.0
9.05,128.181528,37.948363,6432.1898280000005,139.518,-37.97,22.597,1.0
9.0666,128.181542,37.948403,6429.0263088,140.041,-38.157,22.711,1.0
9.0833,128.181555,37.948443,6425.8509023999995,140.552,-38.345,22.823,1.0
9.1,128.181569,37.948483,6422.6629992,141.051,-38.534,22.933,1.0
9.1166,128.181583,37.948523,6419.462904,141.539,-38.725,23.041,1.0
9.1333,128.181597,37.948563,6416.250312,142.015,-38.916,23.147,1.0
9.15,128.18161,37.948602,6413.025528,142.479,-39.108,23.252,1.0
9.1666,128.181624,37.948642,6409.788247200001,142.931,-39.301,23.354,1.0
9.1833,128.181638,37.948682,6406.5381648,143.373,-39.495,23.455,1.0
9.2,128.181653,37.948721,6403.2758904,143.806,-39.69,23.554,1.0
9.2166,128.181667,37.948761,6400.0008144,144.228,-39.885,23.651,1.0
9.2333,128.181681,37.9488,6396.7129368000005,144.641,-40.081,23.746,1.0
9.25,128.181695,37.948839,6393.4125624,145.046,-40.278,23.84,1.0
9.2666,128.18171,37.948878,6390.100300800001,145.533,-40.479,23.924,1.0
9.2833,128.181724,37.948917,6386.776152,146.1,-40.684,23.999,1.0
9.3,128.181739,37.948956,6383.439811200001,146.735,-40.891,24.068,1.0
9.3166,128.181753,37.948995,6380.091583200001,147.424,-41.098,24.135,1.0
9.3333,128.181768,37.949034,6376.7311632,148.15,-41.304,24.201,1.0
9.35,128.181783,37.949073,6373.3579416,148.899,-41.51,24.269,1.0
9.3666,128.181797,37.949111,6369.9722232,149.659,-41.714,24.336,1.0
9.3833,128.181812,37.94915,6366.5730936,150.417,-41.919,24.403,1.0
9.4,128.181827,37.949188,6363.1611624,151.164,-42.123,24.47,1.0
9.4166,128.181842,37.949226,6359.735515200001,151.893,-42.328,24.534,1.0
9.4333,128.181857,37.949265,6356.2967616,152.596,-42.534,24.597,1.0
9.45,128.181872,37.949303,6352.844292000001,153.269,-42.741,24.658,1.0
9.4666,128.181887,37.949341,6349.3781064,153.91,-42.949,24.717,1.0
9.4833,128.181902,37.949379,6345.898204800001,154.516,-43.158,24.774,1.0
9.5,128.181917,37.949417,6342.404587200001,155.086,-43.368,24.829,1.0
9.5166,128.181932,37.949454,6338.8972536,155.621,-43.58,24.882,1.0
9.5333,128.181947,37.949492,6335.3758992,156.121,-43.793,24.932,1.0
9.55,128.181963,37.94953,6331.840828800001,156.588,-44.007,24.98,1.0
9.5666,128.181978,37.949567,6328.2920424,157.023,-44.222,25.026,1.0
9.5833,128.181993,37.949604,6324.7292352,157.429,-44.438,25.069,1.0
9.6,128.182008,37.949641,6321.152712,157.807,-44.654,25.11,1.0
9.6166,128.182024,37.949679,6317.5624728,158.159,-44.87,25.149,1.0
9.6333,128.182039,37.949716,6313.9582128,158.487,-45.087,25.187,1.0
9.65,128.182055,37.949753,6310.340236800001,158.794,-45.303,25.223,1.0
9.6666,128.18207,37.949789,6306.70824,159.081,-45.52,25.257,1.0
9.6833,128.182085,37.949826,6303.0628320000005,159.349,-45.735,25.291,1.0
9.7,128.182101,37.949863,6299.4030984,159.602,-45.951,25.323,1.0
9.7166,128.182116,37.949899,6295.7299536,159.839,-46.165,25.355,1.0
9.7333,128.182132,37.949936,6292.042788000001,160.064,-46.379,25.385,1.0
9.75,128.182147,37.949972,6288.341601600001,160.276,-46.592,25.416,1.0
9.7666,128.182163,37.950008,6284.6266992,160.478,-46.805,25.445,1.0
9.7833,128.182179,37.950044,6280.8980808,160.67,-47.016,25.474,1.0
9.8,128.182194,37.95008,6277.155746400001,160.854,-47.227,25.502,1.0
9.8166,128.18221,37.950116,6273.3993912000005,161.03,-47.437,25.529,1.0
9.8333,128.182225,37.950152,6269.629320000001,161.2,-47.646,25.556,1.0
9.85,128.182241,37.950187,6265.845532800001,161.363,-47.854,25.583,1.0
9.8666,128.182257,37.950223,6262.047724800001,161.521,-48.062,25.609,1.0
9.8833,128.182272,37.950258,6258.236200800001,161.674,-48.269,25.635,1.0
9.9,128.182288,37.950294,6254.410960800001,161.822,-48.475,25.661,1.0
9.9166,128.182304,37.950329,6250.5720048,161.966,-48.68,25.687,1.0
9.9333,128.182319,37.950364,6246.7193328,162.105,-48.885,25.712,1.0
9.95,128.182335,37.950399,6242.8529448,162.241,-49.088,25.737,1.0
9.9666,128.182351,37.950434,6238.9728408,162.374,-49.292,25.762,1.0
9.9833,128.182367,37.950469,6235.0790208,162.503,-49.494,25.787,1.0
10.0,128.182382,37.950504,6231.1717896,162.63,-49.696,25.812,1.0
10.0166,128.182398,37.950538,6227.250537600001,162.754,-49.898,25.837,1.0
10.0333,128.182414,37.950573,6223.315874400001,162.875,-50.099,25.861,1.0
10.05,128.182429,37.950607,6219.3674952,162.994,-50.299,25.886,1.0
10.0666,128.182445,37.950641,6215.4057048,163.111,-50.499,25.91,1.0
10.0833,128.182461,37.950676,6211.4301984,163.225,-50.698,25.935,1.0
10.1,128.182477,37.95071,6207.440976,163.338,-50.897,25.959,1.0
10.1166,128.182492,37.950744,6203.438342400001,163.448,-51.096,25.984,1.0
10.1333,128.182508,37.950777,6199.422297600001,163.556,-51.294,26.008,1.0
10.15,128.182524,37.950811,6195.392841600001,163.662,-51.492,26.033,1.0
10.1666,128.18254,37.950845,6191.349669600001,163.766,-51.689,26.058,1.0
10.1833,128.182555,37.950878,6187.2930864,163.868,-51.886,26.082,1.0
10.2,128.182571,37.950912,6183.223092,163.967,-52.082,26.107,1.0
10.2166,128.182587,37.950945,6179.139686400001,164.064,-52.278,26.133,1.0
10.2333,128.182603,37.950978,6175.042869600001,164.159,-52.474,26.158,1.0
10.25,128.182618,37.951011,6170.9326416,164.251,-52.67,26.183,1.0
10.2666,128.182634,37.951044,6166.809002399999,164.341,-52.865,26.209,1.0
10.2833,128.18265,37.951077,6162.6722568000005,164.428,-53.06,26.235,1.0
10.3,128.182665,37.95111,6158.5217952,164.512,-53.255,26.262,1.0
10.3166,128.182681,37.951142,6154.3582272,164.593,-53.449,26.289,1.0
10.3333,128.182697,37.951175,6150.1815528,164.671,-53.643,26.316,1.0
10.35,128.182713,37.951207,6145.9914672,164.746,-53.837,26.344,1.0
10.3666,128.182728,37.951239,6141.7882752,164.818,-54.03,26.372,1.0
10.3833,128.182744,37.951271,6137.5719768,164.886,-54.224,26.4,1.0
10.4,128.18276,37.951303,6133.3422672,164.952,-54.417,26.43,1.0
10.4166,128.182775,37.951335,6129.099451200001,165.014,-54.61,26.46,1.0
10.4333,128.182791,37.951367,6124.843528800001,165.073,-54.802,26.49,1.0
10.45,128.182806,37.951399,6120.5748048000005,165.128,-54.994,26.521,1.0
10.4666,128.182822,37.95143,6116.2926696,165.181,-55.186,26.553,1.0
10.4833,128.182838,37.951462,6111.9977328,165.232,-55.378,26.586,1.0
10.5,128.182853,37.951493,6107.6896896,165.279,-55.569,26.623,1.0
10.5166,128.182869,37.951524,6103.36854,165.324,-55.76,26.664,1.0
10.5333,128.182884,37.951555,6099.0345888,165.365,-55.949,26.711,1.0
10.55,128.1829,37.951586,6094.6875312,165.401,-56.137,26.766,1.0
10.5666,128.182915,37.951617,6090.327672,165.431,-56.325,26.826,1.0
10.5833,128.182931,37.951648,6085.955011200001,165.453,-56.511,26.891,1.0
10.6,128.182946,37.951678,6081.569244,165.466,-56.697,26.958,1.0
10.6166,128.182962,37.951709,6077.170370400001,165.469,-56.884,27.027,1.0
10.6333,128.182977,37.951739,6072.759,165.462,-57.07,27.097,1.0
10.65,128.182993,37.951769,6068.334828000001,165.444,-57.256,27.168,1.0
10.6666,128.183008,37.951799,6063.8975496,165.415,-57.441,27.24,1.0
10.6833,128.183024,37.951829,6059.4477744000005,165.376,-57.627,27.313,1.0
10.7,128.183039,37.951859,6054.985197600001,165.326,-57.813,27.388,1.0
10.7166,128.183054,37.951889,6050.5098192000005,165.265,-57.999,27.464,1.0
10.7333,128.18307,37.951918,6046.021944,165.193,-58.184,27.542,1.0
10.75,128.183085,37.951948,6041.5212672,165.111,-58.369,27.622,1.0
10.7666,128.1831,37.951977,6037.0080935999995,165.019,-58.554,27.703,1.0
10.7833,128.183116,37.952006,6032.4824232,164.917,-58.739,27.786,1.0
10.8,128.183131,37.952035,6027.944256000001,164.806,-58.924,27.87,1.0
10.8166,128.183146,37.952064,6023.393592,164.688,-59.108,27.957,1.0
10.8333,128.183161,37.952093,6018.830736,164.561,-59.293,28.044,1.0
10.85,128.183177,37.952122,6014.2553832,164.429,-59.477,28.134,1.0
10.8666,128.183192,37.95215,6009.667533600001,164.291,-59.661,28.225,1.0
10.8833,128.183207,37.952179,6005.067796800001,164.148,-59.844,28.317,1.0
10.9,128.183222,37.952207,6000.4555632,164.002,-60.028,28.411,1.0
10.9166,128.183237,37.952235,5995.831137600001,163.852,-60.211,28.507,1.0
10.9333,128.183252,37.952263,5991.194824800001,163.7,-60.393,28.605,1.0
10.95,128.183267,37.952291,5986.54632,163.546,-60.576,28.704,1.0
10.9666,128.183282,37.952319,5981.885928000001,163.391,-60.758,28.806,1.0
10.9833,128.183297,37.952347,5977.213344,163.235,-60.94,28.908,1.0
11.0,128.183312,37.952374,5972.5288728000005,163.078,-61.122,29.013,1.0
11.0166,128.183327,37.952401,5967.832819200001,162.921,-61.303,29.12,1.0
11.0333,128.183342,37.952429,5963.1245736,162.763,-61.484,29.228,1.0
11.05,128.183357,37.952456,5958.404745600001,162.606,-61.665,29.338,1.0
11.0666,128.183372,37.952483,5953.6730304,162.449,-61.845,29.45,1.0
11.0833,128.183387,37.95251,5948.929428,162.291,-62.025,29.564,1.0
11.1,128.183402,37.952536,5944.174548,162.134,-62.205,29.68,1.0
11.1166,128.183417,37.952563,5939.4077808,161.976,-62.385,29.797,1.0
11.1333,128.183432,37.952589,5934.6294312,161.818,-62.564,29.917,1.0
11.15,128.183447,37.952616,5929.839804,161.66,-62.744,30.039,1.0
11.1666,128.183462,37.952642,5925.0382896,161.502,-62.923,30.163,1.0
11.1833,128.183476,37.952668,5920.2254976,161.343,-63.101,30.288,1.0
11.2,128.183491,37.952694,5915.401428,161.183,-63.28,30.416,1.0
11.2166,128.183506,37.95272,5910.565776,161.022,-63.458,30.546,1.0
11.2333,128.183521,37.952745,5905.7188464,160.86,-63.636,30.678,1.0
11.25,128.183535,37.952771,5900.8606392,160.697,-63.814,30.813,1.0
11.2666,128.18355,37.952796,5895.991154400001,160.532,-63.992,30.949,1.0
11.2833,128.183565,37.952821,5891.1106968,160.366,-64.17,31.088,1.0
11.3,128.183579,37.952847,5886.2189616,160.198,-64.347,31.229,1.0
11.3166,128.183594,37.952871,5881.3159488,160.029,-64.524,31.373,1.0
11.3333,128.183609,37.952896,5876.4019632,159.858,-64.701,31.519,1.0
11.35,128.183623,37.952921,5871.4770048,159.685,-64.878,31.667,1.0
11.3666,128.183638,37.952945,5866.5410736,159.51,-65.054,31.817,1.0
11.3833,128.183652,37.95297,5861.594169600001,159.334,-65.231,31.97,1.0
11.4,128.183667,37.952994,5856.636292800001,159.156,-65.407,32.126,1.0
11.4166,128.183681,37.953018,5851.667748,158.976,-65.583,32.283,1.0
11.4333,128.183696,37.953042,5846.6882304,158.795,-65.759,32.444,1.0
11.45,128.18371,37.953066,5841.6980448,158.611,-65.935,32.607,1.0
11.4666,128.183725,37.95309,5836.697191200001,158.426,-66.11,32.773,1.0
11.4833,128.183739,37.953113,5831.6856696,158.238,-66.285,32.941,1.0
11.5,128.183753,37.953137,5826.6637848,158.049,-66.46,33.113,1.0
11.5166,128.183768,37.95316,5821.6309272,157.858,-66.635,33.287,1.0
11.5333,128.183782,37.953183,5816.587706400001,157.665,-66.81,33.464,1.0
11.55,128.183796,37.953206,5811.5341224,157.47,-66.984,33.643,1.0
11.5666,128.183811,37.953229,5806.4701752,157.272,-67.158,33.826,1.0
11.5833,128.183825,37.953252,5801.395560000001,157.072,-67.332,34.012,1.0
11.6,128.183839,37.953274,5796.3108864000005,156.87,-67.506,34.201,1.0
11.6166,128.183853,37.953296,5791.2158496,156.665,-67.679,34.393,1.0
11.6333,128.183868,37.953319,5786.1104496,156.458,-67.853,34.589,1.0
11.65,128.183882,37.953341,5780.9949912,156.248,-68.026,34.787,1.0
11.6666,128.183896,37.953363,5775.8694744,156.036,-68.199,34.989,1.0
11.6833,128.18391,37.953385,5770.7338992,155.821,-68.371,35.194,1.0
11.7,128.183924,37.953406,5765.5882656,155.603,-68.543,35.403,1.0
11.7166,128.183938,37.953428,5760.4325736,155.382,-68.715,35.615,1.0
11.7333,128.183952,37.953449,5755.2668232000005,155.159,-68.887,35.831,1.0
11.75,128.183966,37.95347,5750.091319200001,154.933,-69.058,36.05,1.0
11.7666,128.18398,37.953491,5744.9060616,154.704,-69.229,36.273,1.0
11.7833,128.183994,37.953512,5739.7107456,154.471,-69.4,36.5,1.0
11.8,128.184008,37.953533,5734.5059808,154.235,-69.57,36.731,1.0
11.8166,128.184022,37.953554,5729.2911576,153.996,-69.74,36.965,1.0
11.8333,128.184036,37.953574,5724.0668856,153.753,-69.91,37.204,1.0
11.85,128.18405,37.953595,5718.8331648,153.507,-70.079,37.447,1.0
11.8666,128.184064,37.953615,5713.5896904,153.257,-70.249,37.694,1.0
11.8833,128.184078,37.953635,5708.3367672,153.003,-70.417,37.946,1.0
11.9,128.184092,37.953655,5703.0743952,152.745,-70.586,38.202,1.0
11.9166,128.184105,37.953674,5697.8028792000005,152.483,-70.754,38.462,1.0
11.9333,128.184119,37.953694,5692.5216096,152.217,-70.921,38.727,1.0
11.95,128.184133,37.953713,5687.231196000001,151.947,-71.088,38.997,1.0
11.9666,128.184147,37.953733,5681.9316384,151.673,-71.255,39.271,1.0
11.9833,128.18416,37.953752,5676.6226320000005,151.393,-71.422,39.551,1.0
12.0,128.184174,37.953771,5671.3047864,151.11,-71.588,39.836,1.0
12.0166,128.184188,37.95379,5665.977796800001,150.821,-71.753,40.126,1.0
12.0333,128.184201,37.953808,5660.6416632,150.528,-71.919,40.421,1.0
12.05,128.184215,37.953827,5655.2963856,150.229,-72.083,40.722,1.0
12.0666,128.184228,37.953845,5649.9422688,149.925,-72.248,41.029,1.0
12.0833,128.184242,37.953863,5644.5793128000005,149.616,-72.411,41.341,1.0
12.1,128.184255,37.953881,5639.2075176,149.301,-72.575,41.659,1.0
12.1166,128.184269,37.953899,5633.827188000001,148.981,-72.737,41.983,1.0
12.1333,128.184282,37.953917,5628.437714400001,148.654,-72.9,42.313,1.0
12.15,128.184296,37.953934,5623.039706400001,148.322,-73.062,42.65,1.0
12.1666,128.184309,37.953952,5617.633164000001,147.983,-73.223,42.993,1.0
12.1833,128.184323,37.953969,5612.218087200001,147.638,-73.383,43.343,1.0
12.2,128.184336,37.953986,5606.7941712,147.286,-73.543,43.7,1.0
12.2166,128.184349,37.954003,5601.3620255999995,146.928,-73.703,44.064,1.0
12.2333,128.184363,37.95402,5595.921345600001,146.563,-73.862,44.434,1.0
12.25,128.184376,37.954037,5590.472436,146.19,-74.02,44.813,1.0
12.2666,128.184389,37.954053,5585.0152968,145.811,-74.178,45.199,1.0
12.2833,128.184402,37.954069,5579.5496232000005,145.423,-74.335,45.592,1.0
12.3,128.184415,37.954085,5574.076024800001,145.028,-74.491,45.994,1.0
12.3166,128.184429,37.954101,5568.594196800001,144.626,-74.646,46.404,1.0
12.3333,128.184442,37.954117,5563.1041392,144.215,-74.801,46.822,1.0
12.35,128.184455,37.954133,5557.6061568000005,143.795,-74.955,47.249,1.0
12.3666,128.184468,37.954148,5552.1002496,143.367,-75.108,47.684,1.0
12.3833,128.184481,37.954164,5546.5864176000005,142.931,-75.261,48.129,1.0
12.4,128.184494,37.954179,5541.064660800001,142.485,-75.412,48.582,1.0
12.4166,128.184507,37.954194,5535.534979200001,142.03,-75.563,49.046,1.0
12.4333,128.18452,37.954209,5529.9976776,141.565,-75.713,49.519,1.0
12.45,128.184533,37.954224,5524.452756000001,141.091,-75.862,50.002,1.0
12.4666,128.184546,37.954238,5518.899909600001,140.607,-76.01,50.495,1.0
12.4833,128.184558,37.954252,5513.339747999999,140.112,-76.156,50.999,1.0
12.5,128.184571,37.954267,5507.7716616,139.607,-76.302,51.514,1.0
12.5166,128.184584,37.954281,5502.1965648000005,139.091,-76.447,52.039,1.0
12.5333,128.184597,37.954295,5496.613848,138.564,-76.591,52.576,1.0
12.55,128.18461,37.954308,5491.023816,138.025,-76.733,53.125,1.0
12.5666,128.184622,37.954322,5485.426164,137.475,-76.875,53.685,1.0
12.5833,128.184635,37.954335,5479.821806400001,136.913,-77.015,54.258,1.0
12.6,128.184648,37.954349,5474.209828800001,136.339,-77.154,54.843,1.0
12.6166,128.18466,37.954362,5468.5908408000005,135.752,-77.292,55.441,1.0
12.6333,128.184673,37.954375,5462.964842400001,135.152,-77.428,56.052,1.0
12.65,128.184685,37.954387,5457.331833600001,134.539,-77.563,56.676,1.0
12.6666,128.184698,37.9544,5451.6918144,133.913,-77.697,57.314,1.0
12.6833,128.18471,37.954412,5446.0447848,133.273,-77.829,57.965,1.0
12.7,128.184723,37.954424,5440.3910496,132.619,-77.959,58.631,1.0
12.7166,128.184735,37.954437,5434.730304,131.951,-78.088,59.311,1.0
12.7333,128.184748,37.954448,5429.0631576,131.269,-78.215,60.006,1.0
12.75,128.18476,37.95446,5423.389000800001,130.572,-78.341,60.716,1.0
12.7666,128.184772,37.954472,5417.7084432,129.861,-78.465,61.442,1.0
12.7833,128.184785,37.954483,5412.0214848,129.134,-78.587,62.182,1.0
12.8,128.184797,37.954494,5406.3278208,128.392,-78.708,62.939,1.0
12.8166,128.184809,37.954505,5400.627756000001,127.635,-78.826,63.712,1.0
12.8333,128.184821,37.954516,5394.9212904000005,126.861,-78.942,64.501,1.0
12.85,128.184833,37.954527,5389.2087288,126.072,-79.057,65.307,1.0
12.8666,128.184845,37.954538,5383.4897664,125.267,-79.169,66.129,1.0
12.8833,128.184858,37.954548,5377.7644032,124.445,-79.279,66.968,1.0
12.9,128.18487,37.954558,5372.0332488,123.606,-79.387,67.825,1.0
12.9166,128.184882,37.954568,5366.2959984,122.75,-79.493,68.699,1.0
12.9333,128.184894,37.954578,5360.552652,121.878,-79.596,69.591,1.0
12.95,128.184906,37.954588,5354.803209600001,120.988,-79.696,70.5,1.0
12.9666,128.184917,37.954597,5349.047976,120.081,-79.795,71.426,1.0
12.9833,128.184929,37.954607,5343.286951200001,119.157,-79.89,72.371,1.0
13.0,128.184941,37.954616,5337.5201352,118.215,-79.983,73.333,1.0
13.0166,128.184953,37.954625,5331.747832800001,117.256,-80.073,74.313,1.0
13.0333,128.184965,37.954634,5325.9694344,116.28,-80.161,75.311,1.0
13.0499,128.184976,37.954643,5320.185854400001,115.286,-80.245,76.326,1.0
13.0666,128.184988,37.954651,5314.396788000001,114.276,-80.327,77.359,1.0
13.0833,128.185,37.954659,5308.6019304,113.249,-80.405,78.409,1.0
13.1,128.185011,37.954668,5302.801891200001,112.205,-80.48,79.476,1.0
13.1166,128.185023,37.954676,5296.996670400001,111.144,-80.552,80.559,1.0
13.1333,128.185035,37.954683,5291.1859632000005,110.068,-80.621,81.659,1.0
13.15,128.185046,37.954691,5285.370074400001,108.976,-80.686,82.775,1.0
13.1666,128.185058,37.954699,5279.549004,107.869,-80.748,83.907,1.0
13.1833,128.185069,37.954706,5273.7230568,106.747,-80.806,85.053,1.0
13.2,128.18508,37.954713,5267.891928,105.611,-80.861,86.213,1.0
13.2166,128.185092,37.95472,5262.0559224,104.462,-80.912,87.388,1.0
13.2333,128.185103,37.954727,5256.21504,103.3,-80.96,88.575,1.0
13.25,128.185114,37.954733,5250.3692808,102.126,-81.003,89.775,1.0
13.2666,128.185126,37.95474,5244.5186448,100.941,-81.043,90.985,1.0
13.2833,128.185137,37.954746,5238.6637416,99.746,-81.079,92.207,1.0
13.3,128.185148,37.954752,5232.803656800001,98.542,-81.111,93.438,1.0
13.3166,128.185159,37.954758,5226.9393048,97.329,-81.139,94.677,1.0
13.3333,128.18517,37.954764,5221.0706856,96.109,-81.163,95.924,1.0
13.35,128.185181,37.954769,5215.1971896,94.883,-81.182,97.178,1.0
13.3666,128.185192,37.954775,5209.3197312,93.651,-81.198,98.437,1.0
13.3833,128.185203,37.95478,5203.4377008,92.416,-81.21,99.7,1.0
13.4,128.185214,37.954785,5197.5514032,91.177,-81.217,100.967,1.0
13.4166,128.185225,37.95479,5191.6611432,89.937,-81.22,102.235,1.0
13.4333,128.185236,37.954795,5185.766616,88.696,-81.219,103.504,1.0
13.45,128.185247,37.954799,5179.8681264,87.456,-81.214,104.772,1.0
13.4666,128.185257,37.954803,5173.9656744,86.218,-81.205,106.039,1.0
13.4833,128.185268,37.954807,5168.059260000001,84.983,-81.191,107.303,1.0
13.5,128.185279,37.954811,5162.149188,83.752,-81.174,108.563,1.0
13.5166,128.185289,37.954815,5156.2351536,82.526,-81.152,109.818,1.0
13.5333,128.1853,37.954819,5150.3174616,81.307,-81.126,111.067,1.0
13.55,128.185311,37.954822,5144.396111999999,80.095,-81.096,112.309,1.0
13.5666,128.185321,37.954826,5138.4711048,78.892,-81.062,113.542,1.0
13.5833,128.185331,37.954829,5132.5427448,77.698,-81.025,114.766,1.0
13.6,128.185342,37.954831,5126.611032000001,76.514,-80.983,115.979,1.0
13.6166,128.185352,37.954834,5120.675661599999,75.342,-80.937,117.182,1.0
13.6333,128.185363,37.954837,5114.737243199999,74.182,-80.887,118.372,1.0
13.65,128.185373,37.954839,5108.795472,73.035,-80.834,119.55,1.0
13.6666,128.185383,37.954841,5102.8506528,71.901,-80.777,120.714,1.0
13.6833,128.185393,37.954843,5096.9027856,70.782,-80.716,121.864,1.0
13.7,128.185403,37.954845,5090.9515656,69.678,-80.652,123.0,1.0
13.7166,128.185414,37.954847,5084.9976024,68.589,-80.584,124.12,1.0
13.7333,128.185424,37.954848,5079.040896,67.516,-80.513,125.224,1.0
13.75,128.185434,37.954849,5073.081141600001,66.459,-80.438,126.312,1.0
13.7666,128.185444,37.954851,5067.118644,65.419,-80.36,127.384,1.0
13.7833,128.185454,37.954851,5061.153708,64.396,-80.279,128.438,1.0
13.8,128.185463,37.954852,5055.186028800001,63.39,-80.195,129.476,1.0
13.8166,128.185473,37.954853,5049.215606400001,62.402,-80.107,130.496,1.0
13.8333,128.185483,37.954853,5043.2430504,61.431,-80.017,131.499,1.0
13.85,128.185493,37.954853,5037.267751200001,60.478,-79.923,132.484,1.0
13.8666,128.185503,37.954853,5031.290318400001,59.543,-79.827,133.452,1.0
13.8833,128.185512,37.954853,5025.310752,58.625,-79.728,134.401,1.0
13.9,128.185522,37.954853,5019.328747200001,57.725,-79.627,135.334,1.0
13.9166,128.185531,37.954852,5013.3446088,56.843,-79.523,136.248,1.0
13.9333,128.185541,37.954852,5007.358641600001,55.979,-79.416,137.145,1.0
13.95,128.18555,37.954851,5001.3705408000005,55.132,-79.307,138.025,1.0
13.9666,128.18556,37.95485,4995.380611200001,54.302,-79.195,138.887,1.0
13.9833,128.185569,37.954848,4989.388852800001,53.49,-79.081,139.733,1.0
14.0,128.185578,37.954847,4983.3952656,52.694,-78.965,140.561,1.0
14.0166,128.185588,37.954845,4977.4001544,51.916,-78.847,141.373,1.0
14.0333,128.185597,37.954843,4971.4032144,51.154,-78.726,142.168,1.0
14.05,128.185606,37.954841,4965.4047504,50.408,-78.604,142.947,1.0
14.0666,128.185615,37.954839,4959.4050672,49.678,-78.479,143.71,1.0
14.0833,128.185624,37.954837,4953.40386,48.964,-78.353,144.457,1.0
14.1,128.185633,37.954834,4947.4011288,48.266,-78.225,145.188,1.0
14.1166,128.185642,37.954832,4941.3971784000005,47.583,-78.094,145.905,1.0
14.1333,128.185651,37.954829,4935.3923136,46.915,-77.963,146.606,1.0
14.15,128.18566,37.954826,4929.386229600001,46.262,-77.829,147.293,1.0
14.1666,128.185669,37.954822,4923.3789264,45.623,-77.694,147.966,1.0
14.1833,128.185677,37.954819,4917.3707088,44.998,-77.557,148.624,1.0
14.2,128.185686,37.954815,4911.3615768,44.387,-77.418,149.269,1.0
14.2166,128.185695,37.954811,4905.3518352,43.79,-77.278,149.901,1.0
14.2333,128.185703,37.954807,4899.3411792,43.206,-77.137,150.519,1.0
14.25,128.185712,37.954803,4893.3299136000005,42.634,-76.994,151.124,1.0
14.2666,128.18572,37.954799,4887.3180384,42.076,-76.85,151.717,1.0
14.2833,128.185729,37.954794,4881.3055536,41.529,-76.705,152.298,1.0
14.3,128.185737,37.95479,4875.292764000001,40.995,-76.558,152.866,1.0
14.3166,128.185746,37.954785,4869.2796696000005,40.473,-76.41,153.423,1.0
14.3333,128.185754,37.95478,4863.2659656000005,39.962,-76.26,153.968,1.0
14.35,128.185762,37.954774,4857.252261600001,39.462,-76.11,154.503,1.0
14.3666,128.18577,37.954769,4851.238252800001,38.973,-75.958,155.026,1.0
14.3833,128.185778,37.954763,4845.224244,38.494,-75.806,155.539,1.0
14.4,128.185786,37.954757,4839.2102352,38.026,-75.652,156.041,1.0
14.4166,128.185794,37.954751,4833.1965312,37.569,-75.497,156.534,1.0
14.4333,128.185802,37.954745,4827.1828272,37.121,-75.341,157.016,1.0
14.45,128.18581,37.954739,4821.1691232,36.682,-75.185,157.489,1.0
14.4666,128.185818,37.954732,4815.1560288,36.254,-75.027,157.953,1.0
14.4833,128.185826,37.954725,4809.142934400001,35.834,-74.868,158.408,1.0
14.5,128.185834,37.954718,4803.1307544,35.423,-74.709,158.853,1.0
14.5166,128.185841,37.954711,4797.1188792,35.021,-74.548,159.29,1.0
14.5333,128.185849,37.954704,4791.1076136,34.627,-74.387,159.719,1.0
