Time,Longitude,Latitude,Altitude,Roll (deg),Pitch (deg),Yaw (deg),Health
0.0,128.181881,37.968463,7002.830292000001,0.0,-0.003,179.999,1.0
0.0166,128.181881,37.968418,7002.8116992000005,0.0,-0.012,180.0,1.0
0.0333,128.181881,37.968374,7002.791887200001,0.005,-0.026,180.0,1.0
0.05,128.181881,37.968329,7002.771160800001,0.014,-0.042,180.001,1.0
0.0666,128.181881,37.968284,7002.749824800001,0.023,-0.06,180.001,1.0
0.0833,128.181881,37.968239,7002.727574400001,0.031,-0.079,180.001,1.0
0.1,128.181881,37.968194,7002.704409600001,0.039,-0.098,180.001,1.0
0.1166,128.181881,37.968149,7002.6803304000005,0.045,-0.117,180.001,1.0
0.1333,128.181881,37.968104,7002.6553368,0.05,-0.134,180.001,1.0
0.15,128.181881,37.968059,7002.629733600001,0.055,-0.15,180.001,1.0
0.1666,128.181881,37.968014,7002.602911200001,0.058,-0.163,180.0,1.0
0.1833,128.181881,37.967969,7002.575479200001,0.061,-0.174,180.0,1.0
0.2,128.181881,37.967924,7002.5471328,0.064,-0.184,180.0,1.0
0.2166,128.181881,37.967879,7002.517872,0.066,-0.191,180.0,1.0
0.2333,128.181881,37.967834,7002.487696800001,0.067,-0.196,180.0,1.0
0.25,128.181881,37.967788,7002.456912,0.069,-0.199,180.0,1.0
0.2666,128.181881,37.967743,7002.4252128,0.07,-0.201,180.0,1.0
0.2833,128.181881,37.967698,7002.3922944000005,0.071,-0.202,179.999,1.0
0.3,128.181881,37.967653,7002.3590712,0.072,-0.202,179.999,1.0
0.3166,128.181881,37.967608,7002.324628800001,0.072,-0.201,179.999,1.0
0.3333,128.181881,37.967563,7002.2895768,0.073,-0.2,179.999,1.0
0.35,128.181881,37.967518,7002.253915200001,0.073,-0.199,179.999,1.0
0.3666,128.181881,37.967473,7002.2173391999995,0.073,-0.197,179.999,1.0
0.3833,128.181881,37.967428,7002.1798488,0.074,-0.195,179.999,1.0
0.4,128.181881,37.967382,7002.1417488,0.074,-0.193,180.0,1.0
0.4166,128.181881,37.967337,7002.1030392,0.074,-0.191,180.0,1.0
0.4333,128.181881,37.967292,7002.063415200001,0.075,-0.19,180.0,1.0
0.45,128.181881,37.967247,7002.0231816000005,0.075,-0.189,180.0,1.0
0.4666,128.181881,37.967202,7001.982338400001,0.075,-0.188,180.0,1.0
0.4833,128.181881,37.967157,7001.9405808,0.076,-0.187,180.0,1.0
0.5,128.181881,37.967111,7001.8982136,0.076,-0.186,180.0,1.0
0.5166,128.181881,37.967066,7001.8552368,0.076,-0.186,180.0,1.0
0.5333,128.181881,37.967021,7001.811650400001,0.076,-0.186,180.0,1.0
0.55,128.181881,37.966976,7001.7674544,0.077,-0.185,180.0,1.0
0.5666,128.181881,37.966931,7001.7226488,0.077,-0.185,180.0,1.0
0.5833,128.181881,37.966885,7001.6772336,0.077,-0.185,180.0,1.0
0.6,128.181881,37.96684,7001.630904000001,0.078,-0.185,180.0,1.0
0.6166,128.181881,37.966795,7001.584269600001,0.078,-0.185,180.0,1.0
0.6333,128.181881,37.96675,7001.5370256,0.078,-0.185,180.0,1.0
0.65,128.181881,37.966704,7001.4891720000005,0.078,-0.185,180.0,1.0
0.6666,128.181881,37.966659,7001.440708800001,0.079,-0.186,180.0,1.0
0.6833,128.181881,37.966614,7001.391636,0.079,-0.186,180.0,1.0
0.7,128.181881,37.966568,7001.3422584,0.079,-0.185,180.0,1.0
0.7166,128.181881,37.966523,7001.2919664,0.08,-0.185,180.0,1.0
0.7333,128.181881,37.966478,7001.2413696,0.08,-0.185,180.0,1.0
0.75,128.181881,37.966432,7001.1901632,0.08,-0.185,180.0,1.0
0.7666,128.181881,37.966387,7001.138347200001,0.081,-0.185,180.0,1.0
0.7833,128.181881,37.966342,7001.0862264,0.081,-0.184,180.0,1.0
0.8,128.181881,37.966296,7001.033496000001,0.081,-0.184,180.0,1.0
0.8166,128.181881,37.966251,7000.9804608,0.082,-0.183,180.0,1.0
0.8333,128.181881,37.966206,7000.926816,0.082,-0.183,180.0,1.0
0.85,128.181881,37.96616,7000.8725616,0.083,-0.182,180.0,1.0
0.8666,128.181881,37.966115,7000.818002399999,0.083,-0.182,180.001,1.0
0.8833,128.181881,37.966069,7000.762833600001,0.083,-0.181,180.001,1.0
0.9,128.181881,37.966024,7000.70736,0.084,-0.181,180.001,1.0
0.9166,128.181881,37.965979,7000.6515816,0.084,-0.18,180.001,1.0
0.9333,128.181881,37.965933,7000.5951936,0.085,-0.179,180.001,1.0
0.95,128.181881,37.965888,7000.538196,0.085,-0.179,180.001,1.0
0.9666,128.181881,37.965842,7000.4808936,0.085,-0.178,180.001,1.0
0.9833,128.181881,37.965797,7000.4232864000005,0.086,-0.178,180.001,1.0
1.0,128.181881,37.965751,7000.365374400001,0.086,-0.177,180.001,1.0
1.0166,128.181881,37.965706,7000.3068528,0.087,-0.176,180.001,1.0
1.0333,128.181881,37.96566,7000.2480264000005,0.087,-0.176,180.001,1.0
1.05,128.181881,37.965615,7000.1888952,0.088,-0.175,180.001,1.0
1.0666,128.181881,37.965569,7000.1294592,0.088,-0.174,180.001,1.0
1.0833,128.181881,37.965524,7000.0694136,0.089,-0.173,180.001,1.0
1.1,128.181881,37.965478,7000.0090632,0.089,-0.173,180.0,1.0
1.1166,128.181881,37.965433,6999.948408,0.09,-0.172,180.0,1.0
1.1333,128.181881,37.965387,6999.8874479999995,0.09,-0.171,180.0,1.0
1.15,128.181881,37.965342,6999.826183200001,0.091,-0.17,180.0,1.0
1.1666,128.181881,37.965296,6999.7646136,0.091,-0.169,180.0,1.0
1.1833,128.181881,37.96525,6999.7024344,0.092,-0.168,180.0,1.0
1.2,128.18188,37.965205,6999.640255200001,0.092,-0.167,180.001,1.0
1.2166,128.18188,37.965159,6999.5777712,0.093,-0.166,180.001,1.0
1.2333,128.18188,37.965114,6999.5146776,0.093,-0.165,180.001,1.0
1.25,128.18188,37.965068,6999.451584000001,0.094,-0.164,180.001,1.0
1.2666,128.18188,37.965022,6999.3881856,0.094,-0.163,180.001,1.0
1.2833,128.18188,37.964977,6999.3244824,0.095,-0.162,180.001,1.0
1.3,128.18188,37.964931,6999.260169600001,0.095,-0.161,180.001,1.0
1.3166,128.18188,37.964886,6999.195856800001,0.096,-0.16,180.001,1.0
1.3333,128.18188,37.96484,6999.131544,0.097,-0.159,180.001,1.0
1.35,128.18188,37.964794,6999.0666216,0.097,-0.158,180.001,1.0
1.3666,128.18188,37.964749,6999.0013944,0.098,-0.157,180.001,1.0
1.3833,128.18188,37.964703,6998.9361672,0.099,-0.156,180.001,1.0
1.4,128.18188,37.964657,6998.8706352,0.099,-0.155,180.001,1.0
1.4166,128.18188,37.964611,6998.8047983999995,0.1,-0.154,180.001,1.0
1.4333,128.18188,37.964566,6998.7389616,0.1,-0.153,180.001,1.0
1.45,128.18188,37.96452,6998.672515200001,0.101,-0.152,180.001,1.0
1.4666,128.18188,37.964474,6998.606068800001,0.102,-0.151,180.001,1.0
1.4833,128.18188,37.964429,6998.539622400001,0.102,-0.15,180.001,1.0
1.5,128.18188,37.964383,6998.4725664,0.103,-0.149,180.001,1.0
1.5166,128.18188,37.964337,6998.405510400001,0.104,-0.148,180.001,1.0
1.5333,128.18188,37.964291,6998.3381496,0.104,-0.147,180.001,1.0
1.55,128.18188,37.964245,6998.2707887999995,0.105,-0.146,180.001,1.0
1.5666,128.18188,37.9642,6998.203123200001,0.106,-0.145,180.001,1.0
1.5833,128.18188,37.964154,6998.1354576,0.107,-0.143,180.001,1.0
1.6,128.18188,37.964108,6998.067487200001,0.107,-0.142,180.001,1.0
1.6166,128.18188,37.964062,6997.999212,0.108,-0.141,180.001,1.0
1.6333,128.18188,37.964016,6997.9309368,0.109,-0.14,180.001,1.0
1.65,128.18188,37.963971,6997.862356800001,0.11,-0.138,180.001,1.0
1.6666,128.18188,37.963925,6997.7937768,0.11,-0.137,180.001,1.0
1.6833,128.18188,37.963879,6997.724892,0.111,-0.136,180.001,1.0
1.7,128.18188,37.963833,6997.6560072,0.112,-0.134,180.001,1.0
1.7166,128.18188,37.963787,6997.5871224,0.113,-0.133,180.001,1.0
1.7333,128.18188,37.963741,6997.5179328,0.114,-0.132,180.001,1.0
1.75,128.18188,37.963695,6997.448438400001,0.114,-0.131,180.001,1.0
1.7666,128.18188,37.963649,6997.378944,0.115,-0.129,180.001,1.0
1.7833,128.18188,37.963604,6997.3094496,0.116,-0.128,180.001,1.0
1.8,128.18188,37.963558,6997.239955200001,0.117,-0.127,180.001,1.0
1.8166,128.18188,37.963512,6997.170156000001,0.118,-0.125,180.001,1.0
1.8333,128.18188,37.963466,6997.100052000001,0.119,-0.124,180.001,1.0
1.85,128.18188,37.96342,6997.0302528,0.119,-0.123,180.001,1.0
1.8666,128.18188,37.963374,6996.9601488,0.12,-0.122,180.001,1.0
1.8833,128.18188,37.963328,6996.8897400000005,0.121,-0.12,180.001,1.0
1.9,128.18188,37.963282,6996.819636,0.122,-0.119,180.001,1.0
1.9166,128.18188,37.963236,6996.7492272,0.123,-0.118,180.001,1.0
1.9333,128.18188,37.96319,6996.678818400001,0.124,-0.116,180.001,1.0
1.95,128.18188,37.963144,6996.608104800001,0.125,-0.115,180.001,1.0
1.9666,128.18188,37.963098,6996.537696,0.126,-0.114,180.001,1.0
1.9833,128.18188,37.963052,6996.4669824,0.127,-0.112,180.001,1.0
2.0,128.18188,37.963006,6996.3962688,0.127,-0.111,180.001,1.0
2.0166,128.18188,37.96296,6996.3252504,0.128,-0.11,180.001,1.0
2.0333,128.18188,37.962914,6996.2545368,0.129,-0.109,180.001,1.0
2.05,128.18188,37.962868,6996.1835184,0.13,-0.108,180.001,1.0
2.0666,128.18188,37.962821,6996.1125,0.131,-0.107,180.001,1.0
2.0833,128.18188,37.962775,6996.0414816,0.132,-0.106,180.001,1.0
2.1,128.18188,37.962729,6995.9704632,0.133,-0.106,180.001,1.0
2.1166,128.18188,37.962683,6995.8994448,0.134,-0.106,180.001,1.0
2.1333,128.18188,37.962637,6995.8281216000005,0.135,-0.106,180.001,1.0
2.15,128.18188,37.962591,6995.7571032,0.136,-0.106,180.002,1.0
2.1666,128.18188,37.962545,6995.68578,0.137,-0.106,180.002,1.0
2.1833,128.18188,37.962499,6995.614456800001,0.138,-0.106,180.002,1.0
2.2,128.18188,37.962452,6995.543133600001,0.139,-0.107,180.002,1.0
2.2166,128.18188,37.962406,6995.4715056000005,0.14,-0.107,180.002,1.0
2.2333,128.18188,37.96236,6995.400182400001,0.141,-0.108,180.002,1.0
2.25,128.18188,37.962314,6995.328859200001,0.142,-0.108,180.002,1.0
2.2666,128.18188,37.962268,6995.2572312,0.143,-0.109,180.002,1.0
2.2833,128.18188,37.962222,6995.1856032,0.144,-0.109,180.002,1.0
2.3,128.18188,37.962175,6995.1139752,0.145,-0.11,180.002,1.0
2.3166,128.18188,37.962129,6995.042347200001,0.146,-0.11,180.002,1.0
2.3333,128.18188,37.962083,6994.9707192000005,0.147,-0.11,180.002,1.0
2.35,128.18188,37.962037,6994.899091200001,0.148,-0.11,180.002,1.0
2.3666,128.18188,37.96199,6994.8274632,0.149,-0.111,180.002,1.0
2.3833,128.18188,37.961944,6994.7558352,0.15,-0.111,180.002,1.0
2.4,128.18188,37.961898,6994.6839024,0.151,-0.111,180.001,1.0
2.4166,128.18188,37.961852,6994.6122744,0.152,-0.111,180.001,1.0
2.4333,128.18188,37.961805,6994.540341600001,0.153,-0.111,180.001,1.0
2.45,128.18188,37.961759,6994.4684088,0.154,-0.11,180.001,1.0
2.4666,128.18188,37.961713,6994.3967808,0.155,-0.11,180.001,1.0
2.4833,128.18188,37.961666,6994.324848,0.156,-0.11,180.001,1.0
2.5,128.18188,37.96162,6994.252915200001,0.157,-0.11,180.002,1.0
2.5166,128.18188,37.961574,6994.1809824,0.158,-0.109,180.002,1.0
2.5333,128.18188,37.961527,6994.109049600001,0.16,-0.109,180.002,1.0
2.55,128.181879,37.961481,6994.0371168,0.161,-0.109,180.002,1.0
2.5666,128.181879,37.961435,6993.965184000001,0.162,-0.108,180.002,1.0
2.5833,128.181879,37.961388,6993.893251200001,0.163,-0.108,180.002,1.0
2.6,128.181879,37.961342,6993.821318400001,0.164,-0.108,180.002,1.0
2.6166,128.181879,37.961295,6993.7493856,0.165,-0.108,180.002,1.0
2.6333,128.181879,37.961249,6993.6774528,0.167,-0.108,180.002,1.0
2.65,128.181879,37.961202,6993.605520000001,0.168,-0.107,180.002,1.0
2.6666,128.181879,37.961156,6993.533282400001,0.169,-0.107,180.002,1.0
2.6833,128.181879,37.96111,6993.4613496,0.17,-0.107,180.002,1.0
2.7,128.181879,37.961063,6993.3894168,0.171,-0.107,180.002,1.0
2.7166,128.181879,37.961017,6993.317484000001,0.173,-0.106,180.002,1.0
2.7333,128.181879,37.96097,6993.245551200001,0.174,-0.106,180.002,1.0
2.75,128.181879,37.960924,6993.1736184,0.175,-0.106,180.002,1.0
2.7666,128.181879,37.960877,6993.101685600001,0.176,-0.105,180.002,1.0
2.7833,128.181879,37.960831,6993.0297528,0.177,-0.105,180.002,1.0
2.8,128.181879,37.960784,6992.9578200000005,0.179,-0.104,180.002,1.0
2.8166,128.181879,37.960738,6992.885887200001,0.18,-0.104,180.002,1.0
2.8333,128.181879,37.960691,6992.8139544000005,0.181,-0.103,180.002,1.0
2.85,128.181879,37.960645,6992.7420216,0.182,-0.103,180.002,1.0
2.8666,128.181879,37.960598,6992.6703936,0.184,-0.102,180.002,1.0
2.8833,128.181879,37.960551,6992.598460800001,0.185,-0.102,180.002,1.0
2.9,128.181879,37.960505,6992.526528,0.186,-0.101,180.002,1.0
2.9166,128.181879,37.960458,6992.454900000001,0.188,-0.101,180.002,1.0
2.9333,128.181879,37.960412,6992.3829672,0.189,-0.1,180.002,1.0
2.95,128.181879,37.960365,6992.3113392,0.19,-0.1,180.002,1.0
2.9666,128.181879,37.960318,6992.239406400001,0.192,-0.099,180.002,1.0
2.9833,128.181879,37.960272,6992.1677784,0.193,-0.098,180.002,1.0
3.0,128.181879,37.960225,6992.096150400001,0.194,-0.098,180.002,1.0
3.0166,128.181879,37.960179,6992.0245224,0.196,-0.097,180.002,1.0
3.0333,128.181879,37.960132,6991.9528944,0.197,-0.096,180.002,1.0
3.05,128.181879,37.960085,6991.8812664,0.198,-0.096,180.002,1.0
3.0666,128.181879,37.960039,6991.8099432,0.2,-0.095,180.002,1.0
3.0833,128.181879,37.959992,6991.738315200001,0.201,-0.094,180.002,1.0
3.1,128.181879,37.959945,6991.666992,0.203,-0.093,180.002,1.0
3.1166,128.181879,37.959898,6991.595668800001,0.204,-0.093,180.002,1.0
3.1333,128.181879,37.959852,6991.5240408,0.205,-0.092,180.002,1.0
3.15,128.181879,37.959805,6991.4527176,0.207,-0.091,180.002,1.0
3.1666,128.181879,37.959758,6991.3816992,0.208,-0.09,180.002,1.0
3.1833,128.181879,37.959711,6991.310376,0.21,-0.089,180.002,1.0
3.2,128.181879,37.959665,6991.2390528,0.211,-0.089,180.002,1.0
3.2166,128.181879,37.959618,6991.1680344,0.213,-0.088,180.002,1.0
3.2333,128.181879,37.959571,6991.097016,0.214,-0.087,180.002,1.0
3.25,128.181879,37.959524,6991.025997600001,0.216,-0.086,180.002,1.0
3.2666,128.181879,37.959478,6990.954979200001,0.217,-0.085,180.002,1.0
3.2833,128.181879,37.959431,6990.884265600001,0.219,-0.085,180.002,1.0
3.3,128.181879,37.959384,6990.813247200001,0.22,-0.084,180.002,1.0
3.3166,128.181879,37.959337,6990.742533600001,0.222,-0.083,180.002,1.0
3.3333,128.181879,37.95929,6990.6718200000005,0.223,-0.082,180.002,1.0
3.35,128.181879,37.959243,6990.6011064,0.225,-0.081,180.002,1.0
3.3666,128.181878,37.959196,6990.530392800001,0.227,-0.08,180.002,1.0
3.3833,128.181878,37.95915,6990.459984000001,0.228,-0.079,180.002,1.0
3.4,128.181878,37.959103,6990.3895752,0.23,-0.078,180.002,1.0
3.4166,128.181878,37.959056,6990.3191664,0.231,-0.077,180.002,1.0
3.4333,128.181878,37.959009,6990.2487576,0.233,-0.076,180.003,1.0
3.45,128.181878,37.958962,6990.1786536,0.235,-0.075,180.003,1.0
3.4666,128.181878,37.958915,6990.1082448,0.236,-0.074,180.003,1.0
3.4833,128.181878,37.958868,6990.0381408,0.238,-0.073,180.003,1.0
3.5,128.181878,37.958821,6989.968341600001,0.239,-0.072,180.003,1.0
3.5166,128.181878,37.958774,6989.8982376,0.241,-0.071,180.003,1.0
3.5333,128.181878,37.958727,6989.828438400001,0.243,-0.07,180.003,1.0
3.55,128.181878,37.95868,6989.7586392,0.244,-0.069,180.003,1.0
3.5666,128.181878,37.958633,6989.68884,0.246,-0.068,180.003,1.0
3.5833,128.181878,37.958586,6989.6193456,0.247,-0.068,180.003,1.0
3.6,128.181878,37.958539,6989.5498512,0.249,-0.067,180.003,1.0
3.6166,128.181878,37.958492,6989.480356800001,0.25,-0.066,180.003,1.0
3.6333,128.181878,37.958445,6989.4108624,0.252,-0.065,180.003,1.0
3.65,128.181878,37.958398,6989.3416728,0.253,-0.064,180.003,1.0
3.6666,128.181878,37.958351,6989.2724832,0.255,-0.063,180.003,1.0
3.6833,128.181878,37.958304,6989.2032936,0.256,-0.062,180.003,1.0
3.7,128.181878,37.958257,6989.134104000001,0.258,-0.061,180.002,1.0
3.7166,128.181878,37.95821,6989.065219200001,0.259,-0.06,180.002,1.0
3.7333,128.181878,37.958163,6988.9963344,0.261,-0.059,180.002,1.0
3.75,128.181878,37.958116,6988.927754400001,0.262,-0.058,180.002,1.0
3.7666,128.181878,37.958068,6988.858869600001,0.264,-0.057,180.002,1.0
3.7833,128.181878,37.958021,6988.7902896,0.265,-0.056,180.003,1.0
3.8,128.181878,37.957974,6988.7220144,0.267,-0.055,180.003,1.0
3.8166,128.181878,37.957927,6988.6534344,0.269,-0.054,180.003,1.0
3.8333,128.181878,37.95788,6988.585159200001,0.27,-0.053,180.003,1.0
3.85,128.181878,37.957833,6988.5171887999995,0.272,-0.052,180.003,1.0
3.8666,128.181878,37.957786,6988.4489136,0.274,-0.051,180.003,1.0
3.8833,128.181878,37.957738,6988.3809432,0.276,-0.05,180.003,1.0
3.9,128.181878,37.957691,6988.3129728,0.277,-0.049,180.003,1.0
3.9166,128.181878,37.957644,6988.2453072,0.279,-0.048,180.003,1.0
3.9333,128.181878,37.957597,6988.1776416,0.281,-0.047,180.003,1.0
3.95,128.181878,37.957549,6988.109976,0.282,-0.046,180.003,1.0
3.9666,128.181878,37.957502,6988.042615200001,0.284,-0.045,180.003,1.0
3.9833,128.181878,37.957455,6987.9752544,0.286,-0.044,180.003,1.0
4.0,128.181877,37.957408,6987.9078936,0.287,-0.043,180.003,1.0
4.0166,128.181877,37.95736,6987.840837600001,0.289,-0.042,180.003,1.0
4.0333,128.181877,37.957313,6987.7737816,0.291,-0.041,180.003,1.0
4.05,128.181877,37.957266,6987.7073352,0.287,-0.041,180.002,1.0
4.0666,128.181877,37.957218,6987.6408888,0.279,-0.042,180.0,1.0
4.0833,128.181877,37.957171,6987.574747200001,0.266,-0.044,179.998,1.0
4.1,128.181877,37.957124,6987.508910400001,0.248,-0.046,179.996,1.0
4.1166,128.181877,37.957076,6987.4430736,0.227,-0.048,179.994,1.0
4.1333,128.181877,37.957029,6987.377541600001,0.204,-0.049,179.992,1.0
4.15,128.181877,37.956982,6987.3120096,0.18,-0.05,179.99,1.0
4.1666,128.181877,37.956934,6987.246477600001,0.156,-0.051,179.989,1.0
4.1833,128.181877,37.956887,6987.1809456,0.133,-0.051,179.987,1.0
4.2,128.181877,37.956839,6987.1157184,0.111,-0.05,179.986,1.0
4.2166,128.181877,37.956792,6987.050491200001,0.09,-0.048,179.985,1.0
4.2333,128.181877,37.956745,6986.985264000001,0.072,-0.046,179.984,1.0
4.25,128.181877,37.956697,6986.920341600001,0.054,-0.044,179.983,1.0
4.2666,128.181877,37.95665,6986.8551144,0.039,-0.041,179.983,1.0
4.2833,128.181877,37.956602,6986.790192,0.025,-0.038,179.982,1.0
4.3,128.181877,37.956555,6986.7255744,0.013,-0.035,179.981,1.0
4.3166,128.181877,37.956507,6986.6606520000005,0.002,-0.032,179.98,1.0
4.3333,128.181877,37.95646,6986.5960344,-0.006,-0.03,179.979,1.0
4.35,128.181877,37.956412,6986.5314168,-0.014,-0.027,179.978,1.0
4.3666,128.181877,37.956365,6986.467104,-0.022,-0.025,179.978,1.0
4.3833,128.181877,37.956317,6986.4027912,-0.028,-0.022,179.977,1.0
4.4,128.181877,37.95627,6986.338478400001,-0.033,-0.02,179.976,1.0
4.4166,128.181877,37.956222,6986.274470400001,-0.038,-0.018,179.975,1.0
4.4333,128.181877,37.956175,6986.2104624,-0.042,-0.017,179.975,1.0
4.45,128.181877,37.956127,6986.1464544,-0.045,-0.015,179.974,1.0
4.4666,128.181877,37.95608,6986.0827512000005,-0.047,-0.013,179.974,1.0
4.4833,128.181877,37.956032,6986.019048,-0.049,-0.012,179.973,1.0
4.5,128.181877,37.955984,6985.9556496000005,-0.051,-0.01,179.973,1.0
4.5166,128.181877,37.955937,6985.892251200001,-0.052,-0.009,179.973,1.0
4.5333,128.181876,37.955889,6985.8291576,-0.052,-0.007,179.973,1.0
4.55,128.181876,37.955841,6985.766064,-0.052,-0.006,179.972,1.0
4.5666,128.181876,37.955794,6985.702970400001,-0.052,-0.004,179.972,1.0
4.5833,128.181876,37.955746,6985.640181600001,-0.051,-0.003,179.972,1.0
4.6,128.181876,37.955698,6985.577392800001,-0.05,-0.001,179.972,1.0
4.6166,128.181876,37.955651,6985.5149088,-0.049,0.0,179.972,1.0
4.6333,128.181876,37.955603,6985.4527296,-0.048,0.001,179.972,1.0
4.65,128.181876,37.955555,6985.3902456000005,-0.046,0.002,179.972,1.0
4.6666,128.181876,37.955508,6985.3283712,-0.044,0.003,179.972,1.0
4.6833,128.181876,37.95546,6985.266192000001,-0.043,0.005,179.972,1.0
4.7,128.181876,37.955412,6985.2046224000005,-0.041,0.006,179.972,1.0
4.7166,128.181876,37.955364,6985.1430528,-0.039,0.007,179.972,1.0
4.7333,128.181876,37.955317,6985.081483200001,-0.037,0.009,179.971,1.0
4.75,128.181876,37.955269,6985.0202184,-0.036,0.01,179.971,1.0
4.7666,128.181876,37.955221,6984.9589536,-0.034,0.011,179.971,1.0
4.7833,128.181876,37.955173,6984.8979936,-0.032,0.013,179.971,1.0
4.8,128.181876,37.955126,6984.837033600001,-0.03,0.014,179.971,1.0
4.8166,128.181876,37.955078,6984.776378400001,-0.029,0.015,179.971,1.0
4.8333,128.181876,37.95503,6984.715723200001,-0.027,0.017,179.971,1.0
4.85,128.181876,37.954982,6984.655372800001,-0.025,0.018,179.971,1.0
4.8666,128.181876,37.954934,6984.595327200001,-0.023,0.02,179.971,1.0
4.8833,128.181876,37.954886,6984.5352816,-0.022,0.021,179.971,1.0
4.9,128.181876,37.954838,6984.475236,-0.02,0.022,179.971,1.0
4.9166,128.181876,37.954791,6984.4154952,-0.019,0.024,179.971,1.0
4.9333,128.181876,37.954743,6984.3560592,-0.017,0.025,179.97,1.0
4.95,128.181876,37.954695,6984.296623200001,-0.016,0.026,179.97,1.0
4.9666,128.181876,37.954647,6984.237492,-0.015,0.028,179.97,1.0
4.9833,128.181876,37.954599,6984.1783608000005,-0.014,0.029,179.97,1.0
5.0,128.181876,37.954551,6984.1195344,-0.013,0.031,179.97,1.0
5.0166,128.181876,37.954503,6984.060708,-0.012,0.032,179.97,1.0
5.0333,128.181876,37.954455,6984.0021864,-0.011,0.034,179.969,1.0
5.05,128.181876,37.954407,6983.943664800001,-0.01,0.035,179.969,1.0
5.0666,128.181876,37.954359,6983.885448,-0.01,0.037,179.969,1.0
5.0833,128.181876,37.954311,6983.827536000001,-0.009,0.038,179.969,1.0
5.1,128.181876,37.954263,6983.7696240000005,-0.008,0.04,179.969,1.0
5.1166,128.181876,37.954215,6983.7120168,-0.008,0.042,179.968,1.0
5.1333,128.181875,37.954167,6983.654409600001,-0.007,0.043,179.968,1.0
5.15,128.181875,37.954119,6983.5971072,-0.007,0.045,179.968,1.0
5.1666,128.181875,37.954071,6983.539804800001,-0.006,0.046,179.968,1.0
5.1833,128.181875,37.954023,6983.4828072,-0.006,0.048,179.967,1.0
5.2,128.181875,37.953975,6983.426724000001,-0.005,0.065,179.967,1.0
5.2166,128.181875,37.953927,6983.3712504000005,-0.004,0.113,179.968,1.0
5.2333,128.181875,37.953879,6983.3169960000005,-0.002,0.207,179.968,1.0
5.25,128.181875,37.95383,6983.264570400001,0.0,0.361,179.968,1.0
5.2666,128.181875,37.953782,6983.214583200001,0.001,0.584,179.969,1.0
5.2833,128.181875,37.953734,6983.1679488,0.004,0.884,179.969,1.0
5.3,128.181875,37.953686,6983.1246672,0.007,1.266,179.97,1.0
5.3166,128.181875,37.953638,6983.0856527999995,0.01,1.713,179.97,1.0
5.3333,128.181875,37.95359,6983.050905600001,0.013,2.211,179.971,1.0
5.35,128.181875,37.953542,6983.0216448,0.017,2.742,179.971,1.0
5.3666,128.181875,37.953494,6982.9978704000005,0.02,3.287,179.972,1.0
5.3833,128.181875,37.953445,6982.980496800001,0.024,3.824,179.972,1.0
5.4,128.181875,37.953397,6982.969828800001,0.028,4.335,179.973,1.0
5.4166,128.181875,37.953349,6982.9658664,0.031,4.802,179.974,1.0
5.4333,128.181875,37.953301,6982.969524000001,0.035,5.225,179.974,1.0
5.45,128.181875,37.953253,6982.9811064000005,0.038,5.61,179.975,1.0
5.4666,128.181875,37.953205,6983.001528000001,0.041,5.962,179.975,1.0
5.4833,128.181875,37.953156,6983.030179200001,0.044,6.288,179.976,1.0
5.5,128.181875,37.953108,6983.068279200001,0.048,6.59,179.977,1.0
5.5166,128.181875,37.95306,6983.1155232,0.051,6.873,179.977,1.0
5.5333,128.181875,37.953012,6983.172216,0.054,7.138,179.978,1.0
5.55,128.181875,37.952964,6983.2383576,0.057,7.387,179.979,1.0
5.5666,128.181875,37.952915,6983.3148624000005,0.06,7.623,179.979,1.0
5.5833,128.181875,37.952867,6983.4011208,0.063,7.848,179.98,1.0
5.6,128.181875,37.952819,6983.497742400001,0.066,8.061,179.98,1.0
5.6166,128.181875,37.952771,6983.604422400001,0.069,8.265,179.981,1.0
5.6333,128.181875,37.952723,6983.721770400001,0.072,8.46,179.981,1.0
5.65,128.181875,37.952675,6983.8494816,0.075,8.648,179.982,1.0
5.6666,128.181875,37.952626,6983.987860800001,0.077,8.83,179.982,1.0
5.6833,128.181875,37.952578,6984.136908,0.08,9.005,179.983,1.0
5.7,128.181875,37.95253,6984.296623200001,0.083,9.174,179.983,1.0
5.7166,128.181875,37.952482,6984.467311200001,0.086,9.339,179.983,1.0
5.7333,128.181875,37.952434,6984.648972,0.089,9.499,179.984,1.0
5.75,128.181875,37.952386,6984.841300800001,0.092,9.654,179.984,1.0
5.7666,128.181875,37.952337,6985.0446024,0.094,9.806,179.984,1.0
5.7833,128.181874,37.952289,6985.2588768000005,0.097,9.953,179.985,1.0
5.8,128.181874,37.952241,6985.4844288,0.1,10.098,179.985,1.0
5.8166,128.181874,37.952193,6985.7206488,0.103,10.239,179.985,1.0
5.8333,128.181874,37.952145,6985.9684512,0.106,10.378,179.985,1.0
5.85,128.181874,37.952097,6986.2269216,0.108,10.515,179.985,1.0
5.8666,128.181874,37.952049,6986.496669600001,0.111,10.649,179.986,1.0
5.8833,128.181874,37.952001,6986.7773904000005,0.114,10.782,179.986,1.0
5.9,128.181874,37.951953,6987.0693888,0.117,10.913,179.986,1.0
5.9166,128.181874,37.951905,6987.37236,0.119,11.043,179.986,1.0
5.9333,128.181874,37.951857,6987.686608800001,0.122,11.171,179.986,1.0
5.95,128.181874,37.951808,6988.0121352,0.125,11.298,179.986,1.0
5.9666,128.181874,37.95176,6988.3486344,0.128,11.425,179.986,1.0
5.9833,128.181874,37.951712,6988.696106400001,0.13,11.55,179.986,1.0
6.0,128.181874,37.951664,6989.0551608000005,0.133,11.675,179.986,1.0
6.0166,128.181874,37.951616,6989.425188000001,0.136,11.799,179.986,1.0
6.0333,128.181874,37.951568,6989.8061880000005,0.139,11.923,179.986,1.0
6.05,128.181874,37.951521,6990.1984656,0.141,12.046,179.986,1.0
6.0666,128.181874,37.951473,6990.6020208,0.144,12.168,179.986,1.0
6.0833,128.181874,37.951425,6991.0165488,0.147,12.291,179.986,1.0
6.1,128.181874,37.951377,6991.4423544,0.15,12.413,179.986,1.0
6.1166,128.181874,37.951329,6991.879132800001,0.153,12.534,179.986,1.0
6.1333,128.181874,37.951281,6992.3271888,0.156,12.656,179.986,1.0
6.15,128.181874,37.951233,6992.7862176,0.159,12.777,179.986,1.0
6.1666,128.181874,37.951185,6993.256524,0.162,12.898,179.985,1.0
6.1833,128.181874,37.951137,6993.7378032,0.165,13.019,179.985,1.0
6.2,128.181874,37.951089,6994.230055200001,0.168,13.14,179.985,1.0
6.2166,128.181874,37.951042,6994.7335848,0.171,13.26,179.985,1.0
6.2333,128.181874,37.950994,6995.248392,0.174,13.381,179.985,1.0
6.25,128.181874,37.950946,6995.774172,0.177,13.501,179.985,1.0
6.2666,128.181874,37.950898,6996.310924800001,0.18,13.621,179.984,1.0
6.2833,128.181874,37.95085,6996.8586504,0.183,13.741,179.984,1.0
6.3,128.181874,37.950803,6997.4176536,0.186,13.862,179.984,1.0
6.3166,128.181873,37.950755,6997.9876296,0.19,13.982,179.984,1.0
6.3333,128.181873,37.950707,6998.5688832000005,0.193,14.102,179.984,1.0
6.35,128.181873,37.95066,6999.160804800001,0.196,14.221,179.983,1.0
6.3666,128.181873,37.950612,6999.764004000001,0.199,14.341,179.983,1.0
6.3833,128.181873,37.950564,7000.378176,0.203,14.461,179.983,1.0
6.4,128.181873,37.950517,7001.0033207999995,0.206,14.581,179.983,1.0
6.4166,128.181873,37.950469,7001.6394384000005,0.21,14.7,179.982,1.0
6.4333,128.181873,37.950421,7002.286833600001,0.213,14.82,179.982,1.0
6.45,128.181873,37.950374,7002.944896800001,0.217,14.94,179.982,1.0
6.4666,128.181873,37.950326,7003.613932800001,0.22,15.059,179.981,1.0
6.4833,128.181873,37.950279,7004.294246400001,0.224,15.179,179.981,1.0
6.5,128.181873,37.950231,7004.9852280000005,0.227,15.298,179.981,1.0
6.5166,128.181873,37.950184,7005.687487200001,0.231,15.418,179.98,1.0
6.5333,128.181873,37.950136,7006.400414400001,0.235,15.537,179.98,0.9999897031372387
6.55,128.181873,37.950089,7007.124314400001,0.239,15.657,179.98,0.9997440687046238
6.5666,128.181873,37.950041,7007.859187200001,0.243,15.776,179.979,0.9992655545892396
6.5833,128.181873,37.949994,7008.605032800001,0.247,15.895,179.979,0.9985517607457609
6.6,128.181873,37.949946,7009.3615464,0.251,16.015,179.979,0.9976051481446271
6.6166,128.181873,37.949899,7010.1293376,0.255,16.134,179.978,0.9964233197240004
6.6333,128.181873,37.949852,7010.907796800001,0.259,16.253,179.978,0.9950087400111159
6.65,128.181873,37.949804,7011.697228800001,0.263,16.372,179.977,0.9933614429851398
6.6666,128.181873,37.949757,7012.497328800001,0.267,16.491,179.977,0.9914790401932384
6.6833,128.181873,37.94971,7013.308401600001,0.271,16.611,179.976,0.9893640011241178
6.7,128.181873,37.949663,7014.130447200001,0.275,16.73,179.976,0.9870163683398048
6.7166,128.181872,37.949615,7014.963160800001,0.28,16.849,179.976,0.9844361869603576
6.7333,128.181872,37.949568,7015.8068472,0.284,16.968,179.975,0.9816210775945041
6.75,128.181872,37.949521,7016.661201600001,0.289,17.087,179.975,0.9785735165982956
6.7666,128.181872,37.949474,7017.526528800001,0.293,17.206,179.974,0.9785735165982956
6.7833,128.181872,37.949427,7018.402524000001,0.298,17.325,179.974,0.9785735165982956
6.8,128.181872,37.949379,7019.289492000001,0.303,17.444,179.973,0.9785735165982956
6.8166,128.181872,37.949332,7020.1871280000005,0.307,17.562,179.973,0.9785735165982956
6.8333,128.181872,37.949285,7021.095432,0.312,17.681,179.972,0.9785735165982956
6.85,128.181872,37.949238,7022.0147088,0.317,17.8,179.972,0.9785735165982956
6.8666,128.181872,37.949191,7022.9446536000005,0.322,17.919,179.971,0.9785735165982956
6.8833,128.181872,37.949144,7023.8852664,0.327,18.038,179.97,0.9785735165982956
6.9,128.181872,37.949097,7024.8365472000005,0.332,18.156,179.97,0.9785735165982956
6.9166,128.181872,37.94905,7025.798496,0.337,18.275,179.969,0.9785735165982956
6.9333,128.181872,37.949003,7026.7714176,0.342,18.394,179.969,0.9785735165982956
6.95,128.181872,37.948956,7027.7547024,0.348,18.512,179.968,0.9785735165982956
6.9666,128.181872,37.948909,7028.748960000001,0.353,18.631,179.968,0.9785735165982956
6.9833,128.181872,37.948863,7029.7538856,0.358,18.75,179.967,0.9785735165982956
7.0,128.181872,37.948816,7030.7691744,0.364,18.868,179.966,0.9785735165982956
7.0166,128.181872,37.948769,7031.795436,0.37,18.987,179.966,0.9785735165982956
7.0333,128.181871,37.948722,7032.8320608,0.375,19.105,179.965,0.9785735165982956
7.05,128.181871,37.948675,7033.8793536,0.381,19.223,179.964,0.9785735165982956
7.0666,128.181871,37.948629,7034.9373144,0.387,19.342,179.964,0.9785735165982956
7.0833,128.181871,37.948582,7036.0059432,0.393,19.46,179.963,0.9785735165982956
7.1,128.181871,37.948535,7037.0849352000005,0.399,19.579,179.962,0.9785735165982956
7.1166,128.181871,37.948489,7038.1749,0.405,19.697,179.962,0.9785735165982956
7.1333,128.181871,37.948442,7039.274923200001,0.411,19.815,179.961,0.9785735165982956
7.15,128.181871,37.948396,7040.385919200001,0.417,19.933,179.96,0.9785735165982956
7.1666,128.181871,37.948349,7041.5072784,0.424,20.052,179.959,0.9785735165982956
7.1833,128.181871,37.948302,7042.639000800001,0.43,20.17,179.959,0.9785735165982956
7.2,128.181871,37.948256,7043.7813912,0.437,20.288,179.958,0.9785735165982956
7.2166,128.181871,37.94821,7044.9344496,0.444,20.406,179.957,0.9785735165982956
7.2333,128.181871,37.948163,7046.0978712,0.45,20.524,179.956,0.9785735165982956
7.25,128.181871,37.948117,7047.271656000001,0.457,20.642,179.955,0.9785735165982956
7.2666,128.181871,37.94807,7048.455804,0.464,20.76,179.954,0.9785735165982956
7.2833,128.18187,37.948024,7049.65062,0.471,20.878,179.954,0.9785735165982956
7.3,128.18187,37.947978,7050.855799200001,0.478,20.996,179.953,0.9785735165982956
7.3166,128.18187,37.947931,7052.071341600001,0.486,21.114,179.952,0.9785735165982956
7.3333,128.18187,37.947885,7053.297552000001,0.493,21.232,179.951,0.9785735165982956
7.35,128.18187,37.947839,7054.5338208,0.5,21.349,179.95,0.9785735165982956
7.3666,128.18187,37.947793,7055.7807576,0.508,21.467,179.949,0.9785735165982956
7.3833,128.18187,37.947747,7057.0377528,0.516,21.585,179.948,0.9785735165982956
7.4,128.18187,37.947701,7058.305416,0.523,21.703,179.947,0.9785735165982956
7.4166,128.18187,37.947654,7059.583137600001,0.531,21.82,179.946,0.9785735165982956
7.4333,128.18187,37.947608,7060.8712224,0.539,21.938,179.945,0.9785735165982956
7.45,128.18187,37.947562,7062.1699751999995,0.547,22.055,179.944,0.9785735165982956
7.4666,128.18187,37.947516,7063.4787864,0.556,22.173,179.943,0.9785735165982956
7.4833,128.18187,37.94747,7064.797656000001,0.564,22.291,179.942,0.9785735165982956
7.5,128.181869,37.947425,7066.1271936,0.572,22.408,179.941,0.9785735165982956
7.5166,128.181869,37.947379,7067.4667896,0.581,22.526,179.94,0.9785735165982956
7.5333,128.181869,37.947333,7068.816444,0.59,22.643,179.939,0.9785735165982956
7.55,128.181869,37.947287,7070.1764616,0.598,22.76,179.938,0.9785735165982956
7.5666,128.181869,37.947241,7071.546842400001,0.607,22.878,179.937,0.9785735165982956
7.5833,128.181869,37.947195,7072.9272816,0.616,22.995,179.936,0.9785735165982956
7.6,128.181869,37.94715,7074.318084,0.626,23.112,179.935,0.9785735165982956
7.6166,128.181869,37.947104,7075.7189448,0.635,23.229,179.933,0.9785735165982956
7.6333,128.181869,37.947058,7077.129864,0.644,23.347,179.932,0.9785735165982956
7.65,128.181869,37.947013,7078.551146400001,0.654,23.464,179.931,0.9785735165982956
7.6666,128.181869,37.946967,7079.982487200001,0.664,23.581,179.93,0.9785735165982956
7.6833,128.181868,37.946922,7081.423886400001,0.674,23.698,179.928,0.9785735165982956
7.7,128.181868,37.946876,7082.875344,0.684,23.815,179.927,0.9785735165982956
7.7166,128.181868,37.946831,7084.33686,0.694,23.932,179.926,0.9785735165982956
7.7333,128.181868,37.946785,7085.8087392,0.704,24.049,179.925,0.9785735165982956
7.75,128.181868,37.94674,7087.290372,0.715,24.166,179.923,0.9785735165982956
7.7666,128.181868,37.946695,7088.7820632,0.725,24.283,179.922,0.9785735165982956
7.7833,128.181868,37.946649,7090.2838128,0.736,24.4,179.92,0.9785735165982956
7.8,128.181868,37.946604,7091.7956208,0.747,24.516,179.919,0.9785735165982956
7.8166,128.181868,37.946559,7093.317487200001,0.758,24.633,179.918,0.9785735165982956
7.8333,128.181868,37.946513,7094.849412,0.769,24.75,179.916,0.9785735165982956
7.85,128.181867,37.946468,7096.3910904,0.78,24.867,179.915,0.9785735165982956
7.8666,128.181867,37.946423,7097.9428272000005,0.792,24.983,179.913,0.9785735165982956
7.8833,128.181867,37.946378,7099.5043176,0.803,25.1,179.912,0.9785735165982956
7.9,128.181867,37.946333,7101.0758663999995,0.815,25.217,179.91,0.9785735165982956
7.9166,128.181867,37.946288,7102.6574736,0.827,25.333,179.909,0.9785735165982956
7.9333,128.181867,37.946243,7104.2488344,0.839,25.45,179.907,0.9785735165982956
7.95,128.181867,37.946198,7105.8499488,0.851,25.566,179.905,0.9785735165982956
7.9666,128.181867,37.946153,7107.4611216,0.864,25.683,179.904,0.9785735165982956
7.9833,128.181867,37.946108,7109.082048,0.876,25.799,179.902,0.9785735165982956
8.0,128.181866,37.946064,7110.712728,0.889,25.915,179.9,0.9785735165982956
8.0166,128.181866,37.946019,7112.3531616,0.902,26.032,179.899,0.9785735165982956
8.0333,128.181866,37.945974,7114.0036536,0.915,26.148,179.897,0.9785735165982956
8.05,128.181866,37.945929,7115.6638992,0.928,26.264,179.895,0.9785735165982956
8.0666,128.181866,37.945885,7117.3335936,0.941,26.38,179.894,0.9785735165982956
8.0833,128.181866,37.94584,7119.013346400001,0.955,26.497,179.893,0.9785735165982956
8.1,128.181866,37.945795,7120.702548,0.968,26.613,179.891,0.9785735165982956
8.1166,128.181866,37.945751,7122.4018080000005,0.982,26.729,179.89,0.9785735165982956
8.1333,128.181865,37.945706,7124.1105168,0.995,26.845,179.889,0.9785735165982956
8.15,128.181865,37.945662,7125.8289792000005,1.009,26.961,179.888,0.9785735165982956
8.1666,128.181865,37.945618,7127.5571952,1.023,27.077,179.887,0.9785735165982956
8.1833,128.181865,37.945573,7129.294860000001,1.037,27.193,179.886,0.9785735165982956
8.2,128.181865,37.945529,7131.0422784,1.052,27.309,179.886,0.9785735165982956
8.2166,128.181865,37.945485,7132.799450400001,1.066,27.424,179.885,0.9785735165982956
8.2333,128.181865,37.94544,7134.5660712,1.081,27.54,179.884,0.9785735165982956
8.25,128.181864,37.945396,7136.3421408,1.096,27.656,179.884,0.9785735165982956
8.2666,128.181864,37.945352,7138.127964,1.111,27.772,179.884,0.9785735165982956
8.2833,128.181864,37.945308,7139.9232360000005,1.127,27.887,179.883,0.9785735165982956
8.3,128.181864,37.945264,7141.7282616,1.142,28.003,179.883,0.9785735165982956
8.3166,128.181864,37.94522,7143.5424312000005,1.158,28.118,179.883,0.9785735165982956
8.3333,128.181864,37.945176,7145.3663544,1.174,28.234,179.883,0.9785735165982956
8.35,128.181863,37.945132,7147.1997264,1.19,28.349,179.883,0.9785735165982956
8.3666,128.181863,37.945088,7149.042547200001,1.206,28.465,179.883,0.9785735165982956
8.3833,128.181863,37.945044,7150.8948168,1.223,28.58,179.884,0.9785735165982956
8.4,128.181863,37.945,7152.7565352,1.239,28.696,179.884,0.9785735165982956
8.4166,128.181863,37.944956,7154.627397600001,1.256,28.811,179.885,0.9785735165982956
8.4333,128.181863,37.944913,7156.508013600001,1.273,28.926,179.885,0.9785735165982956
8.45,128.181862,37.944869,7158.397773600001,1.29,29.041,179.886,0.9785735165982956
8.4666,128.181862,37.944825,7160.2969824,1.308,29.157,179.886,0.9785735165982956
8.4833,128.181862,37.944782,7162.20564,1.325,29.272,179.887,0.9785735165982956
8.5,128.181862,37.944738,7164.123441600001,1.343,29.387,179.888,0.9785735165982956
8.5166,128.181862,37.944695,7166.050692000001,1.361,29.502,179.889,0.9785735165982956
8.5333,128.181862,37.944651,7167.9870864,1.379,29.617,179.89,0.9785735165982956
8.55,128.181861,37.944608,7169.9329296,1.397,29.732,179.891,0.9785735165982956
8.5666,128.181861,37.944565,7171.8879168,1.416,29.847,179.893,0.9785735165982956
8.5833,128.181861,37.944521,7173.852048,1.434,29.962,179.894,0.9785735165982956
8.6,128.181861,37.944478,7175.8256280000005,1.453,30.077,179.895,0.9785735165982956
8.6166,128.181861,37.944435,7177.808352000001,1.472,30.191,179.897,0.9785735165982956
8.6333,128.18186,37.944392,7179.800220000001,1.491,30.306,179.899,0.9785735165982956
8.65,128.18186,37.944349,7181.801232000001,1.51,30.421,179.9,0.9785735165982956
8.6666,128.18186,37.944305,7183.811388000001,1.529,30.536,179.902,0.9785735165982956
8.6833,128.18186,37.944262,7185.830688000001,1.548,30.65,179.904,0.9785735165982956
8.7,128.18186,37.944219,7187.8591320000005,1.568,30.765,179.906,0.9785735165982956
8.7166,128.181859,37.944176,7189.896415200001,1.587,30.879,179.908,0.9785735165982956
8.7333,128.181859,37.944134,7191.943147200001,1.607,30.994,179.91,0.9785735165982956
8.75,128.181859,37.944091,7193.9987184,1.627,31.108,179.912,0.9785735165982956
8.7666,128.181859,37.944048,7196.063433600001,1.647,31.223,179.915,0.9785735165982956
8.7833,128.181859,37.944005,7198.136988000001,1.667,31.337,179.917,0.9785735165982956
8.8,128.181858,37.943963,7200.219686400001,1.687,31.451,179.92,0.9785735165982956
8.8166,128.181858,37.94392,7202.311224000001,1.708,31.565,179.922,0.9785735165982956
8.8333,128.181858,37.943877,7204.411905600001,1.728,31.68,179.925,0.9785735165982956
8.85,128.181858,37.943835,7206.521426400001,1.748,31.794,179.928,0.9785735165982956
8.8666,128.181857,37.943792,7208.640091200001,1.769,31.908,179.93,0.9785735165982956
8.8833,128.181857,37.94375,7210.7675952,1.79,32.022,179.933,0.9785735165982956
8.9,128.181857,37.943707,7212.903633600001,1.81,32.136,179.936,0.9785735165982956
8.9166,128.181857,37.943665,7215.0488159999995,1.831,32.251,179.939,0.9785735165982956
8.9333,128.181856,37.943623,7217.202837600001,1.852,32.366,179.943,0.9785735165982956
8.95,128.181856,37.94358,7219.3656984,1.873,32.481,179.946,0.9785735165982956
8.9666,128.181856,37.943538,7221.5373984,1.894,32.596,179.949,0.9785735165982956
8.9833,128.181856,37.943496,7223.7179376,1.915,32.712,179.953,0.9785735165982956
9.0,128.181855,37.943454,7225.907316,1.936,32.829,179.956,0.9785735165982956
9.0166,128.181855,37.943412,7228.105228800001,1.958,32.945,179.96,0.9785735165982956
9.0333,128.181855,37.94337,7230.3119808,1.979,33.063,179.964,0.9785735165982956
9.05,128.181855,37.943328,7232.527572,2.0,33.18,179.968,0.9785735165982956
9.0666,128.181854,37.943286,7234.7520024,2.021,33.298,179.972,0.9785735165982956
9.0833,128.181854,37.943244,7236.9849672,2.043,33.416,179.976,0.9785735165982956
9.1,128.181854,37.943202,7239.2267712,2.064,33.535,179.98,0.9785735165982956
9.1166,128.181853,37.943161,7241.4771096,2.085,33.653,179.985,0.9785735165982956
9.1333,128.181853,37.943119,7243.7359824000005,2.107,33.773,179.989,0.9785735165982956
9.15,128.181853,37.943077,7246.0036944,2.128,33.892,179.994,0.9785735165982956
9.1666,128.181853,37.943036,7248.280245600001,2.15,34.011,179.998,0.9785735165982956
9.1833,128.181852,37.942994,7250.5650264000005,2.171,34.131,180.003,0.9785735165982956
9.2,128.181852,37.942953,7252.858646400001,2.192,34.251,180.008,0.9785735165982956
9.2166,128.181852,37.942911,7255.1608008,2.214,34.371,180.013,0.9785735165982956
9.2333,128.181851,37.94287,7257.4717944,2.235,34.491,180.018,0.9785735165982956
9.25,128.181851,37.942829,7259.7910176000005,2.257,34.612,180.023,0.9785735165982956
9.2666,128.181851,37.942787,7262.1190799999995,2.278,34.732,180.028,0.9785735165982956
9.2833,128.18185,37.942746,7264.4556768,2.299,34.853,180.033,0.9785735165982956
9.3,128.18185,37.942705,7266.8005032,2.32,34.974,180.038,0.9785735165982956
9.3166,128.18185,37.942664,7269.154168800001,2.342,35.094,180.044,0.9785735165982956
9.3333,128.181849,37.942623,7271.516064,2.363,35.215,180.049,0.9785735165982956
9.35,128.181849,37.942582,7273.8867984,2.384,35.336,180.055,0.9785735165982956
9.3666,128.181849,37.942541,7276.2657624,2.405,35.458,180.061,0.9785735165982956
9.3833,128.181848,37.9425,7278.653260800001,2.426,35.579,180.067,0.9785735165982956
9.4,128.181848,37.942459,7281.0492936,2.447,35.7,180.073,0.9785735165982956
9.4166,128.181848,37.942418,7283.453556,2.468,35.822,180.079,0.9785735165982956
9.4333,128.181847,37.942378,7285.8666576,2.488,35.943,180.085,0.9785735165982956
9.45,128.181847,37.942337,7288.287684000001,2.509,36.065,180.091,0.9785735165982956
9.4666,128.181846,37.942296,7290.7175496,2.53,36.186,180.097,0.9785735165982956
9.4833,128.181846,37.942256,7293.15534,2.55,36.308,180.103,0.9785735165982956
9.5,128.181846,37.942215,7295.6019696,2.571,36.43,180.11,0.9785735165982956
9.5166,128.181845,37.942175,7298.0565240000005,2.591,36.552,180.116,0.9785735165982956
9.5333,128.181845,37.942134,7300.5196128,2.612,36.674,180.123,0.9785735165982956
9.55,128.181844,37.942094,7302.991236,2.632,36.796,180.13,0.9785735165982956
9.5666,128.181844,37.942054,7305.4710888,2.652,36.918,180.136,0.9785735165982956
9.5833,128.181844,37.942014,7307.9591712,2.672,37.04,180.143,0.9785735165982956
9.6,128.181843,37.941973,7310.4554832,2.692,37.162,180.15,0.9785735165982956
9.6166,128.181843,37.941933,7312.960024800001,2.712,37.284,180.157,0.9785735165982956
9.6333,128.181842,37.941893,7315.473100800001,2.731,37.407,180.164,0.9785735165982956
9.65,128.181842,37.941853,7317.994101600001,2.751,37.529,180.172,0.9785735165982956
9.6666,128.181842,37.941813,7320.5236368000005,2.77,37.652,180.179,0.9785735165982956
9.6833,128.181841,37.941773,7323.061096800001,2.79,37.774,180.186,0.9785735165982956
9.7,128.181841,37.941734,7325.606786400001,2.809,37.897,180.194,0.9785735165982956
9.7166,128.18184,37.941694,7328.161010400001,2.828,38.02,180.201,0.9785735165982956
9.7333,128.18184,37.941654,7330.723159200001,2.847,38.142,180.209,0.9785735165982956
9.75,128.181839,37.941614,7333.2935376000005,2.866,38.265,180.216,0.9785735165982956
9.7666,128.181839,37.941575,7335.8718408,2.885,38.388,180.224,0.9785735165982956
9.7833,128.181838,37.941535,7338.4586784,2.904,38.511,180.232,0.9785735165982956
9.8,128.181838,37.941496,7341.053136,2.922,38.634,180.24,0.9785735165982956
9.8166,128.181837,37.941456,7343.6561280000005,2.94,38.757,180.248,0.9785735165982956
9.8333,128.181837,37.941417,7346.2670448,2.959,38.881,180.256,0.9785735165982956
9.85,128.181836,37.941378,7348.8861912,2.977,39.004,180.264,0.9785735165982956
9.8666,128.181836,37.941339,7351.5132624,2.995,39.127,180.273,0.9785735165982956
9.8833,128.181835,37.941299,7354.1482584000005,3.013,39.251,180.281,0.9785735165982956
9.9,128.181835,37.94126,7356.791484000001,3.03,39.374,180.289,0.9785735165982956
9.9166,128.181834,37.941221,7359.4426344,3.048,39.498,180.298,0.9785735165982956
9.9333,128.181834,37.941182,7362.1017096000005,3.065,39.621,180.306,0.9785735165982956
9.95,128.181833,37.941143,7364.768709600001,3.082,39.745,180.315,0.9785735165982956
9.9666,128.181833,37.941104,7367.4439392,3.1,39.869,180.324,0.9785735165982956
9.9833,128.181832,37.941066,7370.1267888,3.116,39.992,180.333,0.9785735165982956
10.0,128.181832,37.941027,7372.817868,3.133,40.116,180.341,0.9785735165982956
10.0166,128.181831,37.940988,7375.516872,3.15,40.24,180.35,0.9785735165982956
10.0333,128.181831,37.94095,7378.2238008,3.166,40.364,180.359,0.9785735165982956
10.05,128.18183,37.940911,7380.9383496,3.183,40.488,180.369,0.9785735165982956
10.0666,128.18183,37.940872,7383.660823200001,3.199,40.613,180.378,0.9785735165982956
10.0833,128.181829,37.940834,7386.3915264,3.215,40.737,180.387,0.9785735165982956
10.1,128.181828,37.940796,7389.1298496,3.231,40.861,180.396,0.9785735165982956
10.1166,128.181828,37.940757,7391.8757928,3.247,40.986,180.406,0.9785735165982956
10.1333,128.181827,37.940719,7394.629660800001,3.262,41.11,180.415,0.9785735165982956
10.15,128.181827,37.940681,7397.3914536,3.278,41.235,180.425,0.9785735165982956
10.1666,128.181826,37.940643,7400.1611712,3.293,41.359,180.434,0.9785735165982956
10.1833,128.181825,37.940605,7402.9385088,3.308,41.484,180.444,0.9785735165982956
10.2,128.181825,37.940567,7405.7234664,3.323,41.609,180.454,0.9785735165982956
10.2166,128.181824,37.940529,7408.5163488,3.338,41.734,180.464,0.9785735165982956
10.2333,128.181824,37.940491,7411.316851200001,3.352,41.859,180.473,0.9785735165982956
10.25,128.181823,37.940453,7414.124973600001,3.367,41.984,180.483,0.9785735165982956
10.2666,128.181822,37.940415,7416.940716,3.381,42.109,180.493,0.9785735165982956
10.2833,128.181822,37.940378,7419.7643832,3.395,42.234,180.504,0.9785735165982956
10.3,128.181821,37.94034,7422.595670400001,3.409,42.359,180.514,0.9785735165982956
10.3166,128.18182,37.940302,7425.4345776,3.423,42.484,180.524,0.9785735165982956
10.3333,128.18182,37.940265,7428.2811048,3.436,42.61,180.534,0.9785735165982956
10.35,128.181819,37.940228,7431.135252000001,3.45,42.735,180.545,0.9785735165982956
10.3666,128.181818,37.94019,7433.997019200001,3.463,42.861,180.555,0.9785735165982956
10.3833,128.181818,37.940153,7436.866101600001,3.476,42.986,180.566,0.9785735165982956
10.4,128.181817,37.940116,7439.7431088,3.489,43.112,180.576,0.9785735165982956
10.4166,128.181816,37.940079,7442.6274312000005,3.502,43.238,180.587,0.9785735165982956
10.4333,128.181816,37.940041,7445.519373600001,3.514,43.364,180.597,0.9785735165982956
10.45,128.181815,37.940004,7448.4186312,3.527,43.49,180.608,0.9785735165982956
10.4666,128.181814,37.939967,7451.3255088000005,3.539,43.616,180.619,0.9785735165982956
10.4833,128.181814,37.939931,7454.240006400001,3.551,43.742,180.63,0.9785735165982956
10.5,128.181813,37.939894,7457.1618192000005,3.563,43.868,180.641,0.9785735165982956
10.5166,128.181812,37.939857,7460.091252000001,3.575,43.994,180.652,0.9785735165982956
10.5333,128.181811,37.93982,7463.028,3.587,44.12,180.663,0.9785735165982956
10.55,128.181811,37.939784,7465.9720632,3.598,44.247,180.674,0.9785735165982956
10.5666,128.18181,37.939747,7468.923746400001,3.61,44.373,180.685,0.9785735165982956
10.5833,128.181809,37.93971,7471.88244,3.621,44.5,180.697,0.9785735165982956
10.6,128.181808,37.939674,7474.8487536,3.632,44.626,180.708,0.9785735165982956
10.6166,128.181808,37.939638,7477.822382400001,3.643,44.753,180.719,0.9785735165982956
10.6333,128.181807,37.939601,7480.8033264000005,3.653,44.88,180.731,0.9785735165982956
10.65,128.181806,37.939565,7483.7915856,3.664,45.007,180.742,0.9785735165982956
10.6666,128.181805,37.939529,7486.787160000001,3.674,45.134,180.754,0.9785735165982956
10.6833,128.181805,37.939493,7489.7900496,3.684,45.261,180.766,0.9785735165982956
10.7,128.181804,37.939457,7492.8002544,3.694,45.388,180.777,0.9785735165982956
10.7166,128.181803,37.939421,7495.817469600001,3.704,45.515,180.789,0.9785735165982956
10.7333,128.181802,37.939385,7498.842000000001,3.714,45.643,180.801,0.9785735165982956
10.75,128.181801,37.939349,7501.8738456,3.724,45.77,180.813,0.9785735165982956
10.7666,128.181801,37.939313,7504.912701600001,3.733,45.897,180.825,0.9785735165982956
10.7833,128.1818,37.939278,7507.958872800001,3.742,46.025,180.837,0.9785735165982956
10.8,128.181799,37.939242,7511.0123592,3.752,46.153,180.849,0.9785735165982956
10.8166,128.181798,37.939207,7514.072856000001,3.761,46.28,180.861,0.9785735165982956
10.8333,128.181797,37.939171,7517.1403632,3.769,46.408,180.873,0.9785735165982956
10.85,128.181796,37.939136,7520.2148808,3.778,46.536,180.885,0.9785735165982956
10.8666,128.181796,37.9391,7523.296713600001,3.787,46.664,180.897,0.9785735165982956
10.8833,128.181795,37.939065,7526.385556800001,3.795,46.792,180.91,0.9785735165982956
10.9,128.181794,37.93903,7529.481410400001,3.803,46.92,180.922,0.9785735165982956
10.9166,128.181793,37.938995,7532.584274400001,3.812,47.048,180.934,0.9785735165982956
10.9333,128.181792,37.93896,7535.6941488,3.82,47.177,180.947,0.9785735165982956
10.95,128.181791,37.938925,7538.811033600001,3.827,47.305,180.959,0.9785735165982956
10.9666,128.18179,37.93889,7541.9349288,3.835,47.434,180.972,0.9785735165982956
10.9833,128.181789,37.938855,7545.0658344,3.843,47.562,180.985,0.9785735165982956
11.0,128.181788,37.93882,7548.203750400001,3.85,47.691,180.997,0.9785735165982956
11.0166,128.181788,37.938786,7551.348372,3.857,47.82,181.01,0.9785735165982956
11.0333,128.181787,37.938751,7554.500004,3.865,47.948,181.023,0.9785735165982956
11.05,128.181786,37.938716,7557.6586464,3.872,48.077,181.036,0.9785735165982956
11.0666,128.181785,37.938682,7560.8239944,3.879,48.206,181.049,0.9785735165982956
11.0833,128.181784,37.938648,7563.9963528,3.885,48.335,181.061,0.9785735165982956
11.1,128.181783,37.938613,7567.1754168,3.892,48.465,181.074,0.9785735165982956
11.1166,128.181782,37.938579,7570.3614912,3.899,48.594,181.088,0.9785735165982956
11.1333,128.181781,37.938545,7573.5542712,3.905,48.723,181.101,0.9785735165982956
11.15,128.18178,37.938511,7576.753756800001,3.911,48.853,181.114,0.9785735165982956
11.1666,128.181779,37.938477,7579.959948,3.917,48.982,181.127,0.9785735165982956
11.1833,128.181778,37.938443,7583.1731496,3.923,49.112,181.14,0.9785735165982956
11.2,128.181777,37.938409,7586.392752000001,3.929,49.242,181.154,0.9785735165982956
11.2166,128.181776,37.938375,7589.619364800001,3.935,49.372,181.167,0.9785735165982956
11.2333,128.181775,37.938341,7592.852378400001,3.941,49.502,181.18,0.9785735165982956
11.25,128.181774,37.938307,7596.0924024,3.946,49.632,181.194,0.9785735165982956
11.2666,128.181773,37.938274,7599.3388272,3.952,49.762,181.207,0.9785735165982956
11.2833,128.181772,37.93824,7602.5919576,3.957,49.892,181.221,0.9785735165982956
11.3,128.181771,37.938207,7605.8517936,3.962,50.022,181.235,0.9785735165982956
11.3166,128.18177,37.938173,7609.1180304,3.967,50.153,181.248,0.9785735165982956
11.3333,128.181769,37.93814,7612.390972800001,3.972,50.283,181.262,0.9785735165982956
11.35,128.181768,37.938107,7615.6706208,3.977,50.414,181.276,0.9785735165982956
11.3666,128.181767,37.938074,7618.956669600001,3.982,50.544,181.289,0.9785735165982956
11.3833,128.181766,37.938041,7622.249119200001,3.987,50.675,181.303,0.9785735165982956
11.4,128.181765,37.938008,7625.548274400001,3.991,50.806,181.317,0.9785735165982956
11.4166,128.181764,37.937975,7628.8538304,3.996,50.937,181.331,0.9785735165982956
11.4333,128.181763,37.937942,7632.1657872000005,4.0,51.068,181.345,0.9785735165982956
11.45,128.181762,37.937909,7635.4844496000005,4.005,51.199,181.359,0.9785735165982956
11.4666,128.181761,37.937876,7638.809208,4.009,51.331,181.373,0.9785735165982956
11.4833,128.18176,37.937844,7642.140672,4.013,51.462,181.388,0.9785735165982956
11.5,128.181758,37.937811,7645.478232,4.017,51.593,181.402,0.9785735165982956
11.5166,128.181757,37.937779,7648.822497600001,4.021,51.725,181.416,0.9785735165982956
11.5333,128.181756,37.937746,7652.172859200001,4.025,51.857,181.43,0.9785735165982956
11.55,128.181755,37.937714,7655.5296216,4.028,51.988,181.445,0.9785735165982956
11.5666,128.181754,37.937682,7658.8927848,4.032,52.12,181.459,0.9785735165982956
11.5833,128.181753,37.93765,7662.2623488,4.035,52.252,181.473,0.9785735165982956
11.6,128.181752,37.937617,7665.6380088000005,4.039,52.384,181.488,0.9785735165982956
11.6166,128.181751,37.937585,7669.0197648,4.042,52.516,181.502,0.9785735165982956
11.6333,128.18175,37.937553,7672.4079216,4.046,52.648,181.517,0.9785735165982956
11.65,128.181748,37.937522,7675.802479200001,4.049,52.78,181.532,0.9785735165982956
11.6666,128.181747,37.93749,7679.2031328,4.052,52.912,181.546,0.9785735165982956
11.6833,128.181746,37.937458,7682.609882400001,4.055,53.044,181.561,0.9785735165982956
11.7,128.181745,37.937426,7686.022728000001,4.058,53.176,181.576,0.9785735165982956
11.7166,128.181744,37.937395,7689.441669600001,4.061,53.309,181.59,0.9785735165982956
11.7333,128.181743,37.937363,7692.867012,4.063,53.441,181.605,0.9785735165982956
11.75,128.181742,37.937332,7696.298145600001,4.066,53.574,181.62,0.9785735165982956
11.7666,128.18174,37.937301,7699.73568,4.069,53.706,181.635,0.9785735165982956
11.7833,128.181739,37.937269,7703.179005600001,4.071,53.839,181.65,0.9785735165982956
11.8,128.181738,37.937238,7706.6284272,4.074,53.972,181.665,0.9785735165982956
11.8166,128.181737,37.937207,7710.083944800001,4.076,54.104,181.68,0.9785735165982956
11.8333,128.181736,37.937176,7713.5452536,4.078,54.237,181.695,0.9785735165982956
11.85,128.181734,37.937145,7717.0126584,4.081,54.37,181.71,0.9785735165982956
11.8666,128.181733,37.937114,7720.486159200001,4.083,54.503,181.725,0.9785735165982956
11.8833,128.181732,37.937084,7723.965451200001,4.085,54.636,181.741,0.9785735165982956
11.9,128.181731,37.937053,7727.4505344,4.087,54.77,181.756,0.9785735165982956
11.9166,128.181729,37.937022,7730.9417136,4.089,54.903,181.771,0.9785735165982956
11.9333,128.181728,37.936992,7734.438684000001,4.091,55.036,181.787,0.9785735165982956
11.95,128.181727,37.936961,7737.9414456,4.093,55.17,181.802,0.9785735165982956
11.9666,128.181726,37.936931,7741.4499984,4.095,55.303,181.818,0.9785735165982956
11.9833,128.181725,37.936901,7744.9646472,4.097,55.437,181.833,0.9785735165982956
12.0,128.181723,37.93687,7748.484782400001,4.098,55.571,181.849,0.9785735165982956
12.0166,128.181722,37.93684,7752.0107088,4.1,55.705,181.864,0.9785735165982956
12.0333,128.181721,37.93681,7755.5424264,4.102,55.839,181.88,0.9785735165982956
12.05,128.181719,37.93678,7759.0799352,4.103,55.973,181.896,0.9785735165982956
12.0666,128.181718,37.93675,7762.6232352,4.105,56.107,181.911,0.9785735165982956
12.0833,128.181717,37.936721,7766.1720216,4.106,56.241,181.927,0.9785735165982956
12.1,128.181716,37.936691,7769.7265992,4.107,56.376,181.943,0.9785735165982956
12.1166,128.181714,37.936661,7773.285444,4.059,56.511,181.95,0.9785735165982956
12.1333,128.181713,37.936632,7776.8497752,4.014,56.647,181.958,0.9785735165982956
12.15,128.181712,37.936602,7780.4186784,3.976,56.783,181.97,0.9785735165982956
12.1666,128.18171,37.936573,7783.9924584,3.946,56.919,181.984,0.9785735165982956
12.1833,128.181709,37.936543,7787.571420000001,3.923,57.055,182.0,0.9785735165982956
12.2,128.181708,37.936514,7791.1549536,3.907,57.192,182.018,0.9785735165982956
12.2166,128.181707,37.936485,7794.743668800001,3.896,57.329,182.036,0.9785735165982956
12.2333,128.181705,37.936456,7798.336956000001,3.891,57.466,182.055,0.9785735165982956
12.25,128.181704,37.936427,7801.935120000001,3.891,57.603,182.074,0.9785735165982956
12.2666,128.181703,37.936398,7805.538160800001,3.895,57.741,182.093,0.9785735165982956
12.2833,128.181701,37.936369,7809.146078400001,3.903,57.878,182.112,0.9785735165982956
12.3,128.1817,37.936341,7812.758568,3.915,58.016,182.132,0.9785735165982956
12.3166,128.181699,37.936312,7816.3759344,3.929,58.153,182.151,0.9785735165982956
12.3333,128.181697,37.936283,7819.9981776,3.947,58.291,182.171,0.9785735165982956
12.35,128.181696,37.936255,7823.624992800001,3.967,58.429,182.19,0.9785735165982956
12.3666,128.181695,37.936227,7827.2566848,3.989,58.567,182.21,0.9785735165982956
12.3833,128.181693,37.936198,7830.8929488,4.013,58.705,182.23,0.9785735165982956
12.4,128.181692,37.93617,7834.5337848,4.039,58.844,182.25,0.9785735165982956
12.4166,128.18169,37.936142,7838.179497600001,4.066,58.982,182.27,0.9785735165982956
12.4333,128.181689,37.936114,7841.8297824,4.095,59.121,182.29,0.9785735165982956
12.45,128.181688,37.936086,7845.4846392,4.125,59.26,182.311,0.9785735165982956
12.4666,128.181686,37.936058,7849.1443728,4.156,59.399,182.333,0.9785735165982956
12.4833,128.181685,37.93603,7852.808373600001,4.188,59.539,182.355,0.9785735165982956
12.5,128.181684,37.936003,7856.476946400001,4.222,59.678,182.377,0.9785735165982956
12.5166,128.181682,37.935975,7860.1500912,4.256,59.818,182.399,0.9785735165982956
12.5333,128.181681,37.935948,7863.827808,4.291,59.958,182.422,0.9785735165982956
12.55,128.181679,37.93592,7867.510096800001,4.327,60.098,182.446,0.9785735165982956
12.5666,128.181678,37.935893,7871.1969576,4.364,60.238,182.469,0.9785735165982956
12.5833,128.181677,37.935866,7874.8880856000005,4.401,60.379,182.493,0.9785735165982956
12.6,128.181675,37.935838,7878.5834808,4.44,60.519,182.518,0.9785735165982956
12.6166,128.181674,37.935811,7882.2852768,4.478,60.66,182.542,0.9785735165982956
12.6333,128.181672,37.935784,7885.9913400000005,4.515,60.801,182.567,0.9785735165982956
12.65,128.181671,37.935757,7889.7025848,4.553,60.941,182.591,0.9785735165982956
12.6666,128.18167,37.935731,7893.418401600001,4.591,61.081,182.616,0.9785735165982956
12.6833,128.181668,37.935704,7897.1394,4.628,61.222,182.641,0.9785735165982956
12.7,128.181667,37.935677,7900.8652752,4.665,61.362,182.667,0.9785735165982956
12.7166,128.181665,37.935651,7904.5960272,4.703,61.502,182.692,0.9785735165982956
12.7333,128.181664,37.935624,7908.331656000001,4.74,61.643,182.718,0.9785735165982956
12.75,128.181662,37.935598,7912.0721616,4.777,61.783,182.744,0.9785735165982956
12.7666,128.181661,37.935571,7915.8172392,4.814,61.924,182.771,0.9785735165982956
12.7833,128.181659,37.935545,7919.5671936,4.851,62.064,182.798,0.9785735165982956
12.8,128.181658,37.935519,7923.322024800001,4.888,62.205,182.825,0.9785735165982956
12.8166,128.181657,37.935493,7927.081428,4.926,62.346,182.853,0.9785735165982956
12.8333,128.181655,37.935467,7930.845708,4.963,62.486,182.881,0.9785735165982956
12.85,128.181654,37.935441,7934.614560000001,5.0,62.627,182.909,0.9785735165982956
12.8666,128.181652,37.935415,7938.387984000001,5.038,62.768,182.938,0.9785735165982956
12.8833,128.181651,37.93539,7942.1662848,5.075,62.91,182.967,0.9785735165982956
12.9,128.181649,37.935364,7945.9491576,5.113,63.051,182.996,0.9785735165982956
12.9166,128.181648,37.935338,7949.7366024,5.151,63.192,183.026,0.9785735165982956
12.9333,128.181646,37.935313,7953.5283144,5.189,63.334,183.056,0.9785735165982956
12.95,128.181645,37.935288,7957.3249032,5.227,63.476,183.087,0.9785735165982956
12.9666,128.181643,37.935262,7961.126064,5.265,63.618,183.118,0.9785735165982956
12.9833,128.181642,37.935237,7964.931492000001,5.303,63.76,183.149,0.9785735165982956
13.0,128.18164,37.935212,7968.741492000001,5.341,63.902,183.181,0.9785735165982956
13.0166,128.181638,37.935187,7972.556064,5.38,64.044,183.213,0.9785735165982956
13.0333,128.181637,37.935162,7976.375208,5.419,64.186,183.246,0.9785735165982956
13.0499,128.181635,37.935137,7980.1983144000005,5.458,64.329,183.279,0.9785735165982956
13.0666,128.181634,37.935113,7984.026297600001,5.497,64.472,183.312,0.9785735165982956
13.0833,128.181632,37.935088,7987.8582432,5.536,64.615,183.346,0.9785735165982956
13.1,128.181631,37.935063,7991.694760800001,5.575,64.758,183.381,0.9785735165982956
13.1166,128.181629,37.935039,7995.535545600001,5.615,64.902,183.416,0.9785735165982956
13.1333,128.181628,37.935014,7999.380597600001,5.655,65.046,183.451,0.9785735165982956
13.15,128.181626,37.93499,8003.2299168,5.695,65.19,183.487,0.9785735165982956
13.1666,128.181624,37.934966,8007.0835032,5.736,65.335,183.524,0.9785735165982956
13.1833,128.181623,37.934942,8010.941356800001,5.777,65.48,183.561,0.9785735165982956
13.2,128.181621,37.934918,8014.8031728000005,5.818,65.625,183.599,0.9785735165982956
13.2166,128.18162,37.934894,8018.669560800001,5.859,65.771,183.637,0.9785735165982956
13.2333,128.181618,37.93487,8022.539911200001,5.901,65.916,183.676,0.9785735165982956
13.25,128.181617,37.934846,8026.414224000001,5.942,66.063,183.715,0.9785735165982956
13.2666,128.181615,37.934823,8030.292804000001,5.985,66.209,183.755,0.9785735165982956
13.2833,128.181613,37.934799,8034.1753464,6.027,66.356,183.795,0.9785735165982956
13.3,128.181612,37.934776,8038.062156000001,6.07,66.503,183.836,0.9785735165982956
13.3166,128.18161,37.934752,8041.952928000001,6.113,66.65,183.878,0.9785735165982956
13.3333,128.181608,37.934729,8045.8476624,6.156,66.798,183.92,0.9785735165982956
13.35,128.181607,37.934706,8049.7463592,6.2,66.946,183.963,0.9785735165982956
13.3666,128.181605,37.934683,8053.6490184,6.244,67.094,184.006,0.9785735165982956
