Time,Longitude,Latitude,Altitude,Roll (deg),Pitch (deg),Yaw (deg),Health
0.0,128.181881,37.968463,7002.830292000001,0.0,-0.003,179.999,1.0
0.0166,128.181881,37.968418,7002.8116992000005,0.0,-0.012,180.0,1.0
0.0333,128.181881,37.968374,7002.7912776,0.087,-0.026,180.011,1.0
0.05,128.181881,37.968329,7002.7690272,0.258,-0.042,180.034,1.0
0.0666,128.181881,37.968284,7002.744033600001,0.516,-0.061,180.064,1.0
0.0833,128.181881,37.968239,7002.716601600001,0.864,-0.082,180.097,1.0
0.1,128.181881,37.968194,7002.6861216,1.3,-0.103,180.132,1.0
0.1166,128.181881,37.968149,7002.6522888,1.823,-0.126,180.167,1.0
0.1333,128.181881,37.968104,7002.6144936,2.432,-0.15,180.201,1.0
0.15,128.181881,37.968059,7002.572736,3.121,-0.175,180.234,1.0
0.1666,128.181881,37.968014,7002.526406400001,3.889,-0.201,180.266,1.0
0.1833,128.181881,37.967969,7002.4764192,4.732,-0.228,180.297,1.0
0.2,128.181881,37.967924,7002.4221648,5.646,-0.257,180.326,1.0
0.2166,128.181881,37.967878,7002.363948,6.629,-0.286,180.354,1.0
0.2333,128.181881,37.967833,7002.302073600001,7.677,-0.316,180.381,1.0
0.25,128.181881,37.967788,7002.2359320000005,8.789,-0.348,180.406,1.0
0.2666,128.181881,37.967743,7002.166132800001,9.961,-0.381,180.431,1.0
0.2833,128.181881,37.967698,7002.0923712,11.19,-0.415,180.453,1.0
0.3,128.181881,37.967653,7002.014952,12.475,-0.45,180.475,1.0
0.3166,128.181881,37.967608,7001.9335704000005,13.813,-0.487,180.494,1.0
0.3333,128.181881,37.967563,7001.8482264,15.201,-0.525,180.513,1.0
0.35,128.181881,37.967517,7001.7595296,16.639,-0.564,180.53,1.0
0.3666,128.181881,37.967472,7001.666870400001,18.123,-0.604,180.545,1.0
0.3833,128.181881,37.967427,7001.5708584,19.653,-0.643,180.559,1.0
0.4,128.181881,37.967382,7001.4711888,21.225,-0.677,180.574,1.0
0.4166,128.181881,37.967337,7001.3681664,22.839,-0.703,180.591,1.0
0.4333,128.181881,37.967291,7001.2617912000005,24.494,-0.72,180.612,1.0
0.45,128.181881,37.967246,7001.1520632,26.186,-0.725,180.636,1.0
0.4666,128.181881,37.967201,7001.039592000001,27.916,-0.719,180.666,1.0
0.4833,128.181881,37.967156,7000.9240728,29.681,-0.701,180.703,1.0
0.5,128.181881,37.96711,7000.8055056,31.48,-0.672,180.746,1.0
0.5166,128.181881,37.967065,7000.6845,33.312,-0.633,180.796,1.0
0.5333,128.181881,37.96702,7000.560751200001,35.174,-0.584,180.854,1.0
0.55,128.181881,37.966974,7000.434868800001,37.067,-0.528,180.92,1.0
0.5666,128.181881,37.966929,7000.306548,38.988,-0.465,180.994,1.0
0.5833,128.181881,37.966884,7000.1760936,40.938,-0.396,181.076,1.0
0.6,128.181881,37.966838,7000.0438104,42.913,-0.323,181.166,1.0
0.6166,128.181882,37.966793,6999.9100032,44.915,-0.247,181.265,1.0
0.6333,128.181882,37.966748,6999.7740624,46.942,-0.169,181.371,1.0
0.65,128.181882,37.966702,6999.6369024,48.993,-0.092,181.485,1.0
0.6666,128.181881,37.966657,6999.4979136,51.069,-0.015,181.605,1.0
0.6833,128.181881,37.966612,6999.3577056,53.168,0.059,181.733,1.0
0.7,128.181881,37.966566,6999.216583200001,55.291,0.131,181.866,1.0
0.7166,128.181881,37.966521,6999.0739368,57.436,0.199,182.004,1.0
0.7333,128.181881,37.966475,6998.9300712,59.605,0.262,182.147,1.0
0.75,128.181881,37.96643,6998.785291200001,61.795,0.318,182.294,1.0
0.7666,128.181881,37.966384,6998.639292000001,64.001,0.368,182.442,1.0
0.7833,128.181881,37.966339,6998.492683200001,66.221,0.41,182.589,1.0
0.8,128.181881,37.966293,6998.3445504,68.453,0.443,182.732,1.0
0.8166,128.18188,37.966248,6998.195808,70.697,0.466,182.869,1.0
0.8333,128.18188,37.966202,6998.0455416,72.953,0.478,182.997,1.0
0.85,128.18188,37.966157,6997.894056000001,75.225,0.479,183.113,1.0
0.8666,128.181879,37.966111,6997.7410464,77.516,0.469,183.217,1.0
0.8833,128.181879,37.966066,6997.5865128000005,79.833,0.448,183.305,1.0
0.9,128.181878,37.96602,6997.4301504000005,82.176,0.418,183.376,1.0
0.9166,128.181878,37.965975,6997.2719592,84.547,0.38,183.429,1.0
0.9333,128.181878,37.965929,6997.1119392,86.946,0.334,183.46,1.0
0.95,128.181877,37.965884,6996.9497856,89.375,0.284,183.468,1.0
0.9666,128.181877,37.965838,6996.7854984,91.834,0.23,183.451,1.0
0.9833,128.181876,37.965792,6996.6190776,94.323,0.175,183.408,1.0
1.0,128.181875,37.965747,6996.4502184,96.845,0.121,183.337,1.0
1.0166,128.181875,37.965701,6996.2792256,99.4,0.069,183.244,1.0
1.0333,128.181874,37.965656,6996.1057944,101.989,0.021,183.138,1.0
1.05,128.181874,37.96561,6995.929924800001,104.613,-0.023,183.025,1.0
1.0666,128.181873,37.965564,6995.7519216,107.273,-0.065,182.91,1.0
1.0833,128.181872,37.965519,6995.5711752,109.969,-0.103,182.796,1.0
1.1,128.181872,37.965473,6995.3879904000005,112.692,-0.139,182.686,1.0
1.1166,128.181871,37.965427,6995.2023672000005,115.433,-0.17,182.581,1.0
1.1333,128.18187,37.965382,6995.014000800001,118.182,-0.199,182.483,1.0
1.15,128.18187,37.965336,6994.823196,120.934,-0.224,182.392,1.0
1.1666,128.181869,37.96529,6994.6299528,123.687,-0.247,182.307,1.0
1.1833,128.181868,37.965244,6994.4342712,126.439,-0.268,182.229,1.0
1.2,128.181867,37.965199,6994.2367608,129.192,-0.289,182.157,1.0
1.2166,128.181867,37.965153,6994.0371168,131.948,-0.31,182.091,1.0
1.2333,128.181866,37.965107,6993.8359488,134.709,-0.331,182.029,1.0
1.25,128.181865,37.965061,6993.632952000001,137.48,-0.354,181.971,1.0
1.2666,128.181864,37.965016,6993.429040800001,140.265,-0.378,181.917,1.0
1.2833,128.181864,37.96497,6993.224215200001,143.068,-0.402,181.865,1.0
1.3,128.181863,37.964924,6993.018170400001,145.891,-0.428,181.816,1.0
1.3166,128.181862,37.964878,6992.8118208,148.738,-0.455,181.769,1.0
1.3333,128.181862,37.964832,6992.6048616,151.611,-0.483,181.724,1.0
1.35,128.181861,37.964787,6992.3979024,154.51,-0.512,181.681,1.0
1.3666,128.18186,37.964741,6992.190638400001,157.436,-0.541,181.638,1.0
1.3833,128.18186,37.964695,6991.983374400001,160.388,-0.571,181.597,1.0
1.4,128.181859,37.964649,6991.776110400001,163.365,-0.6,181.557,1.0
1.4166,128.181858,37.964603,6991.5688464,166.364,-0.63,181.518,1.0
1.4333,128.181858,37.964557,6991.361582400001,169.384,-0.66,181.481,1.0
1.45,128.181857,37.964511,6991.154928000001,172.423,-0.689,181.443,1.0
1.4666,128.181856,37.964465,6990.9479688,175.476,-0.718,181.407,1.0
1.4833,128.181856,37.964419,6990.7413144,178.54,-0.746,181.372,1.0
1.5,128.181855,37.964373,6990.53466,-178.388,-0.773,181.337,1.0
1.5166,128.181854,37.964327,6990.3280056,-175.312,-0.799,181.303,1.0
1.5333,128.181854,37.964281,6990.1213512,-172.235,-0.824,181.27,1.0
1.55,128.181853,37.964235,6989.9146968000005,-169.159,-0.848,181.238,1.0
1.5666,128.181852,37.964189,6989.707737600001,-166.085,-0.871,181.206,1.0
1.5833,128.181851,37.964143,6989.500778400001,-163.016,-0.892,181.175,1.0
1.6,128.181851,37.964097,6989.2935144,-159.953,-0.912,181.144,1.0
1.6166,128.18185,37.964051,6989.085945600001,-156.896,-0.93,181.114,1.0
1.6333,128.181849,37.964005,6988.877767200001,-153.847,-0.946,181.085,1.0
1.65,128.181848,37.963959,6988.6692840000005,-150.807,-0.961,181.057,1.0
1.6666,128.181848,37.963913,6988.460191200001,-147.775,-0.973,181.03,1.0
1.6833,128.181847,37.963867,6988.250488799999,-144.753,-0.984,181.004,1.0
1.7,128.181846,37.963821,6988.0401768,-141.741,-0.993,180.98,1.0
1.7166,128.181845,37.963774,6987.8286456000005,-138.739,-1.0,180.957,1.0
1.7333,128.181844,37.963728,6987.6165048,-135.748,-1.005,180.936,1.0
1.75,128.181843,37.963682,6987.4031448000005,-132.766,-1.008,180.916,1.0
1.7666,128.181843,37.963636,6987.1882608000005,-129.796,-1.009,180.899,1.0
1.7833,128.181842,37.96359,6986.9721576,-126.837,-1.009,180.885,1.0
1.8,128.181841,37.963544,6986.7545304,-123.892,-1.008,180.872,1.0
1.8166,128.18184,37.963497,6986.5353792000005,-120.961,-1.005,180.863,1.0
1.8333,128.181839,37.963451,6986.3143992000005,-118.044,-1.002,180.856,1.0
1.85,128.181838,37.963405,6986.0915904,-115.142,-0.997,180.852,1.0
1.8666,128.181837,37.963359,6985.866648,-112.256,-0.992,180.852,1.0
1.8833,128.181836,37.963312,6985.6398768,-109.386,-0.987,180.854,1.0
1.9,128.181835,37.963266,6985.4106672,-106.533,-0.982,180.859,1.0
1.9166,128.181834,37.96322,6985.179324000001,-103.697,-0.976,180.867,1.0
1.9333,128.181832,37.963173,6984.945542400001,-100.879,-0.971,180.878,1.0
1.95,128.181831,37.963127,6984.7093224,-98.078,-0.967,180.893,1.0
1.9666,128.18183,37.963081,6984.4709688,-95.294,-0.963,180.91,1.0
1.9833,128.181829,37.963034,6984.2295672,-92.528,-0.96,180.93,1.0
2.0,128.181828,37.962988,6983.986032000001,-89.779,-0.958,180.952,1.0
2.0166,128.181827,37.962942,6983.7394488,-87.047,-0.958,180.978,1.0
2.0333,128.181826,37.962895,6983.490732,-84.332,-0.959,181.006,1.0
2.05,128.181825,37.962849,6983.2389672,-81.633,-0.962,181.036,1.0
2.0666,128.181823,37.962802,6982.984764000001,-78.948,-0.967,181.069,1.0
2.0833,128.181822,37.962756,6982.7275128,-76.279,-0.973,181.104,1.0
2.1,128.181821,37.962709,6982.467823200001,-73.623,-0.982,181.142,1.0
2.1166,128.18182,37.962663,6982.2053904,-70.982,-0.993,181.181,1.0
2.1333,128.181819,37.962617,6981.9402144000005,-68.353,-1.007,181.222,1.0
2.15,128.181817,37.96257,6981.6722952,-65.736,-1.023,181.264,1.0
2.1666,128.181816,37.962524,6981.401937600001,-63.131,-1.041,181.308,1.0
2.1833,128.181815,37.962477,6981.1288368000005,-60.536,-1.063,181.352,1.0
2.2,128.181814,37.962431,6980.852992800001,-57.952,-1.087,181.398,1.0
2.2166,128.181813,37.962384,6980.5744056,-55.378,-1.114,181.444,1.0
2.2333,128.181811,37.962337,6980.29338,-52.813,-1.144,181.491,1.0
2.25,128.18181,37.962291,6980.009611200001,-50.257,-1.177,181.538,1.0
2.2666,128.181809,37.962244,6979.7230992,-47.708,-1.213,181.585,1.0
2.2833,128.181808,37.962198,6979.4344536,-45.166,-1.251,181.632,1.0
2.3,128.181806,37.962151,6979.1430648000005,-42.632,-1.293,181.678,1.0
2.3166,128.181805,37.962105,6978.8489328000005,-40.103,-1.337,181.724,1.0
2.3333,128.181804,37.962058,6978.5526672000005,-37.58,-1.384,181.768,1.0
2.35,128.181803,37.962011,6978.2536584,-35.061,-1.434,181.812,1.0
2.3666,128.181802,37.961965,6977.9522112,-32.547,-1.486,181.855,1.0
2.3833,128.1818,37.961918,6977.6486304,-30.037,-1.541,181.896,1.0
2.4,128.181799,37.961871,6977.342306400001,-27.53,-1.599,181.936,1.0
2.4166,128.181798,37.961825,6977.033544,-25.026,-1.658,181.974,1.0
2.4333,128.181797,37.961778,6976.722648,-22.524,-1.72,182.011,1.0
2.45,128.181795,37.961731,6976.4093136,-20.023,-1.784,182.045,1.0
2.4666,128.181794,37.961684,6976.093236000001,-17.524,-1.85,182.077,1.0
2.4833,128.181793,37.961638,6975.7753296,-15.025,-1.917,182.107,1.0
2.5,128.181792,37.961591,6975.45468,-12.527,-1.987,182.135,1.0
2.5166,128.18179,37.961544,6975.1318968000005,-10.028,-2.057,182.16,1.0
2.5333,128.181789,37.961497,6974.806370400001,-7.528,-2.129,182.183,1.0
2.55,128.181788,37.961451,6974.478710400001,-5.027,-2.202,182.203,1.0
2.5666,128.181787,37.961404,6974.1489168,-2.524,-2.275,182.22,1.0
2.5833,128.181785,37.961357,6973.81638,-0.019,-2.35,182.235,1.0
2.6,128.181784,37.96131,6973.481404800001,2.488,-2.425,182.248,1.0
2.6166,128.181783,37.961263,6973.144296,4.999,-2.5,182.257,1.0
2.6333,128.181782,37.961217,6972.804444,7.514,-2.575,182.264,1.0
2.65,128.18178,37.96117,6972.4624584,10.032,-2.651,182.268,1.0
2.6666,128.181779,37.961123,6972.1177296,12.555,-2.727,182.27,1.0
2.6833,128.181778,37.961076,6971.7708672,15.082,-2.796,182.27,1.0
2.7,128.181777,37.961029,6971.4218712,17.615,-2.852,182.271,1.0
2.7166,128.181775,37.960982,6971.0707416000005,20.152,-2.889,182.277,1.0
2.7333,128.181774,37.960935,6970.717478400001,22.695,-2.904,182.289,1.0
2.75,128.181773,37.960888,6970.3623864,25.242,-2.896,182.31,1.0
2.7666,128.181771,37.960841,6970.005770400001,27.795,-2.866,182.342,1.0
2.7833,128.18177,37.960794,6969.6476304,30.353,-2.814,182.386,1.0
2.8,128.181769,37.960747,6969.288576,32.909,-2.744,182.444,1.0
2.8166,128.181768,37.9607,6968.928912,35.452,-2.657,182.515,1.0
2.8333,128.181766,37.960653,6968.569248,37.97,-2.556,182.599,1.0
2.85,128.181765,37.960606,6968.2098888,40.453,-2.443,182.698,1.0
2.8666,128.181763,37.960559,6967.8511392,42.892,-2.321,182.81,1.0
2.8833,128.181762,37.960512,6967.4929992,45.281,-2.194,182.936,1.0
2.9,128.18176,37.960465,6967.136078400001,47.616,-2.063,183.075,1.0
2.9166,128.181759,37.960418,6966.7797672,49.894,-1.931,183.227,1.0
2.9333,128.181757,37.960371,6966.42498,52.114,-1.8,183.39,1.0
2.95,128.181756,37.960324,6966.0711071999995,54.278,-1.673,183.563,1.0
2.9666,128.181754,37.960277,6965.7181488,56.387,-1.552,183.745,1.0
2.9833,128.181752,37.96023,6965.3667144,58.446,-1.438,183.935,1.0
3.0,128.181751,37.960183,6965.0158896,60.458,-1.331,184.13,1.0
3.0166,128.181749,37.960136,6964.665979200001,62.429,-1.235,184.329,1.0
3.0333,128.181747,37.960089,6964.3166784000005,64.364,-1.149,184.529,1.0
3.05,128.181745,37.960042,6963.967682400001,66.269,-1.077,184.725,1.0
3.0666,128.181743,37.959995,6963.619296000001,68.152,-1.019,184.912,1.0
3.0833,128.181741,37.959948,6963.270909600001,70.018,-0.976,185.086,1.0
3.1,128.181739,37.959901,6962.922523200001,71.875,-0.949,185.245,1.0
3.1166,128.181736,37.959854,6962.573832,73.729,-0.937,185.387,1.0
3.1333,128.181734,37.959806,6962.2245312000005,75.589,-0.938,185.512,1.0
3.15,128.181732,37.959759,6961.8746208,77.463,-0.953,185.617,1.0
3.1666,128.181729,37.959712,6961.5234912000005,79.358,-0.979,185.703,1.0
3.1833,128.181727,37.959665,6961.1711424000005,81.285,-1.015,185.769,1.0
3.2,128.181724,37.959618,6960.817574400001,83.254,-1.06,185.815,1.0
3.2166,128.181722,37.959571,6960.4621776,85.275,-1.114,185.839,1.0
3.2333,128.181719,37.959524,6960.104952000001,87.347,-1.173,185.841,1.0
3.25,128.181717,37.959476,6959.745897600001,89.472,-1.237,185.819,1.0
3.2666,128.181714,37.959429,6959.385014400001,91.65,-1.302,185.773,1.0
3.2833,128.181711,37.959382,6959.021692800001,93.881,-1.367,185.699,1.0
3.3,128.181709,37.959335,6958.656237600001,96.165,-1.429,185.598,1.0
3.3166,128.181706,37.959288,6958.2874296,98.302,-1.475,185.476,1.0
3.3333,128.181703,37.95924,6957.916183200001,100.296,-1.505,185.345,1.0
3.35,128.1817,37.959193,6957.5424984,102.148,-1.525,185.214,1.0
3.3666,128.181697,37.959146,6957.1672896,104.062,-1.551,185.082,1.0
3.3833,128.181694,37.959099,6956.789947200001,106.034,-1.586,184.954,1.0
3.4,128.181692,37.959051,6956.4101664,108.068,-1.626,184.831,1.0
3.4166,128.181689,37.959004,6956.028556800001,110.17,-1.667,184.714,1.0
3.4333,128.181686,37.958957,6955.644204,112.331,-1.709,184.606,1.0
3.45,128.181683,37.95891,6955.257412800001,114.538,-1.748,184.507,1.0
3.4666,128.18168,37.958862,6954.868183200001,116.781,-1.785,184.417,1.0
3.4833,128.181677,37.958815,6954.476515200001,119.05,-1.82,184.336,1.0
3.5,128.181674,37.958768,6954.0824088,121.339,-1.853,184.262,1.0
3.5166,128.181671,37.95872,6953.686168800001,123.647,-1.886,184.195,1.0
3.5333,128.181668,37.958673,6953.2877952,125.971,-1.918,184.135,1.0
3.55,128.181665,37.958625,6952.887592800001,128.315,-1.951,184.08,1.0
3.5666,128.181662,37.958578,6952.4858664,130.681,-1.986,184.03,1.0
3.5833,128.181659,37.958531,6952.082311200001,133.071,-2.021,183.983,1.0
3.6,128.181656,37.958483,6951.677841600001,135.491,-2.058,183.939,1.0
3.6166,128.181653,37.958436,6951.271847999999,137.943,-2.097,183.898,1.0
3.6333,128.18165,37.958388,6950.8652448,140.43,-2.137,183.859,1.0
3.65,128.181647,37.958341,6950.457727200001,142.956,-2.179,183.822,1.0
3.6666,128.181644,37.958293,6950.0496,145.521,-2.221,183.786,1.0
3.6833,128.181641,37.958246,6949.641168,148.129,-2.265,183.751,1.0
3.7,128.181638,37.958198,6949.2324312,150.78,-2.309,183.717,1.0
3.7166,128.181635,37.958151,6948.8236944,153.473,-2.354,183.684,1.0
3.7333,128.181632,37.958103,6948.4149576,156.21,-2.399,183.651,1.0
3.75,128.181629,37.958056,6948.0065256,158.987,-2.444,183.619,1.0
3.7666,128.181626,37.958008,6947.5977888,161.801,-2.489,183.586,1.0
3.7833,128.181624,37.957961,6947.189661599999,164.651,-2.533,183.554,1.0
3.8,128.181621,37.957913,6946.7815344,167.533,-2.576,183.522,1.0
3.8166,128.181618,37.957865,6946.373712,170.445,-2.619,183.49,1.0
3.8333,128.181615,37.957818,6945.9664992,173.383,-2.66,183.458,1.0
3.85,128.181612,37.95777,6945.5592864,176.346,-2.7,183.425,1.0
3.8666,128.181609,37.957723,6945.152378400001,179.331,-2.739,183.393,1.0
3.8833,128.181606,37.957675,6944.7457752,-177.664,-2.776,183.36,1.0
3.9,128.181603,37.957627,6944.3394768,-174.643,-2.811,183.327,1.0
3.9166,128.1816,37.957579,6943.9331784000005,-171.608,-2.844,183.294,1.0
3.9333,128.181597,37.957532,6943.52688,-168.563,-2.875,183.261,1.0
3.95,128.181594,37.957484,6943.1205816,-165.511,-2.904,183.229,1.0
3.9666,128.181591,37.957436,6942.713978400001,-162.457,-2.931,183.197,1.0
3.9833,128.181588,37.957389,6942.3073752,-159.403,-2.956,183.166,1.0
4.0,128.181585,37.957341,6941.9001624,-156.35,-2.978,183.135,1.0
4.0166,128.181582,37.957293,6941.49234,-153.302,-2.997,183.106,1.0
4.0333,128.181579,37.957245,6941.0842128,-150.259,-3.014,183.077,1.0
4.05,128.181576,37.957197,6940.6751712,-147.222,-3.029,183.049,1.0
4.0666,128.181573,37.957149,6940.265215200001,-144.193,-3.041,183.023,1.0
4.0833,128.18157,37.957102,6939.8546496,-141.171,-3.051,182.998,1.0
4.1,128.181567,37.957054,6939.4428648,-138.158,-3.058,182.975,1.0
4.1166,128.181564,37.957006,6939.029860800001,-135.154,-3.063,182.954,1.0
4.1333,128.181561,37.956958,6938.615637600001,-132.158,-3.065,182.935,1.0
4.15,128.181557,37.95691,6938.1998904,-129.171,-3.066,182.918,1.0
4.1666,128.181554,37.956862,6937.782924000001,-126.194,-3.064,182.904,1.0
4.1833,128.181551,37.956814,6937.364128800001,-123.227,-3.061,182.893,1.0
4.2,128.181548,37.956766,6936.9438096,-120.271,-3.057,182.884,1.0
4.2166,128.181545,37.956718,6936.521356800001,-117.327,-3.051,182.878,1.0
4.2333,128.181541,37.95667,6936.096770400001,-114.395,-3.044,182.876,1.0
4.25,128.181538,37.956622,6935.670355200001,-111.477,-3.037,182.877,1.0
4.2666,128.181535,37.956574,6935.241806400001,-108.572,-3.029,182.881,1.0
4.2833,128.181531,37.956526,6934.810819200001,-105.681,-3.021,182.888,1.0
4.3,128.181528,37.956478,6934.3776984,-102.804,-3.013,182.898,1.0
4.3166,128.181525,37.95643,6933.9418344,-99.942,-3.005,182.912,1.0
4.3333,128.181521,37.956382,6933.5038368000005,-97.095,-2.998,182.929,1.0
4.35,128.181518,37.956334,6933.063096000001,-94.263,-2.992,182.949,1.0
4.3666,128.181515,37.956286,6932.6199168,-91.445,-2.987,182.971,1.0
4.3833,128.181511,37.956238,6932.1739944,-88.641,-2.983,182.997,1.0
4.4,128.181508,37.95619,6931.725328800001,-85.851,-2.98,183.026,1.0
4.4166,128.181504,37.956141,6931.2742248,-83.075,-2.979,183.057,1.0
4.4333,128.181501,37.956093,6930.8203776,-80.311,-2.979,183.091,1.0
4.45,128.181498,37.956045,6930.363787200001,-77.559,-2.982,183.127,1.0
4.4666,128.181494,37.955997,6929.9044536,-74.819,-2.987,183.166,1.0
4.4833,128.181491,37.955949,6929.4426816000005,-72.09,-2.994,183.207,1.0
4.5,128.181487,37.9559,6928.9781664,-69.372,-3.003,183.25,1.0
4.5166,128.181484,37.955852,6928.510908,-66.663,-3.016,183.294,1.0
4.5333,128.18148,37.955804,6928.0409064000005,-63.963,-3.031,183.34,1.0
4.55,128.181477,37.955756,6927.5681616,-61.272,-3.048,183.387,1.0
4.5666,128.181474,37.955707,6927.092978400001,-58.589,-3.069,183.435,1.0
4.5833,128.18147,37.955659,6926.615356800001,-55.913,-3.093,183.484,1.0
4.6,128.181467,37.955611,6926.134992,-53.244,-3.12,183.533,1.0
4.6166,128.181463,37.955563,6925.651884000001,-50.581,-3.149,183.583,1.0
4.6333,128.18146,37.955514,6925.166337600001,-47.924,-3.182,183.633,1.0
4.65,128.181456,37.955466,6924.6783528,-45.271,-3.218,183.682,1.0
4.6666,128.181453,37.955418,6924.1879296,-42.623,-3.257,183.732,1.0
4.6833,128.181449,37.955369,6923.6947632,-39.979,-3.299,183.781,1.0
4.7,128.181446,37.955321,6923.1994632000005,-37.338,-3.344,183.829,1.0
4.7166,128.181442,37.955272,6922.701420000001,-34.7,-3.391,183.876,1.0
4.7333,128.181439,37.955224,6922.2012432,-32.064,-3.442,183.921,1.0
4.75,128.181435,37.955175,6921.6983232,-29.429,-3.495,183.966,1.0
4.7666,128.181432,37.955127,6921.1932696,-26.796,-3.551,184.009,1.0
4.7833,128.181428,37.955079,6920.685777600001,-24.162,-3.609,184.05,1.0
4.8,128.181425,37.95503,6920.176152000001,-21.529,-3.67,184.089,1.0
4.8166,128.181421,37.954982,6919.663783200001,-18.896,-3.733,184.126,1.0
4.8333,128.181418,37.954933,6919.1492808,-16.261,-3.798,184.161,1.0
4.85,128.181414,37.954885,6918.6326448,-13.625,-3.865,184.194,1.0
4.8666,128.181411,37.954836,6918.113265600001,-10.987,-3.933,184.224,1.0
4.8833,128.181407,37.954787,6917.5917528,-8.347,-4.004,184.251,1.0
4.9,128.181404,37.954739,6917.068106400001,-5.703,-4.075,184.276,1.0
4.9166,128.1814,37.95469,6916.5417168,-3.057,-4.148,184.298,1.0
4.9333,128.181397,37.954642,6916.0131936,-0.406,-4.222,184.318,1.0
4.95,128.181393,37.954593,6915.482232,2.247,-4.297,184.334,1.0
4.9666,128.18139,37.954545,6914.949136800001,4.907,-4.373,184.348,1.0
4.9833,128.181386,37.954496,6914.4136032,7.571,-4.445,184.359,1.0
5.0,128.181383,37.954447,6913.875936,10.24,-4.505,184.369,1.0
5.0166,128.181379,37.954399,6913.33644,12.915,-4.545,184.381,1.0
5.0333,128.181376,37.95435,6912.7951152000005,15.595,-4.56,184.396,1.0
5.05,128.181372,37.954301,6912.2519616,18.281,-4.55,184.418,1.0
5.0666,128.181369,37.954253,6911.707284000001,20.971,-4.513,184.449,1.0
5.0833,128.181365,37.954204,6911.162606400001,23.656,-4.453,184.49,1.0
5.1,128.181361,37.954155,6910.617319200001,26.32,-4.369,184.542,1.0
5.1166,128.181358,37.954106,6910.072641600001,28.95,-4.265,184.605,1.0
5.1333,128.181354,37.954058,6909.5288784,31.533,-4.144,184.682,1.0
5.15,128.181351,37.954009,6908.9866392,34.058,-4.008,184.772,1.0
5.1666,128.181347,37.95396,6908.4462288,36.518,-3.86,184.876,1.0
5.1833,128.181343,37.953911,6907.907647200001,38.905,-3.704,184.995,1.0
5.2,128.181339,37.953863,6907.3711992,41.215,-3.542,185.128,1.0
5.2166,128.181336,37.953814,6906.8371896,43.448,-3.378,185.275,1.0
5.2333,128.181332,37.953765,6906.305618400001,45.603,-3.213,185.435,1.0
5.25,128.181328,37.953716,6905.7767904,47.683,-3.05,185.608,1.0
5.2666,128.181324,37.953667,6905.250096000001,49.689,-2.891,185.791,1.0
5.2833,128.18132,37.953619,6904.7264496,51.628,-2.737,185.984,1.0
5.3,128.181316,37.95357,6904.204936800001,53.503,-2.59,186.185,1.0
5.3166,128.181311,37.953521,6903.6858624,55.321,-2.452,186.393,1.0
5.3333,128.181307,37.953472,6903.1692264,57.086,-2.323,186.606,1.0
5.35,128.181303,37.953423,6902.654724000001,58.806,-2.204,186.823,1.0
5.3666,128.181298,37.953374,6902.142355200001,60.486,-2.095,187.042,1.0
5.3833,128.181294,37.953326,6901.632120000001,62.132,-1.997,187.261,1.0
5.4,128.181289,37.953277,6901.1234088,63.749,-1.913,187.476,1.0
5.4166,128.181285,37.953228,6900.6162216,65.342,-1.844,187.682,1.0
5.4333,128.18128,37.953179,6900.110558400001,66.918,-1.789,187.875,1.0
5.45,128.181275,37.95313,6899.605809600001,68.481,-1.751,188.054,1.0
5.4666,128.18127,37.953081,6899.10228,70.035,-1.726,188.218,1.0
5.4833,128.181265,37.953032,6898.59936,71.584,-1.715,188.367,1.0
5.5,128.18126,37.952984,6898.0970496,73.133,-1.716,188.501,1.0
5.5166,128.181255,37.952935,6897.595044,74.684,-1.728,188.619,1.0
5.5333,128.181249,37.952886,6897.0927336,76.243,-1.751,188.722,1.0
5.55,128.181244,37.952837,6896.5904232,77.814,-1.782,188.809,1.0
5.5666,128.181239,37.952788,6896.087808,79.401,-1.822,188.882,1.0
5.5833,128.181233,37.952739,6895.584278400001,81.012,-1.869,188.938,1.0
5.6,128.181228,37.95269,6895.0798343999995,82.654,-1.923,188.979,1.0
5.6166,128.181222,37.952641,6894.5741712,84.339,-1.983,189.003,1.0
5.6333,128.181216,37.952592,6894.066984000001,86.081,-2.049,189.009,1.0
5.65,128.18121,37.952544,6893.557968,87.896,-2.121,188.995,1.0
5.6666,128.181205,37.952495,6893.047428000001,89.785,-2.197,188.96,1.0
5.6833,128.181199,37.952446,6892.5350592,91.747,-2.274,188.902,1.0
5.7,128.181193,37.952397,6892.020252000001,93.784,-2.349,188.817,1.0
5.7166,128.181187,37.952348,6891.503311200001,95.895,-2.422,188.701,1.0
5.7333,128.181181,37.952299,6890.9830176000005,97.859,-2.473,188.566,1.0
5.75,128.181175,37.95225,6890.4605904,99.682,-2.505,188.425,1.0
5.7666,128.181169,37.952201,6889.935420000001,101.362,-2.525,188.285,1.0
5.7833,128.181163,37.952152,6889.408116,102.895,-2.538,188.152,1.0
5.8,128.181156,37.952103,6888.878068800001,104.285,-2.549,188.028,1.0
5.8166,128.18115,37.952054,6888.345278400001,105.534,-2.559,187.913,1.0
5.8333,128.181144,37.952005,6887.811573600001,106.866,-2.585,187.803,1.0
5.85,128.181138,37.951956,6887.2757352,108.285,-2.627,187.698,1.0
5.8666,128.181131,37.951907,6886.7374584,109.798,-2.678,187.597,1.0
5.8833,128.181125,37.951858,6886.197048,111.398,-2.732,187.504,1.0
5.9,128.181119,37.951809,6885.6541992,113.074,-2.784,187.418,1.0
5.9166,128.181112,37.95176,6885.108912,114.812,-2.833,187.34,1.0
5.9333,128.181106,37.951711,6884.5614912,116.601,-2.88,187.27,1.0
5.95,128.1811,37.951662,6884.011632000001,118.431,-2.923,187.207,1.0
5.9666,128.181093,37.951613,6883.4596392,120.295,-2.966,187.15,1.0
5.9833,128.181087,37.951563,6882.9058176,122.191,-3.008,187.098,1.0
6.0,128.181081,37.951514,6882.3498624,124.117,-3.05,187.051,1.0
6.0166,128.181074,37.951465,6881.792078400001,126.076,-3.092,187.006,1.0
6.0333,128.181068,37.951416,6881.232770400001,128.07,-3.136,186.965,1.0
6.05,128.181061,37.951367,6880.671938400001,130.101,-3.181,186.926,1.0
6.0666,128.181055,37.951318,6880.1098872,132.173,-3.227,186.889,1.0
6.0833,128.181049,37.951269,6879.5466168,134.29,-3.275,186.854,1.0
6.1,128.181042,37.951219,6878.982432000001,136.452,-3.323,186.82,1.0
6.1166,128.181036,37.95117,6878.4176376000005,138.663,-3.373,186.788,1.0
6.1333,128.181029,37.951121,6877.852233600001,140.925,-3.423,186.756,1.0
6.15,128.181023,37.951072,6877.286220000001,143.239,-3.474,186.725,1.0
6.1666,128.181017,37.951022,6876.7199016,145.606,-3.526,186.694,1.0
6.1833,128.18101,37.950973,6876.153583200001,148.028,-3.578,186.664,1.0
6.2,128.181004,37.950924,6875.5875696,150.504,-3.63,186.633,1.0
6.2166,128.180998,37.950875,6875.021556000001,153.035,-3.681,186.603,1.0
6.2333,128.180991,37.950825,6874.455847200001,155.621,-3.733,186.572,1.0
6.25,128.180985,37.950776,6873.890748,158.26,-3.784,186.54,1.0
6.2666,128.180979,37.950726,6873.3259536000005,160.952,-3.834,186.508,1.0
6.2833,128.180972,37.950677,6872.762073600001,163.692,-3.882,186.475,1.0
6.3,128.180966,37.950628,6872.1984984,166.478,-3.93,186.442,1.0
6.3166,128.18096,37.950578,6871.635532800001,169.307,-3.976,186.409,1.0
6.3333,128.180954,37.950529,6871.0731768000005,172.174,-4.021,186.375,1.0
6.35,128.180947,37.950479,6870.5117352,175.077,-4.063,186.341,1.0
6.3666,128.180941,37.95043,6869.9505984,178.013,-4.104,186.307,1.0
6.3833,128.180935,37.95038,6869.3900712,-179.021,-4.142,186.272,1.0
6.4,128.180928,37.950331,6868.8301536,-176.029,-4.179,186.237,1.0
6.4166,128.180922,37.950281,6868.2708456,-173.014,-4.212,186.202,1.0
6.4333,128.180916,37.950232,6867.711842400001,-169.978,-4.244,186.167,1.0
6.45,128.180909,37.950182,6867.1528392,-166.925,-4.272,186.132,1.0
6.4666,128.180903,37.950133,6866.5941408,-163.86,-4.298,186.098,1.0
6.4833,128.180897,37.950083,6866.035442400001,-160.789,-4.322,186.064,1.0
6.5,128.18089,37.950034,6865.4764392,-157.714,-4.343,186.031,1.0
6.5166,128.180884,37.949984,6864.9171312,-154.639,-4.361,186.0,1.0
6.5333,128.180877,37.949934,6864.3572136,-151.567,-4.376,185.97,1.0
6.55,128.180871,37.949885,6863.796991200001,-148.498,-4.389,185.94,1.0
6.5666,128.180864,37.949835,6863.2358544,-145.436,-4.399,185.913,1.0
6.5833,128.180858,37.949785,6862.6738032,-142.379,-4.406,185.887,1.0
6.6,128.180851,37.949736,6862.111142400001,-139.33,-4.41,185.862,1.0
6.6166,128.180845,37.949686,6861.5472624,-136.289,-4.412,185.84,1.0
6.6333,128.180838,37.949636,6860.9821632,-133.255,-4.412,185.82,1.0
6.65,128.180832,37.949586,6860.4158448,-130.23,-4.409,185.802,1.0
6.6666,128.180825,37.949537,6859.8480024,-127.213,-4.405,185.787,1.0
6.6833,128.180819,37.949487,6859.278636,-124.204,-4.398,185.774,1.0
6.7,128.180812,37.949437,6858.707440800001,-121.202,-4.39,185.765,1.0
6.7166,128.180805,37.949387,6858.1347216,-118.209,-4.38,185.758,1.0
6.7333,128.180799,37.949338,6857.560173600001,-115.223,-4.369,185.755,1.0
6.75,128.180792,37.949288,6856.983492,-112.245,-4.357,185.755,1.0
6.7666,128.180785,37.949238,6856.4046768,-109.276,-4.344,185.759,1.0
6.7833,128.180779,37.949188,6855.823728,-106.316,-4.332,185.766,1.0
6.8,128.180772,37.949138,6855.240645600001,-103.367,-4.319,185.776,1.0
6.8166,128.180765,37.949088,6854.6551248000005,-100.427,-4.306,185.79,1.0
6.8333,128.180758,37.949038,6854.0671656,-97.499,-4.294,185.807,1.0
6.85,128.180752,37.948989,6853.476768,-94.581,-4.283,185.828,1.0
6.8666,128.180745,37.948939,6852.883627200001,-91.673,-4.273,185.852,1.0
6.8833,128.180738,37.948889,6852.2883528,-88.776,-4.264,185.879,1.0
6.9,128.180731,37.948839,6851.6903352,-85.889,-4.257,185.909,1.0
6.9166,128.180724,37.948789,6851.089574400001,-83.011,-4.251,185.943,1.0
6.9333,128.180718,37.948739,6850.4863752,-80.142,-4.247,185.979,1.0
6.95,128.180711,37.948689,6849.880432800001,-77.281,-4.246,186.018,1.0
6.9666,128.180704,37.948639,6849.272052000001,-74.429,-4.246,186.06,1.0
6.9833,128.180697,37.948589,6848.660928,-71.584,-4.25,186.103,1.0
7.0,128.18069,37.948539,6848.0473656,-68.745,-4.256,186.149,1.0
7.0166,128.180683,37.948489,6847.431060000001,-65.914,-4.264,186.197,1.0
7.0333,128.180676,37.948439,6846.812316,-63.087,-4.276,186.246,1.0
7.05,128.18067,37.948389,6846.1908288,-60.267,-4.291,186.297,1.0
7.0666,128.180663,37.948338,6845.567208,-57.451,-4.309,186.349,1.0
7.0833,128.180656,37.948288,6844.940844,-54.639,-4.331,186.401,1.0
7.1,128.180649,37.948238,6844.3120416,-51.83,-4.356,186.455,1.0
7.1166,128.180642,37.948188,6843.680800800001,-49.025,-4.384,186.508,1.0
7.1333,128.180635,37.948138,6843.0471216,-46.222,-4.415,186.562,1.0
7.15,128.180628,37.948088,6842.4110040000005,-43.422,-4.45,186.615,1.0
7.1666,128.180621,37.948038,6841.7727528,-40.622,-4.488,186.668,1.0
7.1833,128.180615,37.947987,6841.132063200001,-37.824,-4.53,186.721,1.0
7.2,128.180608,37.947937,6840.48924,-35.026,-4.574,186.772,1.0
7.2166,128.180601,37.947887,6839.8439784,-32.228,-4.622,186.823,1.0
7.2333,128.180594,37.947837,6839.1965832000005,-29.429,-4.673,186.872,1.0
7.25,128.180587,37.947787,6838.5467496,-26.629,-4.727,186.919,1.0
7.2666,128.18058,37.947736,6837.8950872000005,-23.828,-4.784,186.964,1.0
7.2833,128.180573,37.947686,6837.2409864,-21.024,-4.844,187.008,1.0
7.3,128.180566,37.947636,6836.584752000001,-18.218,-4.906,187.049,1.0
7.3166,128.180559,37.947585,6835.9260792000005,-15.409,-4.97,187.088,1.0
7.3333,128.180552,37.947535,6835.2655776,-12.597,-5.037,187.125,1.0
7.35,128.180545,37.947485,6834.602637600001,-9.78,-5.105,187.159,1.0
7.3666,128.180538,37.947434,6833.937868800001,-6.959,-5.176,187.19,1.0
7.3833,128.180532,37.947384,6833.2706616,-4.134,-5.248,187.218,1.0
7.4,128.180525,37.947334,6832.6013207999995,-1.303,-5.322,187.243,1.0
7.4166,128.180518,37.947283,6831.9298464,1.533,-5.397,187.265,1.0
7.4333,128.180511,37.947233,6831.256238400001,4.375,-5.466,187.284,1.0
7.45,128.180504,37.947183,6830.581106400001,7.223,-5.52,187.302,1.0
7.4666,128.180497,37.947132,6829.9041456,10.078,-5.55,187.321,1.0
7.4833,128.18049,37.947082,6829.225660800001,12.939,-5.552,187.343,1.0
7.5,128.180483,37.947031,6828.5468712,15.794,-5.524,187.371,1.0
7.5166,128.180476,37.946981,6827.868081600001,18.627,-5.469,187.405,1.0
7.5333,128.180469,37.94693,6827.189901600001,21.425,-5.386,187.448,1.0
7.55,128.180462,37.94688,6826.5129408,24.173,-5.28,187.502,1.0
7.5666,128.180455,37.946829,6825.8378088,26.857,-5.152,187.567,1.0
7.5833,128.180448,37.946779,6825.1651152,29.467,-5.007,187.646,1.0
7.6,128.180441,37.946728,6824.494860000001,31.993,-4.848,187.739,1.0
7.6166,128.180433,37.946678,6823.8276528,34.429,-4.678,187.847,1.0
7.6333,128.180426,37.946627,6823.1634936,36.774,-4.499,187.971,1.0
7.65,128.180419,37.946577,6822.502992000001,39.025,-4.316,188.11,1.0
7.6666,128.180412,37.946526,6821.8458432,41.184,-4.131,188.263,1.0
7.6833,128.180404,37.946476,6821.192352000001,43.253,-3.946,188.43,1.0
7.7,128.180397,37.946425,6820.5428232,45.238,-3.764,188.608,1.0
7.7166,128.180389,37.946375,6819.896647200001,47.144,-3.586,188.798,1.0
7.7333,128.180382,37.946324,6819.254128800001,48.977,-3.414,188.997,1.0
7.75,128.180374,37.946274,6818.6152680000005,50.742,-3.25,189.205,1.0
7.7666,128.180366,37.946223,6817.980064800001,52.448,-3.094,189.418,1.0
7.7833,128.180359,37.946173,6817.348214400001,54.1,-2.948,189.637,1.0
7.8,128.180351,37.946122,6816.7197168,55.705,-2.812,189.859,1.0
7.8166,128.180343,37.946071,6816.094572,57.268,-2.685,190.085,1.0
7.8333,128.180335,37.946021,6815.47278,58.796,-2.57,190.311,1.0
7.85,128.180326,37.94597,6814.8537312,60.293,-2.464,190.539,1.0
7.8666,128.180318,37.94592,6814.2374256,61.764,-2.371,190.764,1.0
7.8833,128.18031,37.945869,6813.624168,63.214,-2.29,190.983,1.0
7.9,128.180301,37.945819,6813.013044,64.647,-2.225,191.191,1.0
7.9166,128.180293,37.945768,6812.4043584,66.065,-2.174,191.386,1.0
7.9333,128.180284,37.945718,6811.797501600001,67.473,-2.137,191.567,1.0
7.95,128.180275,37.945667,6811.192778400001,68.873,-2.113,191.735,1.0
7.9666,128.180266,37.945617,6810.589579200001,70.266,-2.101,191.889,1.0
7.9833,128.180257,37.945566,6809.9879040000005,71.654,-2.1,192.03,1.0
8.0,128.180248,37.945516,6809.3874479999995,73.041,-2.109,192.158,1.0
8.0166,128.180239,37.945465,6808.787906400001,74.426,-2.126,192.273,1.0
8.0333,128.18023,37.945415,6808.188974400001,75.811,-2.152,192.376,1.0
8.05,128.18022,37.945364,6807.590652000001,77.199,-2.184,192.467,1.0
8.0666,128.180211,37.945314,6806.9923296,78.593,-2.224,192.545,1.0
8.0833,128.180201,37.945263,6806.3940072,79.996,-2.269,192.611,1.0
8.1,128.180191,37.945213,6805.79538,81.413,-2.32,192.663,1.0
8.1166,128.180181,37.945162,6805.1961432,82.851,-2.377,192.703,1.0
8.1333,128.180172,37.945112,6804.5959920000005,84.319,-2.438,192.727,1.0
8.15,128.180162,37.945061,6803.9946216,85.83,-2.505,192.737,1.0
8.1666,128.180152,37.945011,6803.392032000001,87.404,-2.577,192.729,1.0
8.1833,128.180141,37.94496,6802.7879184,89.066,-2.655,192.703,1.0
8.2,128.180131,37.94491,6802.181976,90.817,-2.737,192.656,1.0
8.2166,128.180121,37.944859,6801.5742048,92.658,-2.819,192.584,1.0
8.2333,128.180111,37.944809,6800.964300000001,94.59,-2.899,192.482,1.0
8.25,128.1801,37.944758,6800.351042400001,96.372,-2.954,192.354,1.0
8.2666,128.18009,37.944708,6799.735651200001,98.01,-2.985,192.214,1.0
8.2833,128.18008,37.944657,6799.1181264,99.499,-3.002,192.073,1.0
8.3,128.180069,37.944607,6798.4981632,100.832,-3.012,191.937,1.0
8.3166,128.180059,37.944556,6797.8763712,102.011,-3.021,191.811,1.0
8.3333,128.180048,37.944506,6797.251836,103.041,-3.03,191.694,1.0
8.35,128.180037,37.944455,6796.6251672,103.927,-3.041,191.588,1.0
8.3666,128.180027,37.944405,6795.9957552000005,104.677,-3.052,191.492,1.0
8.3833,128.180016,37.944354,6795.365733600001,105.54,-3.085,191.399,1.0
8.4,128.180005,37.944304,6794.733273600001,106.515,-3.138,191.307,1.0
8.4166,128.179995,37.944253,6794.0983752,107.615,-3.201,191.219,1.0
8.4333,128.179984,37.944203,6793.4613432,108.832,-3.267,191.136,1.0
8.45,128.179973,37.944152,6792.8218728,110.15,-3.329,191.06,1.0
8.4666,128.179962,37.944102,6792.180268800001,111.548,-3.385,190.991,1.0
8.4833,128.179951,37.944051,6791.5362264000005,113.005,-3.436,190.93,1.0
8.5,128.17994,37.944,6790.8897456,114.505,-3.483,190.875,1.0
8.5166,128.179929,37.94395,6790.2411312,116.039,-3.527,190.826,1.0
8.5333,128.179919,37.943899,6789.5900784000005,117.6,-3.57,190.781,1.0
8.55,128.179908,37.943849,6788.9371968000005,119.187,-3.613,190.739,1.0
8.5666,128.179897,37.943798,6788.2824864,120.803,-3.657,190.701,1.0
8.5833,128.179886,37.943747,6787.625947200001,122.451,-3.703,190.664,1.0
8.6,128.179875,37.943697,6786.967579200001,124.133,-3.749,190.63,1.0
8.6166,128.179864,37.943646,6786.3076872,125.854,-3.797,190.598,1.0
8.6333,128.179853,37.943596,6785.6462712,127.618,-3.847,190.567,1.0
8.65,128.179842,37.943545,6784.983636,129.426,-3.897,190.538,1.0
8.6666,128.179831,37.943494,6784.3200864,131.283,-3.948,190.51,1.0
8.6833,128.17982,37.943443,6783.6553176,133.191,-4.0,190.483,1.0
8.7,128.179809,37.943393,6782.9899392,135.15,-4.053,190.456,1.0
8.7166,128.179798,37.943342,6782.3236464,137.164,-4.106,190.43,1.0
8.7333,128.179787,37.943291,6781.6570488,139.234,-4.16,190.405,1.0
8.75,128.179776,37.943241,6780.989841600001,141.361,-4.215,190.379,1.0
8.7666,128.179765,37.94319,6780.3226343999995,143.547,-4.269,190.353,1.0
8.7833,128.179755,37.943139,6779.6554272,145.792,-4.323,190.327,1.0
8.8,128.179744,37.943088,6778.988220000001,148.098,-4.378,190.3,1.0
8.8166,128.179733,37.943037,6778.3213176,150.464,-4.432,190.272,1.0
8.8333,128.179722,37.942987,6777.65472,152.892,-4.485,190.244,1.0
8.85,128.179711,37.942936,6776.988732000001,155.38,-4.538,190.214,1.0
8.8666,128.1797,37.942885,6776.323658400001,157.928,-4.589,190.184,1.0
8.8833,128.179689,37.942834,6775.6591944,160.536,-4.64,190.152,1.0
8.9,128.179679,37.942783,6774.9956448,163.202,-4.689,190.12,1.0
8.9166,128.179668,37.942732,6774.3327048,165.924,-4.737,190.087,1.0
8.9333,128.179657,37.942681,6773.670984000001,168.698,-4.782,190.053,1.0
8.95,128.179646,37.94263,6773.0098728,171.52,-4.826,190.018,1.0
8.9666,128.179635,37.942579,6772.349676,174.387,-4.867,189.983,1.0
8.9833,128.179624,37.942528,6771.6903936,177.295,-4.906,189.948,1.0
9.0,128.179613,37.942477,6771.0317208,-179.758,-4.943,189.912,1.0
9.0166,128.179603,37.942426,6770.3739624,-176.778,-4.977,189.876,1.0
9.0333,128.179592,37.942375,6769.717118400001,-173.767,-5.008,189.84,1.0
9.05,128.179581,37.942324,6769.060579200001,-170.728,-5.037,189.804,1.0
9.0666,128.17957,37.942273,6768.4046496,-167.666,-5.062,189.768,1.0
9.0833,128.179559,37.942222,6767.7487200000005,-164.586,-5.085,189.732,1.0
9.1,128.179548,37.942171,6767.0927904,-161.495,-5.105,189.698,1.0
9.1166,128.179537,37.942119,6766.4368608,-158.397,-5.122,189.665,1.0
9.1333,128.179526,37.942068,6765.7806264,-155.297,-5.136,189.634,1.0
9.15,128.179515,37.942017,6765.123782400001,-152.198,-5.147,189.603,1.0
9.1666,128.179504,37.941966,6764.466633600001,-149.102,-5.155,189.574,1.0
9.1833,128.179493,37.941915,6763.808875199999,-146.011,-5.161,189.547,1.0
9.2,128.179482,37.941864,6763.1502024,-142.926,-5.164,189.521,1.0
9.2166,128.179471,37.941812,6762.4903104,-139.847,-5.164,189.497,1.0
9.2333,128.17946,37.941761,6761.8298088,-136.776,-5.162,189.476,1.0
9.25,128.179449,37.94171,6761.168088,-133.711,-5.157,189.456,1.0
9.2666,128.179438,37.941659,6760.504843199999,-130.653,-5.149,189.439,1.0
9.2833,128.179427,37.941607,6759.840379200001,-127.603,-5.14,189.425,1.0
9.3,128.179416,37.941556,6759.1740864,-124.56,-5.129,189.413,1.0
9.3166,128.179404,37.941505,6758.5065744,-121.524,-5.116,189.405,1.0
9.3333,128.179393,37.941454,6757.8369288,-118.494,-5.102,189.399,1.0
9.35,128.179382,37.941402,6757.1657592,-115.472,-5.086,189.397,1.0
9.3666,128.179371,37.941351,6756.492456000001,-112.455,-5.07,189.398,1.0
9.3833,128.17936,37.9413,6755.817324000001,-109.445,-5.053,189.403,1.0
9.4,128.179348,37.941248,6755.1397536,-106.441,-5.035,189.412,1.0
9.4166,128.179337,37.941197,6754.4600496,-103.442,-5.017,189.424,1.0
9.4333,128.179326,37.941145,6753.778212,-100.449,-5.0,189.439,1.0
9.45,128.179314,37.941094,6753.093936,-97.461,-4.983,189.458,1.0
9.4666,128.179303,37.941043,6752.4075264,-94.477,-4.967,189.481,1.0
9.4833,128.179292,37.940991,6751.718373600001,-91.498,-4.952,189.507,1.0
9.5,128.179281,37.94094,6751.0267824,-88.524,-4.938,189.537,1.0
9.5166,128.179269,37.940888,6750.3330576,-85.553,-4.926,189.57,1.0
9.5333,128.179258,37.940837,6749.6365896,-82.587,-4.916,189.606,1.0
9.55,128.179246,37.940785,6748.937683200001,-79.624,-4.907,189.645,1.0
9.5666,128.179235,37.940734,6748.236033600001,-76.664,-4.902,189.688,1.0
9.5833,128.179224,37.940682,6747.5322504000005,-73.707,-4.899,189.733,1.0
9.6,128.179212,37.940631,6746.825724,-70.753,-4.898,189.78,1.0
9.6166,128.179201,37.940579,6746.117064,-67.801,-4.901,189.83,1.0
9.6333,128.179189,37.940528,6745.405660800001,-64.851,-4.907,189.881,1.0
9.65,128.179178,37.940476,6744.6918192,-61.902,-4.916,189.935,1.0
9.6666,128.179167,37.940425,6743.975844,-58.954,-4.928,189.99,1.0
9.6833,128.179155,37.940373,6743.2574304,-56.006,-4.944,190.046,1.0
9.7,128.179144,37.940321,6742.5365784000005,-53.059,-4.964,190.102,1.0
9.7166,128.179132,37.94027,6741.813592800001,-50.112,-4.988,190.16,1.0
9.7333,128.179121,37.940218,6741.088168800001,-47.163,-5.015,190.218,1.0
9.75,128.179109,37.940166,6740.360611200001,-44.214,-5.046,190.275,1.0
9.7666,128.179098,37.940115,6739.6309200000005,-41.263,-5.08,190.333,1.0
9.7833,128.179087,37.940063,6738.8990952,-38.31,-5.118,190.39,1.0
9.8,128.179075,37.940011,6738.164832,-35.354,-5.16,190.446,1.0
9.8166,128.179064,37.93996,6737.42874,-32.396,-5.206,190.501,1.0
9.8333,128.179052,37.939908,6736.6905144,-29.434,-5.255,190.555,1.0
9.85,128.179041,37.939856,6735.950460000001,-26.468,-5.307,190.607,1.0
9.8666,128.179029,37.939805,6735.208272,-23.498,-5.362,190.657,1.0
9.8833,128.179018,37.939753,6734.463950400001,-20.524,-5.421,190.705,1.0
9.9,128.179006,37.939701,6733.7174952000005,-17.545,-5.483,190.75,1.0
9.9166,128.178995,37.939649,6732.969516,-14.56,-5.547,190.793,1.0
9.9333,128.178983,37.939597,6732.2190984,-11.57,-5.614,190.834,1.0
9.95,128.178972,37.939546,6731.4668520000005,-8.573,-5.683,190.871,1.0
9.9666,128.17896,37.939494,6730.712472,-5.571,-5.754,190.906,1.0
9.9833,128.178949,37.939442,6729.956263200001,-2.561,-5.827,190.937,1.0
10.0,128.178937,37.93939,6729.1979208,0.454,-5.902,190.965,1.0
10.0166,128.178926,37.939338,6728.4383592,3.475,-5.968,190.989,1.0
10.0333,128.178914,37.939286,6727.677578400001,6.495,-6.014,191.012,1.0
10.05,128.178903,37.939234,6726.916188000001,9.507,-6.032,191.035,1.0
10.0666,128.178891,37.939183,6726.154492800001,12.498,-6.018,191.059,1.0
10.0833,128.17888,37.939131,6725.393712,15.457,-5.971,191.089,1.0
10.1,128.178868,37.939079,6724.6341504,18.368,-5.895,191.126,1.0
10.1166,128.178857,37.939027,6723.8764176,21.216,-5.791,191.172,1.0
10.1333,128.178845,37.938975,6723.1211232000005,23.989,-5.664,191.23,1.0
10.15,128.178833,37.938923,6722.368572,26.676,-5.517,191.301,1.0
10.1666,128.178822,37.938871,6721.6193736000005,29.267,-5.354,191.386,1.0
10.1833,128.17881,37.938819,6720.873832800001,31.758,-5.177,191.487,1.0
10.2,128.178798,37.938767,6720.1322544,34.146,-4.992,191.604,1.0
10.2166,128.178786,37.938715,6719.394638400001,36.43,-4.8,191.736,1.0
10.2333,128.178774,37.938663,6718.6615944000005,38.613,-4.605,191.884,1.0
10.25,128.178762,37.938611,6717.9328176,40.699,-4.41,192.046,1.0
10.2666,128.17875,37.938559,6717.208308,42.692,-4.216,192.22,1.0
10.2833,128.178738,37.938507,6716.4886752,44.6,-4.027,192.406,1.0
10.3,128.178726,37.938455,6715.7733096,46.429,-3.843,192.602,1.0
10.3166,128.178714,37.938403,6715.062211200001,48.187,-3.666,192.807,1.0
10.3333,128.178702,37.938351,6714.3556848,49.881,-3.497,193.018,1.0
10.35,128.178689,37.938299,6713.6537304,51.517,-3.337,193.236,1.0
10.3666,128.178677,37.938247,6712.955738400001,53.103,-3.187,193.457,1.0
10.3833,128.178664,37.938195,6712.2620136000005,54.645,-3.047,193.683,1.0
10.4,128.178651,37.938144,6711.5722512,56.148,-2.917,193.91,1.0
10.4166,128.178639,37.938092,6710.886451200001,57.619,-2.797,194.139,1.0
10.4333,128.178626,37.93804,6710.2046136,59.061,-2.687,194.368,1.0
10.45,128.178613,37.937988,6709.526433600001,60.478,-2.586,194.598,1.0
10.4666,128.1786,37.937936,6708.851911200001,61.875,-2.498,194.823,1.0
10.4833,128.178586,37.937884,6708.1804368,63.254,-2.423,195.04,1.0
10.5,128.178573,37.937832,6707.512315200001,64.619,-2.363,195.246,1.0
10.5166,128.17856,37.93778,6706.846936800001,65.972,-2.316,195.438,1.0
10.5333,128.178546,37.937728,6706.184301600001,67.316,-2.283,195.616,1.0
10.55,128.178532,37.937676,6705.524409600001,68.651,-2.262,195.782,1.0
10.5666,128.178518,37.937625,6704.866346400001,69.979,-2.252,195.935,1.0
10.5833,128.178505,37.937573,6704.2107216,71.301,-2.251,196.076,1.0
10.6,128.17849,37.937521,6703.5569256,72.617,-2.259,196.205,1.0
10.6166,128.178476,37.937469,6702.9043488,73.929,-2.275,196.324,1.0
10.6333,128.178462,37.937417,6702.253296000001,75.238,-2.298,196.431,1.0
10.65,128.178448,37.937366,6701.6031576,76.543,-2.328,196.528,1.0
10.6666,128.178433,37.937314,6700.953933600001,77.848,-2.363,196.614,1.0
10.6833,128.178418,37.937262,6700.305014400001,79.155,-2.405,196.688,1.0
10.7,128.178404,37.93721,6699.6560952,80.468,-2.451,196.751,1.0
10.7166,128.178389,37.937159,6699.0074808,81.791,-2.503,196.802,1.0
10.7333,128.178374,37.937107,6698.358256800001,83.131,-2.559,196.84,1.0
10.75,128.178359,37.937055,6697.708423200001,84.497,-2.62,196.865,1.0
10.7666,128.178344,37.937004,6697.0576752,85.903,-2.686,196.875,1.0
10.7833,128.178328,37.936952,6696.405708,87.367,-2.758,196.87,1.0
10.8,128.178313,37.9369,6695.7525216,88.916,-2.835,196.847,1.0
10.8166,128.178298,37.936849,6695.097811200001,90.566,-2.918,196.803,1.0
10.8333,128.178282,37.936797,6694.4409672,92.316,-3.002,196.735,1.0
10.85,128.178267,37.936745,6693.7822944,94.168,-3.085,196.638,1.0
10.8666,128.178251,37.936693,6693.1202688,95.861,-3.138,196.511,1.0
10.8833,128.178236,37.936642,6692.456109600001,97.402,-3.162,196.371,1.0
10.9,128.17822,37.93659,6691.7901216,98.779,-3.169,196.231,1.0
10.9166,128.178204,37.936538,6691.1223048,99.986,-3.172,196.097,1.0
10.9333,128.178189,37.936487,6690.4523544,101.021,-3.174,195.974,1.0
10.95,128.178173,37.936435,6689.7802704000005,101.891,-3.18,195.861,1.0
10.9666,128.178157,37.936383,6689.1063576,102.605,-3.187,195.759,1.0
10.9833,128.178141,37.936332,6688.429701600001,103.17,-3.196,195.666,1.0
11.0,128.178125,37.93628,6687.7509119999995,103.594,-3.206,195.582,1.0
11.0166,128.178109,37.936228,6687.071208,104.155,-3.241,195.499,1.0
11.0333,128.178093,37.936177,6686.3896752,104.847,-3.302,195.416,1.0
11.05,128.178077,37.936125,6685.7053992,105.684,-3.374,195.334,1.0
11.0666,128.178061,37.936073,6685.0189896,106.678,-3.449,195.257,1.0
11.0833,128.178045,37.936022,6684.3301416,107.802,-3.518,195.187,1.0
11.1,128.178029,37.93597,6683.6394648000005,109.026,-3.578,195.123,1.0
11.1166,128.178012,37.935918,6682.9460448,110.317,-3.63,195.067,1.0
11.1333,128.177996,37.935867,6682.2501864000005,111.65,-3.674,195.018,1.0
11.15,128.17798,37.935815,6681.5521944,113.01,-3.716,194.974,1.0
11.1666,128.177964,37.935763,6680.852068800001,114.388,-3.756,194.934,1.0
11.1833,128.177947,37.935712,6680.1498096000005,115.783,-3.797,194.897,1.0
11.2,128.177931,37.93566,6679.4457216,117.198,-3.839,194.862,1.0
11.2166,128.177915,37.935608,6678.739500000001,118.638,-3.883,194.83,1.0
11.2333,128.177898,37.935556,6678.0317544,120.108,-3.929,194.799,1.0
11.25,128.177882,37.935505,6677.32218,121.614,-3.976,194.77,1.0
11.2666,128.177866,37.935453,6676.6110816,123.159,-4.025,194.743,1.0
11.2833,128.177849,37.935401,6675.898459200001,124.747,-4.074,194.717,1.0
11.3,128.177833,37.935349,6675.1846176,126.38,-4.125,194.693,1.0
11.3166,128.177817,37.935298,6674.469556800001,128.061,-4.176,194.669,1.0
11.3333,128.1778,37.935246,6673.7532768,129.792,-4.228,194.647,1.0
11.35,128.177784,37.935194,6673.036082400001,131.574,-4.28,194.625,1.0
11.3666,128.177768,37.935142,6672.318278400001,133.411,-4.334,194.603,1.0
11.3833,128.177751,37.93509,6671.599560000001,135.303,-4.387,194.581,1.0
11.4,128.177735,37.935038,6670.880232,137.253,-4.441,194.559,1.0
11.4166,128.177719,37.934986,6670.160904,139.262,-4.496,194.537,1.0
11.4333,128.177703,37.934935,6669.4409663999995,141.332,-4.551,194.514,1.0
11.45,128.177686,37.934883,6668.7213336,143.463,-4.605,194.491,1.0
11.4666,128.17767,37.934831,6668.0017008,145.657,-4.66,194.467,1.0
11.4833,128.177654,37.934779,6667.2823728,147.916,-4.714,194.441,1.0
11.5,128.177637,37.934727,6666.5633496,150.238,-4.767,194.415,1.0
11.5166,128.177621,37.934675,6665.844936,152.625,-4.82,194.388,1.0
11.5333,128.177605,37.934623,6665.1271320000005,155.077,-4.872,194.359,1.0
11.55,128.177589,37.934571,6664.410242400001,157.593,-4.923,194.329,1.0
11.5666,128.177573,37.934519,6663.6939624,160.173,-4.972,194.298,1.0
11.5833,128.177556,37.934467,6662.9789016,162.815,-5.02,194.266,1.0
11.6,128.17754,37.934415,6662.265060000001,165.518,-5.066,194.232,1.0
11.6166,128.177524,37.934362,6661.551828000001,168.28,-5.111,194.198,1.0
11.6333,128.177508,37.93431,6660.840120000001,171.098,-5.152,194.162,1.0
11.65,128.177491,37.934258,6660.1293264000005,173.968,-5.192,194.126,1.0
11.6666,128.177475,37.934206,6659.419447200001,176.887,-5.229,194.089,1.0
11.6833,128.177459,37.934154,6658.710787200001,179.851,-5.263,194.052,1.0
11.7,128.177443,37.934102,6658.003041600001,-177.142,-5.294,194.015,1.0
11.7166,128.177426,37.934049,6657.295905600001,-174.101,-5.322,193.977,1.0
11.7333,128.17741,37.933997,6656.589379200001,-171.03,-5.347,193.94,1.0
11.75,128.177394,37.933945,6655.8831576,-167.934,-5.369,193.904,1.0
11.7666,128.177378,37.933893,6655.177240800001,-164.821,-5.388,193.868,1.0
11.7833,128.177361,37.93384,6654.471324000001,-161.696,-5.405,193.834,1.0
11.8,128.177345,37.933788,6653.7654072,-158.566,-5.418,193.801,1.0
11.8166,128.177329,37.933736,6653.0588808,-155.435,-5.428,193.77,1.0
11.8333,128.177312,37.933684,6652.3520496,-152.305,-5.435,193.739,1.0
11.85,128.177296,37.933631,6651.6449136,-149.179,-5.439,193.711,1.0
11.8666,128.177279,37.933579,6650.9365584,-146.058,-5.44,193.684,1.0
11.8833,128.177263,37.933526,6650.2278983999995,-142.942,-5.439,193.658,1.0
11.9,128.177247,37.933474,6649.518019200001,-139.833,-5.434,193.635,1.0
11.9166,128.17723,37.933422,6648.8069208,-136.731,-5.427,193.613,1.0
11.9333,128.177214,37.933369,6648.094908,-133.635,-5.418,193.594,1.0
11.95,128.177197,37.933317,6647.3813712,-130.545,-5.406,193.578,1.0
11.9666,128.177181,37.933265,6646.666615200001,-127.462,-5.392,193.565,1.0
11.9833,128.177164,37.933212,6645.9500304,-124.385,-5.377,193.554,1.0
12.0,128.177148,37.93316,6645.2322264,-121.314,-5.359,193.547,1.0
12.0166,128.177131,37.933107,6644.5122888,-118.249,-5.341,193.542,1.0
12.0333,128.177114,37.933055,6643.790522400001,-115.19,-5.321,193.542,1.0
12.05,128.177098,37.933002,6643.0669272000005,-112.136,-5.3,193.544,1.0
12.0666,128.177081,37.93295,6642.3415032,-109.088,-5.279,193.551,1.0
12.0833,128.177065,37.932897,6641.6136408,-106.045,-5.257,193.561,1.0
12.1,128.177048,37.932845,6640.8839496,-103.006,-5.235,193.575,1.0
12.1166,128.177031,37.932792,6640.151820000001,-99.972,-5.214,193.592,1.0
12.1333,128.177015,37.93274,6639.417252000001,-96.941,-5.193,193.613,1.0
12.15,128.176998,37.932687,6638.6805504,-93.913,-5.173,193.638,1.0
12.1666,128.176981,37.932635,6637.9417152000005,-90.887,-5.154,193.666,1.0
12.1833,128.176964,37.932582,6637.200441600001,-87.863,-5.136,193.699,1.0
12.2,128.176948,37.932529,6636.4567296,-84.839,-5.121,193.734,1.0
12.2166,128.176931,37.932477,6635.710579200001,-81.816,-5.107,193.773,1.0
12.2333,128.176914,37.932424,6634.9622952,-78.793,-5.095,193.815,1.0
12.25,128.176897,37.932372,6634.211268,-75.77,-5.086,193.861,1.0
12.2666,128.176881,37.932319,6633.458412,-72.747,-5.08,193.909,1.0
12.2833,128.176864,37.932266,6632.7028128,-69.723,-5.077,193.959,1.0
12.3,128.176847,37.932214,6631.9450799999995,-66.699,-5.077,194.012,1.0
12.3166,128.17683,37.932161,6631.185213600001,-63.674,-5.08,194.066,1.0
12.3333,128.176814,37.932108,6630.4232136,-60.648,-5.087,194.123,1.0
12.35,128.176797,37.932055,6629.6587752,-57.62,-5.098,194.181,1.0
12.3666,128.17678,37.932003,6628.892508,-54.592,-5.113,194.24,1.0
12.3833,128.176763,37.93195,6628.1238023999995,-51.561,-5.131,194.3,1.0
12.4,128.176746,37.931897,6627.353268,-48.529,-5.154,194.36,1.0
12.4166,128.17673,37.931844,6626.5809048,-45.496,-5.18,194.42,1.0
12.4333,128.176713,37.931792,6625.806408,-42.46,-5.211,194.481,1.0
12.45,128.176696,37.931739,6625.0300824000005,-39.423,-5.245,194.541,1.0
12.4666,128.176679,37.931686,6624.251928000001,-36.383,-5.283,194.6,1.0
12.4833,128.176662,37.931633,6623.4719448000005,-33.341,-5.325,194.658,1.0
12.5,128.176645,37.93158,6622.6901328,-30.297,-5.371,194.715,1.0
12.5166,128.176629,37.931527,6621.906796800001,-27.25,-5.42,194.77,1.0
12.5333,128.176612,37.931475,6621.121632,-24.201,-5.473,194.823,1.0
12.55,128.176595,37.931422,6620.3349431999995,-21.15,-5.529,194.874,1.0
12.5666,128.176578,37.931369,6619.5464256,-18.095,-5.589,194.923,1.0
12.5833,128.176561,37.931316,6618.756384000001,-15.038,-5.651,194.969,1.0
12.6,128.176544,37.931263,6617.964818400001,-11.979,-5.716,195.012,1.0
12.6166,128.176528,37.93121,6617.171424000001,-8.916,-5.784,195.053,1.0
12.6333,128.176511,37.931157,6616.376810400001,-5.851,-5.853,195.09,1.0
12.65,128.176494,37.931104,6615.5800632,-2.783,-5.925,195.124,1.0
12.6666,128.176477,37.931051,6614.7820968000005,0.287,-5.999,195.154,1.0
12.6833,128.17646,37.930998,6613.982911200001,3.36,-6.062,195.181,1.0
12.7,128.176443,37.930945,6613.183116,6.429,-6.103,195.206,1.0
12.7166,128.176426,37.930892,6612.3833208,9.485,-6.113,195.231,1.0
12.7333,128.176409,37.930839,6611.5838304,12.517,-6.088,195.259,1.0
12.75,128.176392,37.930786,6610.785864,15.509,-6.03,195.292,1.0
12.7666,128.176375,37.930733,6609.9894216,18.447,-5.942,195.332,1.0
12.7833,128.176358,37.93068,6609.195722400001,21.314,-5.828,195.382,1.0
12.8,128.176341,37.930627,6608.4047664,24.096,-5.691,195.444,1.0
12.8166,128.176324,37.930574,6607.617468,26.784,-5.535,195.519,1.0
12.8333,128.176307,37.930521,6606.834132,29.369,-5.365,195.609,1.0
12.85,128.17629,37.930468,6606.055368,31.847,-5.184,195.715,1.0
12.8666,128.176273,37.930415,6605.2808712,34.217,-4.994,195.837,1.0
12.8833,128.176256,37.930362,6604.5112512000005,36.48,-4.799,195.974,1.0
12.9,128.176238,37.930308,6603.746508,38.639,-4.602,196.126,1.0
12.9166,128.176221,37.930255,6602.9869464,40.7,-4.406,196.291,1.0
12.9333,128.176203,37.930202,6602.2322616,42.669,-4.212,196.47,1.0
12.95,128.176186,37.930149,6601.482453600001,44.554,-4.022,196.659,1.0
12.9666,128.176168,37.930096,6600.738132,46.362,-3.839,196.857,1.0
12.9833,128.176151,37.930043,6599.998687200001,48.1,-3.663,197.064,1.0
13.0,128.176133,37.92999,6599.264119200001,49.777,-3.496,197.277,1.0
13.0166,128.176115,37.929937,6598.534428000001,51.399,-3.337,197.495,1.0
13.0333,128.176097,37.929884,6597.8096136,52.973,-3.188,197.718,1.0
13.0499,128.176079,37.929831,6597.089676,54.506,-3.049,197.944,1.0
13.0666,128.176061,37.929778,6596.374005600001,56.002,-2.92,198.172,1.0
13.0833,128.176042,37.929725,6595.663212,57.466,-2.8,198.401,1.0
13.1,128.176024,37.929672,6594.9566856,58.904,-2.691,198.631,1.0
13.1166,128.176005,37.929619,6594.254731200001,60.317,-2.591,198.861,1.0
13.1333,128.175987,37.929566,6593.5564343999995,61.711,-2.502,199.088,1.0
13.15,128.175968,37.929514,6592.8621,63.088,-2.426,199.306,1.0
13.1666,128.175949,37.929461,6592.1714232,64.451,-2.365,199.512,1.0
13.1833,128.17593,37.929408,6591.4840992,65.802,-2.318,199.705,1.0
13.2,128.175911,37.929355,6590.800128000001,67.143,-2.283,199.884,1.0
13.2166,128.175892,37.929302,6590.1192048,68.476,-2.261,200.05,1.0
13.2333,128.175872,37.929249,6589.4407200000005,69.801,-2.249,200.205,1.0
13.25,128.175853,37.929197,6588.7649784000005,71.12,-2.247,200.347,1.0
13.2666,128.175833,37.929144,6588.091370400001,72.432,-2.253,200.479,1.0
13.2833,128.175814,37.929091,6587.4195912000005,73.74,-2.267,200.6,1.0
13.3,128.175794,37.929038,6586.749640800001,75.043,-2.288,200.711,1.0
13.3166,128.175774,37.928986,6586.0809096,76.343,-2.315,200.811,1.0
13.3333,128.175753,37.928933,6585.413397600001,77.641,-2.348,200.9,1.0
13.35,128.175733,37.928881,6584.7464952,78.942,-2.387,200.977,1.0
13.3666,128.175713,37.928828,6584.0802023999995,80.247,-2.431,201.044,1.0
13.3833,128.175692,37.928775,6583.413909600001,81.563,-2.481,201.098,1.0
13.4,128.175672,37.928723,6582.7476168,82.897,-2.535,201.14,1.0
13.4166,128.175651,37.92867,6582.080714400001,84.258,-2.595,201.168,1.0
13.4333,128.17563,37.928618,6581.4132024,85.66,-2.659,201.182,1.0
13.45,128.175609,37.928565,6580.7447760000005,87.122,-2.729,201.18,1.0
13.4666,128.175588,37.928513,6580.0751304,88.67,-2.806,201.16,1.0
13.4833,128.175567,37.92846,6579.403960800001,90.326,-2.889,201.12,1.0
13.5,128.175546,37.928408,6578.7309624,92.088,-2.974,201.056,1.0
13.5166,128.175525,37.928355,6578.0561352,93.96,-3.057,200.961,1.0
13.5333,128.175504,37.928303,6577.377650400001,95.657,-3.106,200.836,1.0
13.55,128.175483,37.92825,6576.697336800001,97.187,-3.119,200.696,1.0
13.5666,128.175461,37.928198,6576.0154992,98.534,-3.114,200.556,1.0
13.5833,128.17544,37.928145,6575.3318328000005,99.687,-3.106,200.424,1.0
13.6,128.175418,37.928093,6574.646642400001,100.644,-3.102,200.304,1.0
13.6166,128.175397,37.92804,6573.9596232,101.415,-3.102,200.196,1.0
13.6333,128.175375,37.927988,6573.270470400001,102.01,-3.105,200.099,1.0
13.65,128.175354,37.927935,6572.579184000001,102.442,-3.11,200.011,1.0
13.6666,128.175332,37.927883,6571.885459200001,102.719,-3.116,199.931,1.0
13.6833,128.17531,37.927831,6571.1896008,102.854,-3.122,199.858,1.0
13.7,128.175288,37.927778,6570.4931328,103.143,-3.159,199.783,1.0
13.7166,128.175267,37.927726,6569.794836,103.58,-3.226,199.706,1.0
13.7333,128.175245,37.927673,6569.094100800001,104.186,-3.307,199.63,1.0
13.75,128.175223,37.927621,6568.3906224,104.973,-3.388,199.558,1.0
13.7666,128.175201,37.927569,6567.6850104000005,105.942,-3.463,199.491,1.0
13.7833,128.175179,37.927516,6566.977264800001,107.063,-3.529,199.431,1.0
13.8,128.175157,37.927464,6566.2673856,108.285,-3.585,199.378,1.0
13.8166,128.175135,37.927411,6565.555068000001,109.57,-3.632,199.332,1.0
13.8333,128.175113,37.927359,6564.8409216,110.888,-3.672,199.291,1.0
13.85,128.175091,37.927306,6564.1243368000005,112.222,-3.71,199.255,1.0
13.8666,128.175069,37.927254,6563.405923200001,113.567,-3.748,199.222,1.0
13.8833,128.175047,37.927202,6562.685376,114.925,-3.787,199.191,1.0
13.9,128.175024,37.927149,6561.9633048000005,116.299,-3.829,199.162,1.0
13.9166,128.175002,37.927097,6561.239100000001,117.698,-3.873,199.133,1.0
13.9333,128.17498,37.927044,6560.5133712,119.128,-3.918,199.107,1.0
13.95,128.174958,37.926992,6559.7861184,120.594,-3.965,199.082,1.0
13.9666,128.174936,37.926939,6559.057341600001,122.101,-4.013,199.059,1.0
13.9833,128.174914,37.926887,6558.3270408,123.652,-4.062,199.037,1.0
14.0,128.174891,37.926834,6557.5958256,125.248,-4.111,199.016,1.0
14.0166,128.174869,37.926782,6556.863086400001,126.892,-4.162,198.995,1.0
14.0333,128.174847,37.926729,6556.1294328,128.587,-4.213,198.976,1.0
14.05,128.174825,37.926677,6555.3948648000005,130.333,-4.264,198.956,1.0
14.0666,128.174803,37.926624,6554.659687200001,132.134,-4.316,198.937,1.0
14.0833,128.174781,37.926571,6553.9235952,133.992,-4.369,198.918,1.0
14.1,128.174758,37.926519,6553.1871984,135.907,-4.422,198.898,1.0
14.1166,128.174736,37.926466,6552.450496800001,137.883,-4.476,198.877,1.0
14.1333,128.174714,37.926414,6551.7137952,139.921,-4.529,198.856,1.0
14.15,128.174692,37.926361,6550.9767888,142.023,-4.583,198.834,1.0
14.1666,128.17467,37.926308,6550.240087200001,144.189,-4.636,198.811,1.0
14.1833,128.174648,37.926256,6549.5036904,146.42,-4.689,198.787,1.0
14.2,128.174626,37.926203,6548.7675984,148.718,-4.742,198.762,1.0
14.2166,128.174604,37.92615,6548.032115999999,151.083,-4.794,198.735,1.0
14.2333,128.174582,37.926097,6547.297548,153.516,-4.845,198.707,1.0
14.25,128.174559,37.926045,6546.5635896,156.015,-4.895,198.678,1.0
14.2666,128.174537,37.925992,6545.830850400001,158.581,-4.944,198.647,1.0
14.2833,128.174515,37.925939,6545.0990256,161.213,-4.991,198.615,1.0
14.3,128.174493,37.925886,6544.368115200001,163.908,-5.036,198.582,1.0
14.3166,128.174471,37.925833,6543.6387288000005,166.666,-5.079,198.547,1.0
14.3333,128.174449,37.925781,6542.910256800001,169.483,-5.12,198.511,1.0
14.35,128.174427,37.925728,6542.1833088,172.358,-5.158,198.475,1.0
14.3666,128.174405,37.925675,6541.4572751999995,175.285,-5.194,198.437,1.0
14.3833,128.174383,37.925622,6540.732156000001,178.262,-5.227,198.399,1.0
14.4,128.174361,37.925569,6540.008256000001,-178.715,-5.257,198.361,1.0
14.4166,128.174339,37.925516,6539.285270400001,-175.655,-5.283,198.323,1.0
14.4333,128.174316,37.925463,6538.5628944,-172.561,-5.307,198.285,1.0
14.45,128.174294,37.92541,6537.841128000001,-169.44,-5.328,198.247,1.0
14.4666,128.174272,37.925357,6537.1193616,-166.298,-5.345,198.211,1.0
14.4833,128.17425,37.925304,6536.3979,-163.144,-5.359,198.176,1.0
