Time,Longitude,Latitude,Altitude,Roll (deg),Pitch (deg),Yaw (deg),Health
0.0,128.181881,37.968463,7002.830292000001,0.0,-0.003,179.999,1.0
0.0166,128.181881,37.968418,7002.8116992000005,0.0,-0.012,180.0,1.0
0.0333,128.181881,37.968374,7002.7912776,0.087,-0.026,180.011,1.0
0.05,128.181881,37.968329,7002.771160800001,0.084,-0.042,180.011,1.0
0.0666,128.181881,37.968284,7002.7504344,0.0,-0.06,179.995,1.0
0.0833,128.181881,37.968239,7002.7281840000005,0.004,-0.08,179.992,1.0
0.1,128.181881,37.968194,7002.7041048,0.088,-0.1,180.005,1.0
0.1166,128.181881,37.968149,7002.6803304000005,0.082,-0.12,180.007,1.0
0.1333,128.181881,37.968104,7002.656251200001,-0.004,-0.141,179.993,1.0
0.15,128.181881,37.968059,7002.630038400001,-0.001,-0.161,179.991,1.0
0.1666,128.181881,37.968014,7002.602301600001,0.082,-0.181,180.005,1.0
0.1833,128.181881,37.967969,7002.574869600001,0.075,-0.202,180.007,1.0
0.2,128.181881,37.967924,7002.5468280000005,-0.011,-0.221,179.993,1.0
0.2166,128.181881,37.967879,7002.5166528,-0.007,-0.241,179.991,1.0
0.2333,128.181881,37.967834,7002.4852584,0.076,-0.26,180.005,1.0
0.25,128.181881,37.967788,7002.4535592,0.07,-0.279,180.007,1.0
0.2666,128.181881,37.967743,7002.42186,-0.016,-0.298,179.993,1.0
0.2833,128.181881,37.967698,7002.387722400001,-0.012,-0.316,179.991,1.0
0.3,128.181881,37.967653,7002.352060800001,0.072,-0.334,180.005,1.0
0.3166,128.181881,37.967608,7002.3163992,0.066,-0.353,180.007,1.0
0.3333,128.181881,37.967563,7002.2804328,-0.02,-0.37,179.993,1.0
0.35,128.181881,37.967518,7002.2423328,-0.016,-0.388,179.991,1.0
0.3666,128.181881,37.967473,7002.202404000001,0.068,-0.405,180.005,1.0
0.3833,128.181881,37.967428,7002.1624752,0.062,-0.422,180.007,1.0
0.4,128.181881,37.967382,7002.122241600001,-0.023,-0.439,179.994,1.0
0.4166,128.181881,37.967337,7002.0798744,-0.018,-0.456,179.991,1.0
0.4333,128.181881,37.967292,7002.0356784000005,0.066,-0.473,180.005,1.0
0.45,128.181881,37.967247,7001.991482400001,0.06,-0.489,180.008,1.0
0.4666,128.181881,37.967202,7001.9469816,-0.025,-0.505,179.994,1.0
0.4833,128.181881,37.967157,7001.9003472,-0.02,-0.521,179.992,1.0
0.5,128.181881,37.967111,7001.851884000001,0.064,-0.537,180.006,1.0
0.5166,128.181881,37.967066,7001.8034208,0.059,-0.553,180.008,1.0
0.5333,128.181881,37.967021,7001.7543479999995,-0.026,-0.569,179.994,1.0
0.55,128.181881,37.966976,7001.703141600001,-0.021,-0.584,179.992,1.0
0.5666,128.181881,37.966931,7001.6501064,0.064,-0.6,180.006,1.0
0.5833,128.181881,37.966885,7001.597376,0.058,-0.615,180.008,1.0
0.6,128.181881,37.96684,7001.5437312,-0.027,-0.63,179.994,1.0
0.6166,128.181881,37.966795,7001.4882576,-0.022,-0.645,179.992,1.0
0.6333,128.181881,37.96675,7001.4330887999995,-0.112,-0.66,179.983,1.0
0.65,128.181881,37.966704,7001.3754816,-0.111,-0.675,179.986,1.0
0.6666,128.181881,37.966659,7001.318484000001,-0.204,-0.69,179.98,1.0
0.6833,128.181881,37.966614,7001.2608768,-0.379,-0.704,179.962,1.0
0.7,128.181881,37.966568,7001.203879200001,-0.641,-0.718,179.935,1.0
0.7166,128.181881,37.966523,7001.1453576,-0.814,-0.731,179.927,1.0
0.7333,128.181881,37.966478,7001.0859216,-0.904,-0.744,179.938,1.0
0.75,128.181881,37.966432,7001.0249616,-0.905,-0.757,179.964,1.0
0.7666,128.181881,37.966387,7000.961868,-0.81,-0.771,179.996,1.0
0.7833,128.181881,37.966342,7000.896640800001,-0.617,-0.784,180.033,1.0
0.8,128.181881,37.966296,7000.828670400001,-0.325,-0.798,180.07,1.0
0.8166,128.181881,37.966251,7000.757652000001,0.062,-0.812,180.106,1.0
0.8333,128.181881,37.966206,7000.6835856,0.543,-0.827,180.142,1.0
0.85,128.181881,37.96616,7000.6058616,1.113,-0.842,180.177,1.0
0.8666,128.181881,37.966115,7000.5241752,1.768,-0.858,180.21,1.0
0.8833,128.181881,37.966069,7000.4379168,2.504,-0.876,180.243,1.0
0.9,128.181881,37.966024,7000.347391200001,3.319,-0.895,180.273,1.0
0.9166,128.181881,37.965978,7000.2529032,4.207,-0.915,180.303,1.0
0.9333,128.181881,37.965933,7000.154148,5.167,-0.936,180.332,1.0
0.95,128.181881,37.965887,7000.0514304,6.194,-0.959,180.359,1.0
0.9666,128.181881,37.965842,6999.9444456,7.286,-0.983,180.385,1.0
0.9833,128.181881,37.965796,6999.8334984,8.441,-1.009,180.409,1.0
1.0,128.181881,37.965751,6999.718588799999,9.654,-1.036,180.433,1.0
1.0166,128.181881,37.965705,6999.6000216,10.924,-1.065,180.455,1.0
1.0333,128.181881,37.96566,6999.4771872,12.249,-1.095,180.475,1.0
1.05,128.181881,37.965614,6999.350695200001,13.626,-1.127,180.494,1.0
1.0666,128.181881,37.965568,6999.2205456,15.052,-1.161,180.512,1.0
1.0833,128.181881,37.965523,6999.0864336,16.527,-1.195,180.528,1.0
1.1,128.181881,37.965477,6998.948359200001,18.047,-1.232,180.542,1.0
1.1166,128.181881,37.965432,6998.806932,19.612,-1.269,180.555,1.0
1.1333,128.181881,37.965386,6998.661847200001,21.219,-1.308,180.567,1.0
1.15,128.181881,37.96534,6998.5128,22.866,-1.348,180.576,1.0
1.1666,128.181881,37.965295,6998.3604000000005,24.553,-1.388,180.584,1.0
1.1833,128.181881,37.965249,6998.204647200001,26.277,-1.43,180.59,1.0
1.2,128.181881,37.965203,6998.045236800001,28.038,-1.473,180.594,1.0
1.2166,128.181881,37.965157,6997.882168800001,29.833,-1.517,180.597,1.0
1.2333,128.181881,37.965112,6997.715748,31.662,-1.561,180.597,1.0
1.25,128.181881,37.965066,6997.545974400001,33.524,-1.606,180.596,1.0
1.2666,128.181881,37.96502,6997.3725432,35.417,-1.651,180.593,1.0
1.2833,128.181881,37.964974,6997.196064000001,37.341,-1.697,180.588,1.0
1.3,128.181881,37.964928,6997.016232,39.294,-1.743,180.582,1.0
1.3166,128.181882,37.964882,6996.833047200001,41.275,-1.789,180.573,1.0
1.3333,128.181882,37.964837,6996.6465096,43.284,-1.835,180.563,1.0
1.35,128.181882,37.964791,6996.4566192,45.32,-1.882,180.55,1.0
1.3666,128.181882,37.964745,6996.2636808,47.382,-1.928,180.536,1.0
1.3833,128.181882,37.964699,6996.0673896,49.469,-1.973,180.521,1.0
1.4,128.181882,37.964653,6995.8680504,51.58,-2.019,180.503,1.0
1.4166,128.181882,37.964607,6995.6656632,53.715,-2.064,180.484,1.0
1.4333,128.181882,37.964561,6995.4599232,55.873,-2.108,180.463,1.0
1.45,128.181882,37.964515,6995.2511352,58.054,-2.151,180.441,1.0
1.4666,128.181882,37.964469,6995.0392992,60.257,-2.194,180.417,1.0
1.4833,128.181883,37.964423,6994.824415200001,62.481,-2.236,180.392,1.0
1.5,128.181883,37.964377,6994.606483200001,64.726,-2.277,180.365,1.0
1.5166,128.181883,37.964331,6994.385808,66.991,-2.317,180.338,1.0
1.5333,128.181883,37.964285,6994.1620848,69.276,-2.356,180.309,1.0
1.55,128.181883,37.964239,6993.9353136,71.58,-2.394,180.278,1.0
1.5666,128.181883,37.964193,6993.7054944,73.904,-2.43,180.247,1.0
1.5833,128.181884,37.964147,6993.472932000001,76.245,-2.465,180.215,1.0
1.6,128.181884,37.964101,6993.2376264,78.605,-2.499,180.182,1.0
1.6166,128.181884,37.964055,6992.9995776000005,80.982,-2.531,180.149,1.0
1.6333,128.181884,37.964009,6992.7584808,83.376,-2.562,180.115,1.0
1.65,128.181884,37.963962,6992.514945600001,85.787,-2.592,180.08,1.0
1.6666,128.181885,37.963916,6992.2686672,88.214,-2.62,180.045,1.0
1.6833,128.181885,37.96387,6992.0196456,90.656,-2.647,180.009,1.0
1.7,128.181885,37.963824,6991.7681856,93.115,-2.672,179.974,1.0
1.7166,128.181885,37.963778,6991.513982400001,95.588,-2.696,179.938,1.0
1.7333,128.181886,37.963731,6991.257340800001,98.075,-2.718,179.902,1.0
1.75,128.181886,37.963685,6990.997956000001,100.577,-2.739,179.866,1.0
1.7666,128.181886,37.963639,6990.7364376000005,103.092,-2.758,179.83,1.0
1.7833,128.181887,37.963593,6990.4724808,105.621,-2.776,179.795,1.0
1.8,128.181887,37.963546,6990.206390400001,108.162,-2.793,179.76,1.0
1.8166,128.181887,37.9635,6989.937861599999,110.716,-2.808,179.725,1.0
1.8333,128.181887,37.963454,6989.6668944,113.282,-2.822,179.69,1.0
1.85,128.181888,37.963407,6989.3940984,115.859,-2.835,179.656,1.0
1.8666,128.181888,37.963361,6989.119168800001,118.447,-2.847,179.623,1.0
1.8833,128.181889,37.963315,6988.842105600001,121.046,-2.857,179.59,1.0
1.9,128.181889,37.963268,6988.5629088000005,123.656,-2.867,179.558,1.0
1.9166,128.181889,37.963222,6988.282188000001,126.275,-2.875,179.526,1.0
1.9333,128.18189,37.963176,6987.999333600001,128.904,-2.882,179.495,1.0
1.95,128.18189,37.963129,6987.7143456,131.542,-2.889,179.464,1.0
1.9666,128.181891,37.963083,6987.4281384000005,134.19,-2.894,179.435,1.0
1.9833,128.181891,37.963036,6987.139797600001,136.846,-2.899,179.405,1.0
2.0,128.181891,37.96299,6986.849932800001,139.51,-2.902,179.377,1.0
2.0166,128.181892,37.962943,6986.558544,142.182,-2.905,179.349,1.0
2.0333,128.181892,37.962897,6986.2653264,144.862,-2.907,179.322,1.0
2.05,128.181893,37.96285,6985.9708896,147.549,-2.909,179.296,1.0
2.0666,128.181893,37.962804,6985.674624,150.242,-2.909,179.27,1.0
2.0833,128.181894,37.962757,6985.3771392,152.942,-2.909,179.245,1.0
2.1,128.181894,37.96271,6985.0781304,155.648,-2.908,179.221,1.0
2.1166,128.181895,37.962664,6984.777597600001,158.359,-2.907,179.198,1.0
2.1333,128.181895,37.962617,6984.4758456,161.074,-2.905,179.175,1.0
2.15,128.181896,37.962571,6984.172874400001,163.795,-2.902,179.153,1.0
2.1666,128.181896,37.962524,6983.868379200001,166.519,-2.898,179.132,1.0
2.1833,128.181897,37.962477,6983.562664800001,169.246,-2.894,179.112,1.0
2.2,128.181897,37.962431,6983.2554264,171.977,-2.889,179.092,1.0
2.2166,128.181898,37.962384,6982.947273600001,174.709,-2.883,179.073,1.0
2.2333,128.181898,37.962337,6982.637596800001,177.444,-2.877,179.056,1.0
2.25,128.181899,37.962291,6982.326396,-179.819,-2.87,179.039,1.0
2.2666,128.181899,37.962244,6982.0142808,-177.082,-2.863,179.023,1.0
2.2833,128.1819,37.962197,6981.7006416,-174.345,-2.854,179.007,1.0
2.3,128.1819,37.96215,6981.3854784000005,-171.608,-2.845,178.993,1.0
2.3166,128.1819,37.962103,6981.069096,-168.872,-2.835,178.98,1.0
2.3333,128.181901,37.962057,6980.7514944,-166.137,-2.825,178.968,1.0
2.35,128.181901,37.96201,6980.4323688,-163.404,-2.813,178.957,1.0
2.3666,128.181902,37.961963,6980.1117192,-160.672,-2.801,178.947,1.0
2.3833,128.181902,37.961916,6979.789545600001,-157.944,-2.789,178.938,1.0
2.4,128.181903,37.961869,6979.465848,-155.218,-2.775,178.93,1.0
2.4166,128.181903,37.961822,6979.1406264,-152.495,-2.761,178.924,1.0
2.4333,128.181904,37.961775,6978.8135760000005,-149.97,-2.757,178.939,1.0
2.45,128.181904,37.961728,6978.484392,-147.635,-2.765,178.973,1.0
2.4666,128.181905,37.961682,6978.1524648,-145.497,-2.78,179.019,1.0
2.4833,128.181905,37.961635,6977.8171848,-143.559,-2.798,179.071,1.0
2.5,128.181906,37.961588,6977.478856800001,-141.819,-2.82,179.123,1.0
2.5166,128.181906,37.961541,6977.1368712,-140.273,-2.842,179.175,1.0
2.5333,128.181907,37.961494,6976.791228000001,-138.915,-2.866,179.225,1.0
2.55,128.181907,37.961447,6976.4419272000005,-137.737,-2.891,179.272,1.0
2.5666,128.181908,37.9614,6976.0880544,-136.731,-2.917,179.316,1.0
2.5833,128.181908,37.961353,6975.730219200001,-135.891,-2.945,179.357,1.0
2.6,128.181909,37.961306,6975.3678119999995,-135.21,-2.974,179.395,1.0
2.6166,128.181909,37.961259,6975.0008328,-134.681,-3.005,179.431,1.0
2.6333,128.18191,37.961212,6974.628976800001,-134.299,-3.037,179.464,1.0
2.65,128.181911,37.961165,6974.2525488,-134.056,-3.071,179.495,1.0
2.6666,128.181911,37.961118,6973.8706344,-133.948,-3.106,179.522,1.0
2.6833,128.181912,37.961071,6973.4838432,-133.969,-3.142,179.548,1.0
2.7,128.181913,37.961024,6973.091565600001,-134.114,-3.179,179.571,1.0
2.7166,128.181913,37.960977,6972.6934968000005,-134.378,-3.217,179.591,1.0
2.7333,128.181914,37.96093,6972.290551200001,-134.756,-3.257,179.609,1.0
2.75,128.181915,37.960882,6971.8821192000005,-135.243,-3.297,179.625,1.0
2.7666,128.181916,37.960835,6971.468200800001,-135.836,-3.338,179.64,1.0
2.7833,128.181917,37.960788,6971.049405600001,-136.53,-3.38,179.652,1.0
2.8,128.181918,37.960741,6970.625124000001,-137.321,-3.423,179.663,1.0
2.8166,128.181918,37.960694,6970.195965600001,-138.204,-3.466,179.673,1.0
2.8333,128.181919,37.960647,6969.7613208,-139.176,-3.51,179.681,1.0
2.85,128.18192,37.9606,6969.3214944,-140.233,-3.554,179.688,1.0
2.8666,128.181921,37.960553,6968.876181600001,-141.371,-3.6,179.694,1.0
2.8833,128.181922,37.960506,6968.425992,-142.587,-3.645,179.7,1.0
2.9,128.181924,37.960459,6967.970316,-143.877,-3.691,179.704,1.0
2.9166,128.181925,37.960412,6967.5094584,-145.239,-3.738,179.708,1.0
2.9333,128.181926,37.960365,6967.0431144,-146.668,-3.784,179.712,1.0
2.95,128.181927,37.960318,6966.5715887999995,-148.161,-3.831,179.716,1.0
2.9666,128.181928,37.960271,6966.0948816,-149.716,-3.878,179.719,1.0
2.9833,128.181929,37.960224,6965.612688000001,-151.329,-3.925,179.722,1.0
3.0,128.18193,37.960177,6965.1247032,-152.998,-3.973,179.726,1.0
3.0166,128.181932,37.96013,6964.6315368000005,-154.719,-4.02,179.729,1.0
3.0333,128.181933,37.960083,6964.132884000001,-156.49,-4.067,179.733,1.0
3.05,128.181934,37.960036,6963.6287448,-158.309,-4.115,179.737,1.0
3.0666,128.181935,37.959989,6963.119119200001,-160.171,-4.162,179.742,1.0
3.0833,128.181936,37.959942,6962.6037024,-162.076,-4.208,179.747,1.0
3.1,128.181938,37.959895,6962.0827992,-164.02,-4.255,179.752,1.0
3.1166,128.181939,37.959848,6961.556104800001,-166.001,-4.301,179.758,1.0
3.1333,128.18194,37.9598,6961.023924000001,-168.017,-4.346,179.765,1.0
3.15,128.181942,37.959753,6960.485952000001,-170.065,-4.391,179.772,1.0
3.1666,128.181943,37.959706,6959.941884000001,-172.144,-4.435,179.78,1.0
3.1833,128.181944,37.959659,6959.392329599999,-174.25,-4.479,179.789,1.0
3.2,128.181946,37.959612,6958.8369840000005,-176.383,-4.521,179.798,1.0
3.2166,128.181947,37.959565,6958.275542400001,-178.539,-4.563,179.808,1.0
3.2333,128.181948,37.959518,6957.7086144,179.281,-4.604,179.819,1.0
3.25,128.181949,37.959471,6957.1352856,177.082,-4.643,179.83,1.0
3.2666,128.181951,37.959424,6956.556470400001,174.865,-4.682,179.842,1.0
3.2833,128.181952,37.959377,6955.9715592,172.63,-4.719,179.854,1.0
3.3,128.181953,37.95933,6955.3805520000005,170.381,-4.756,179.866,1.0
3.3166,128.181955,37.959283,6954.7837536,168.119,-4.79,179.879,1.0
3.3333,128.181956,37.959236,6954.1811640000005,165.844,-4.824,179.892,1.0
3.35,128.181957,37.959189,6953.5721736000005,163.56,-4.856,179.906,1.0
3.3666,128.181958,37.959142,6952.957696800001,161.266,-4.887,179.919,1.0
3.3833,128.18196,37.959095,6952.337124000001,158.964,-4.916,179.933,1.0
3.4,128.181961,37.959048,6951.7104552,156.656,-4.944,179.947,1.0
3.4166,128.181962,37.959001,6951.0783,154.343,-4.97,179.96,1.0
3.4333,128.181963,37.958954,6950.4400488,152.026,-4.995,179.973,1.0
3.45,128.181964,37.958907,6949.796006400001,149.706,-5.019,179.986,1.0
3.4666,128.181965,37.95886,6949.1461728,147.384,-5.041,179.999,1.0
3.4833,128.181967,37.958812,6948.490548,145.061,-5.061,180.011,1.0
3.5,128.181968,37.958765,6947.829436800001,142.738,-5.08,180.022,1.0
3.5166,128.181969,37.958718,6947.164668,140.615,-5.113,180.014,1.0
3.5333,128.18197,37.958671,6946.4950224,138.685,-5.16,179.986,1.0
3.55,128.181971,37.958624,6945.8211096,136.955,-5.216,179.947,1.0
3.5666,128.181972,37.958577,6945.142624800001,135.429,-5.275,179.903,1.0
3.5833,128.181973,37.95853,6944.460482400001,134.108,-5.334,179.858,1.0
3.6,128.181973,37.958483,6943.774377600001,132.985,-5.393,179.814,1.0
3.6166,128.181974,37.958436,6943.084920000001,132.055,-5.451,179.772,1.0
3.6333,128.181975,37.958389,6942.3924144,131.308,-5.508,179.732,1.0
3.65,128.181976,37.958342,6941.696556000001,130.738,-5.564,179.694,1.0
3.6666,128.181977,37.958295,6940.997954400001,130.337,-5.62,179.659,1.0
3.6833,128.181978,37.958247,6940.296914400001,130.096,-5.675,179.625,1.0
3.7,128.181979,37.9582,6939.5931312,130.01,-5.729,179.592,1.0
3.7166,128.18198,37.958153,6938.8875192000005,130.071,-5.783,179.561,1.0
3.7333,128.181981,37.958106,6938.180078400001,130.274,-5.836,179.531,1.0
3.75,128.181982,37.958059,6937.470808800001,130.612,-5.888,179.502,1.0
3.7666,128.181982,37.958011,6936.759710400001,131.079,-5.939,179.473,1.0
3.7833,128.181983,37.957964,6936.047697600001,131.669,-5.989,179.446,1.0
3.8,128.181984,37.957917,6935.334465600001,132.378,-6.038,179.418,1.0
3.8166,128.181985,37.95787,6934.6200144,133.2,-6.086,179.391,1.0
3.8333,128.181986,37.957822,6933.9040392,134.13,-6.132,179.365,1.0
3.85,128.181987,37.957775,6933.1871496,135.163,-6.178,179.338,1.0
3.8666,128.181988,37.957728,6932.469040800001,136.294,-6.222,179.312,1.0
3.8833,128.181989,37.95768,6931.7497128,137.519,-6.266,179.286,1.0
3.9,128.18199,37.957633,6931.029165600001,138.834,-6.308,179.26,1.0
3.9166,128.181991,37.957586,6930.307704,140.234,-6.349,179.234,1.0
3.9333,128.181992,37.957538,6929.585328,141.716,-6.388,179.208,1.0
3.95,128.181994,37.957491,6928.861732800001,143.275,-6.427,179.183,1.0
3.9666,128.181995,37.957443,6928.1369184000005,144.909,-6.464,179.157,1.0
3.9833,128.181996,37.957396,6927.4114944,146.613,-6.501,179.131,1.0
4.0,128.181997,37.957348,6926.6851560000005,148.384,-6.536,179.105,1.0
4.0166,128.181998,37.957301,6925.9579032,150.218,-6.57,179.079,1.0
4.0333,128.181999,37.957253,6925.229736,152.114,-6.602,179.053,1.0
4.05,128.182,37.957206,6924.500959200001,154.066,-6.634,179.027,1.0
4.0666,128.182001,37.957158,6923.771268,156.073,-6.664,179.001,1.0
4.0833,128.182003,37.957111,6923.0406624,158.132,-6.693,178.975,1.0
4.1,128.182004,37.957063,6922.309447200001,160.239,-6.72,178.949,1.0
4.1166,128.182005,37.957015,6921.5776224,162.393,-6.746,178.922,1.0
4.1333,128.182006,37.956968,6920.845188000001,164.59,-6.771,178.896,1.0
4.15,128.182007,37.95692,6920.1118392,166.828,-6.795,178.87,1.0
4.1666,128.182009,37.956872,6919.3778808,169.104,-6.817,178.844,1.0
4.1833,128.18201,37.956825,6918.6433128,171.417,-6.837,178.818,1.0
4.2,128.182011,37.956777,6917.9078304,173.764,-6.856,178.792,1.0
4.2166,128.182012,37.956729,6917.171738400001,176.142,-6.874,178.767,1.0
4.2333,128.182013,37.956682,6916.4350368000005,178.55,-6.89,178.741,1.0
4.25,128.182014,37.956634,6915.6977256,-179.014,-6.904,178.716,1.0
4.2666,128.182016,37.956586,6914.9595,-176.553,-6.916,178.691,1.0
4.2833,128.182017,37.956538,6914.22036,-174.068,-6.927,178.667,1.0
4.3,128.182018,37.95649,6913.480610400001,-171.562,-6.936,178.643,1.0
4.3166,128.182019,37.956442,6912.7396416,-169.036,-6.944,178.62,1.0
4.3333,128.18202,37.956395,6911.9974536,-166.701,-6.955,178.623,1.0
4.35,128.182022,37.956347,6911.253132000001,-164.552,-6.971,178.651,1.0
4.3666,128.182023,37.956299,6910.5069816000005,-162.598,-6.991,178.693,1.0
4.3833,128.182024,37.956251,6909.757783200001,-160.843,-7.013,178.741,1.0
4.4,128.182025,37.956203,6909.0055368,-159.288,-7.035,178.79,1.0
4.4166,128.182026,37.956155,6908.2502424,-157.928,-7.057,178.837,1.0
4.4333,128.182028,37.956107,6907.4912904,-156.755,-7.08,178.881,1.0
4.45,128.182029,37.956059,6906.728376,-155.762,-7.105,178.922,1.0
4.4666,128.18203,37.956011,6905.9614992,-154.94,-7.131,178.961,1.0
4.4833,128.182031,37.955963,6905.1900504000005,-154.283,-7.159,178.998,1.0
4.5,128.182032,37.955915,6904.4140296,-153.782,-7.188,179.032,1.0
4.5166,128.182034,37.955867,6903.633132000001,-153.432,-7.219,179.065,1.0
4.5333,128.182035,37.955819,6902.8473576,-153.226,-7.251,179.096,1.0
4.55,128.182036,37.955771,6902.055792000001,-153.159,-7.285,179.125,1.0
4.5666,128.182037,37.955723,6901.25874,-153.224,-7.32,179.152,1.0
4.5833,128.182039,37.955675,6900.455896800001,-153.415,-7.356,179.178,1.0
4.6,128.18204,37.955627,6899.6469576,-153.729,-7.393,179.202,1.0
4.6166,128.182041,37.955579,6898.8313128,-154.159,-7.432,179.225,1.0
4.6333,128.182043,37.955531,6898.010181600001,-154.701,-7.472,179.246,1.0
4.65,128.182044,37.955483,6897.1829544,-155.349,-7.513,179.266,1.0
4.6666,128.182045,37.955435,6896.3496312,-156.1,-7.554,179.285,1.0
4.6833,128.182047,37.955387,6895.510212,-156.948,-7.596,179.303,1.0
4.7,128.182048,37.955339,6894.6650016,-157.89,-7.639,179.32,1.0
4.7166,128.18205,37.955291,6893.814,-158.921,-7.683,179.336,1.0
4.7333,128.182051,37.955243,6892.9569024,-160.037,-7.727,179.352,1.0
4.75,128.182053,37.955195,6892.0940136,-161.234,-7.771,179.368,1.0
4.7666,128.182054,37.955147,6891.2250288000005,-162.509,-7.816,179.383,1.0
4.7833,128.182056,37.955099,6890.3502528,-163.857,-7.861,179.398,1.0
4.8,128.182057,37.955051,6889.4693808,-165.275,-7.905,179.412,1.0
4.8166,128.182059,37.955003,6888.5827176,-166.759,-7.95,179.427,1.0
4.8333,128.18206,37.954955,6887.6902632,-168.307,-7.995,179.442,1.0
4.85,128.182062,37.954907,6886.7917128,-169.914,-8.04,179.457,1.0
4.8666,128.182063,37.954859,6885.8873712,-171.579,-8.084,179.472,1.0
4.8833,128.182065,37.954811,6884.976933600001,-173.296,-8.127,179.487,1.0
4.9,128.182066,37.954763,6884.0604,-175.064,-8.171,179.503,1.0
4.9166,128.182068,37.954715,6883.1380752,-176.88,-8.213,179.518,1.0
4.9333,128.182069,37.954667,6882.2096544000005,-178.74,-8.255,179.535,1.0
4.95,128.182071,37.954619,6881.2754424,179.356,-8.296,179.551,1.0
4.9666,128.182072,37.954571,6880.3348295999995,177.414,-8.337,179.568,1.0
4.9833,128.182074,37.954524,6879.3884256,175.436,-8.376,179.585,1.0
5.0,128.182075,37.954476,6878.4359256,173.423,-8.414,179.603,1.0
5.0166,128.182077,37.954428,6877.477329599999,171.378,-8.451,179.621,1.0
5.0333,128.182078,37.95438,6876.512637600001,169.303,-8.487,179.639,1.0
5.05,128.18208,37.954332,6875.5433736,167.418,-8.527,179.63,1.0
5.0666,128.182081,37.954284,6874.568928000001,165.716,-8.572,179.595,1.0
5.0833,128.182083,37.954236,6873.589605600001,164.208,-8.62,179.545,1.0
5.1,128.182084,37.954188,6872.606016,162.9,-8.668,179.489,1.0
5.1166,128.182086,37.95414,6871.6181592,161.792,-8.716,179.434,1.0
5.1333,128.182087,37.954092,6870.626644800001,160.878,-8.764,179.382,1.0
5.15,128.182088,37.954044,6869.631472800001,160.152,-8.811,179.332,1.0
5.1666,128.18209,37.953996,6868.6332528,159.605,-8.857,179.286,1.0
5.1833,128.182091,37.953948,6867.6319848,159.229,-8.904,179.242,1.0
5.2,128.182093,37.9539,6866.6285832,159.016,-8.951,179.2,1.0
5.2166,128.182094,37.953852,6865.622438400001,158.958,-8.997,179.159,1.0
5.2333,128.182096,37.953804,6864.614769600001,159.048,-9.043,179.119,1.0
5.25,128.182097,37.953756,6863.605272,159.281,-9.089,179.081,1.0
5.2666,128.182098,37.953707,6862.5945552,159.649,-9.133,179.044,1.0
5.2833,128.1821,37.953659,6861.5826192,160.146,-9.177,179.007,1.0
5.3,128.182101,37.953611,6860.570073600001,160.767,-9.219,178.971,1.0
5.3166,128.182103,37.953563,6859.5572232,161.506,-9.26,178.936,1.0
5.3333,128.182104,37.953515,6858.5443728,162.358,-9.3,178.901,1.0
5.35,128.182106,37.953467,6857.530608,163.316,-9.338,178.867,1.0
5.3666,128.182107,37.953418,6856.516538400001,164.377,-9.375,178.833,1.0
5.3833,128.182109,37.95337,6855.501859200001,165.534,-9.41,178.8,1.0
5.4,128.18211,37.953322,6854.486570400001,166.783,-9.444,178.766,1.0
5.4166,128.182112,37.953274,6853.4709768,168.12,-9.476,178.734,1.0
5.4333,128.182113,37.953225,6852.4550784,169.541,-9.506,178.701,1.0
5.45,128.182115,37.953177,6851.438265600001,171.04,-9.535,178.668,1.0
5.4666,128.182116,37.953129,6850.421147999999,172.615,-9.562,178.636,1.0
5.4833,128.182118,37.95308,6849.4034208,174.26,-9.587,178.604,1.0
5.5,128.182119,37.953032,6848.3850840000005,175.973,-9.61,178.573,1.0
5.5166,128.182121,37.952983,6847.366137600001,177.75,-9.631,178.542,1.0
5.5333,128.182122,37.952935,6846.346581600001,179.586,-9.651,178.511,1.0
5.55,128.182124,37.952887,6845.326416,-178.519,-9.669,178.48,1.0
5.5666,128.182125,37.952838,6844.305336,-176.572,-9.685,178.45,1.0
5.5833,128.182127,37.95279,6843.2836464,-174.574,-9.699,178.421,1.0
5.6,128.182128,37.952741,6842.261347200001,-172.528,-9.711,178.392,1.0
5.6166,128.18213,37.952693,6841.238133600001,-170.438,-9.722,178.364,1.0
5.6333,128.182131,37.952644,6840.214310400001,-168.306,-9.73,178.337,1.0
5.65,128.182133,37.952595,6839.189268,-166.135,-9.737,178.31,1.0
5.6666,128.182134,37.952547,6838.163616,-163.926,-9.742,178.284,1.0
5.6833,128.182136,37.952498,6837.1367448,-161.684,-9.745,178.26,1.0
5.7,128.182137,37.952449,6836.1086544,-159.633,-9.756,178.263,1.0
5.7166,128.182139,37.952401,6835.0784304,-157.768,-9.776,178.293,1.0
5.7333,128.18214,37.952352,6834.045768,-156.099,-9.801,178.339,1.0
5.75,128.182142,37.952303,6833.0103624,-154.632,-9.828,178.39,1.0
5.7666,128.182144,37.952255,6831.9719088,-153.367,-9.855,178.44,1.0
5.7833,128.182145,37.952206,6830.929797600001,-152.299,-9.882,178.488,1.0
5.8,128.182147,37.952157,6829.884028800001,-151.42,-9.909,178.532,1.0
5.8166,128.182148,37.952109,6828.8346024,-150.72,-9.937,178.574,1.0
5.8333,128.18215,37.95206,6827.7806040000005,-150.192,-9.965,178.613,1.0
5.85,128.182151,37.952011,6826.722338400001,-149.827,-9.995,178.649,1.0
5.8666,128.182153,37.951962,6825.6595008,-149.617,-10.026,178.684,1.0
5.8833,128.182154,37.951914,6824.5914816,-149.557,-10.058,178.717,1.0
5.9,128.182156,37.951865,6823.5182808,-149.639,-10.091,178.748,1.0
5.9166,128.182157,37.951816,6822.4395936,-149.857,-10.126,178.778,1.0
5.9333,128.182159,37.951768,6821.355420000001,-150.207,-10.161,178.806,1.0
5.95,128.182161,37.951719,6820.2651504000005,-150.681,-10.198,178.832,1.0
5.9666,128.182162,37.95167,6819.1687848,-151.274,-10.236,178.857,1.0
5.9833,128.182164,37.951621,6818.0657136,-151.982,-10.274,178.88,1.0
6.0,128.182166,37.951573,6816.957156,-152.799,-10.314,178.902,1.0
6.0166,128.182167,37.951524,6815.842197600001,-153.72,-10.354,178.923,1.0
6.0333,128.182169,37.951475,6814.7211431999995,-154.741,-10.395,178.943,1.0
6.05,128.182171,37.951427,6813.593992800001,-155.856,-10.436,178.962,1.0
6.0666,128.182173,37.951378,6812.461051200001,-157.062,-10.478,178.98,1.0
6.0833,128.182174,37.951329,6811.3220136,-158.355,-10.521,178.998,1.0
6.1,128.182176,37.951281,6810.17688,-159.729,-10.564,179.015,1.0
6.1166,128.182178,37.951232,6809.025650400001,-161.182,-10.607,179.032,1.0
6.1333,128.18218,37.951183,6807.8686296,-162.709,-10.651,179.049,1.0
6.15,128.182182,37.951135,6806.7055128,-164.306,-10.694,179.065,1.0
6.1666,128.182184,37.951086,6805.536300000001,-165.969,-10.738,179.082,1.0
6.1833,128.182186,37.951037,6804.361296,-167.696,-10.781,179.098,1.0
6.2,128.182187,37.950989,6803.180196,-169.483,-10.825,179.115,1.0
6.2166,128.182189,37.95094,6801.993,-171.325,-10.867,179.132,1.0
6.2333,128.182191,37.950892,6800.7997080000005,-173.221,-10.91,179.149,1.0
6.25,128.182193,37.950843,6799.6003200000005,-175.167,-10.952,179.167,1.0
6.2666,128.182195,37.950794,6798.3951408,-177.159,-10.993,179.185,1.0
6.2833,128.182197,37.950746,6797.183560800001,-179.195,-11.033,179.203,1.0
6.3,128.182199,37.950697,6795.9667992,178.958,-11.073,179.191,1.0
6.3166,128.182201,37.950649,6794.745160800001,177.296,-11.112,179.15,1.0
6.3333,128.182202,37.9506,6793.5189504,175.83,-11.152,179.092,1.0
6.35,128.182204,37.950552,6792.288168,174.567,-11.191,179.03,1.0
6.3666,128.182206,37.950503,6791.053423200001,173.509,-11.23,178.969,1.0
6.3833,128.182208,37.950455,6789.8150208,172.648,-11.27,178.913,1.0
6.4,128.18221,37.950406,6788.572960800001,171.978,-11.309,178.86,1.0
6.4166,128.182212,37.950357,6787.3281576,171.487,-11.35,178.811,1.0
6.4333,128.182214,37.950309,6786.080916,171.168,-11.39,178.764,1.0
6.45,128.182215,37.95026,6784.8309312,171.012,-11.431,178.718,1.0
6.4666,128.182217,37.950212,6783.5791176,171.012,-11.472,178.674,1.0
6.4833,128.182219,37.950163,6782.32578,171.16,-11.513,178.631,1.0
6.5,128.182221,37.950114,6781.070918400001,171.45,-11.553,178.589,1.0
6.5166,128.182223,37.950066,6779.815142400001,171.875,-11.593,178.548,1.0
6.5333,128.182225,37.950017,6778.558756800001,172.43,-11.631,178.508,1.0
6.55,128.182227,37.949969,6777.3017616,173.106,-11.668,178.469,1.0
6.5666,128.182228,37.94992,6776.0450712,173.9,-11.704,178.43,1.0
6.5833,128.18223,37.949871,6774.7883808,174.805,-11.738,178.392,1.0
6.6,128.182232,37.949822,6773.5310808,175.816,-11.771,178.355,1.0
6.6166,128.182234,37.949774,6772.2740856,176.927,-11.802,178.319,1.0
6.6333,128.182236,37.949725,6771.014956800001,177.883,-11.847,178.302,1.0
6.65,128.182238,37.949676,6769.7539992,178.688,-11.923,178.304,1.0
6.6666,128.18224,37.949628,6768.4902984,179.339,-12.047,178.319,1.0
6.6833,128.182242,37.949579,6767.2226352,179.833,-12.234,178.338,1.0
6.7,128.182244,37.94953,6765.950400000001,-179.829,-12.498,178.358,1.0
6.7166,128.182245,37.949481,6764.6723736,-179.635,-12.85,178.382,1.0
6.7333,128.182247,37.949433,6763.3870320000005,-179.578,-13.299,178.41,1.0
6.75,128.182249,37.949384,6762.093765600001,-179.654,-13.829,178.44,1.0
6.7666,128.182251,37.949335,6760.791355200001,-179.858,-14.424,178.473,1.0
6.7833,128.182253,37.949287,6759.4788864,179.813,-15.063,178.507,1.0
6.8,128.182255,37.949238,6758.15514,179.368,-15.723,178.544,1.0
6.8166,128.182257,37.949189,6756.819506400001,178.811,-16.382,178.585,1.0
6.8333,128.182259,37.949141,6755.4704616,178.148,-17.016,178.629,1.0
6.85,128.18226,37.949092,6754.1077008,177.386,-17.604,178.677,1.0
6.8666,128.182262,37.949044,6752.7309192,176.531,-18.13,178.729,1.0
6.8833,128.182264,37.948995,6751.337983200001,175.587,-18.599,178.785,1.0
6.9,128.182266,37.948947,6749.929197600001,174.558,-19.024,178.845,1.0
6.9166,128.182268,37.948898,6748.5033432,173.45,-19.415,178.911,1.0
6.9333,128.18227,37.94885,6747.061944,172.291,-19.781,178.981,1.0
6.95,128.182271,37.948801,6745.604695200001,171.11,-20.126,179.053,1.0
6.9666,128.182273,37.948753,6744.131901600001,169.932,-20.454,179.127,1.0
6.9833,128.182275,37.948705,6742.6432584,168.774,-20.767,179.202,1.0
7.0,128.182277,37.948657,6741.139375199999,167.651,-21.067,179.28,1.0
7.0166,128.182278,37.948608,6739.620252000001,166.573,-21.355,179.36,1.0
7.0333,128.18228,37.94856,6738.0864984,165.547,-21.632,179.444,1.0
7.05,128.182282,37.948512,6736.5381144,164.576,-21.898,179.532,1.0
7.0666,128.182283,37.948464,6734.9754048,163.661,-22.155,179.623,1.0
7.0833,128.182285,37.948416,6733.3986744,162.804,-22.403,179.717,1.0
7.1,128.182286,37.948368,6731.808228000001,162.003,-22.643,179.814,1.0
7.1166,128.182288,37.94832,6730.203456000001,161.255,-22.874,179.915,1.0
7.1333,128.182289,37.948272,6728.5846632,160.559,-23.098,180.018,1.0
7.15,128.18229,37.948224,6726.9515448,159.912,-23.315,180.123,1.0
7.1666,128.182292,37.948177,6725.304405600001,159.31,-23.526,180.231,1.0
7.1833,128.182293,37.948129,6723.6426360000005,158.751,-23.731,180.34,1.0
7.2,128.182294,37.948081,6721.9668456,158.231,-23.93,180.451,1.0
7.2166,128.182295,37.948033,6720.2767296,157.747,-24.123,180.564,1.0
7.2333,128.182296,37.947986,6718.572592800001,157.297,-24.313,180.678,1.0
7.25,128.182297,37.947938,6716.8538256,156.876,-24.497,180.792,1.0
7.2666,128.182298,37.947891,6715.1198184,156.359,-24.658,180.909,1.0
7.2833,128.182299,37.947843,6713.3717904000005,155.752,-24.779,181.02,1.0
7.3,128.1823,37.947796,6711.608827200001,155.057,-24.848,181.113,1.0
7.3166,128.182301,37.947748,6709.8318432,154.278,-24.85,181.176,1.0
7.3333,128.182302,37.947701,6708.0411432,153.421,-24.774,181.199,1.0
7.35,128.182303,37.947654,6706.237641600001,152.49,-24.61,181.172,1.0
7.3666,128.182303,37.947606,6704.420119200001,151.484,-24.379,181.106,1.0
7.3833,128.182304,37.947559,6702.5901,150.4,-24.101,181.009,1.0
7.4,128.182304,37.947512,6700.747279200001,149.232,-23.798,180.893,1.0
7.4166,128.182305,37.947465,6698.8922664,147.978,-23.49,180.769,1.0
7.4333,128.182305,37.947418,6697.0256712,146.632,-23.196,180.648,1.0
7.45,128.182305,37.947371,6695.1481032,145.191,-22.935,180.543,1.0
7.4666,128.182305,37.947324,6693.260172,143.654,-22.713,180.459,1.0
7.4833,128.182306,37.947277,6691.362487200001,142.024,-22.524,180.393,1.0
7.5,128.182306,37.94723,6689.4556584,140.306,-22.362,180.339,1.0
7.5166,128.182306,37.947183,6687.5406,138.738,-22.25,180.299,1.0
7.5333,128.182306,37.947136,6685.6176168,137.31,-22.2,180.288,1.0
7.55,128.182306,37.947089,6683.6860992,136.022,-22.214,180.324,1.0
7.5666,128.182305,37.947042,6681.7469616,134.871,-22.296,180.424,1.0
7.5833,128.182305,37.946996,6679.7995944,133.851,-22.45,180.602,1.0
7.6,128.182305,37.946949,6677.8443024,132.957,-22.672,180.862,1.0
7.6166,128.182305,37.946902,6675.8813904,132.184,-22.953,181.194,1.0
7.6333,128.182304,37.946856,6673.9105536,131.53,-23.278,181.587,1.0
7.65,128.182304,37.946809,6671.931182400001,130.994,-23.636,182.029,1.0
7.6666,128.182303,37.946763,6669.9441912,130.567,-24.021,182.502,1.0
7.6833,128.182302,37.946716,6667.948665600001,130.238,-24.415,182.989,1.0
7.7,128.182302,37.946669,6665.944605600001,129.997,-24.802,183.473,1.0
7.7166,128.182301,37.946623,6663.9320112000005,129.833,-25.168,183.936,1.0
7.7333,128.1823,37.946576,6661.9108824,129.736,-25.498,184.361,1.0
7.75,128.182299,37.94653,6659.88,129.699,-25.781,184.729,1.0
7.7666,128.182298,37.946484,6657.839364,129.706,-26.022,185.048,1.0
7.7833,128.182297,37.946437,6655.7889744,129.74,-26.231,185.331,1.0
7.8,128.182296,37.946391,6653.7282216,129.787,-26.419,185.588,1.0
7.8166,128.182294,37.946345,6651.655886400001,129.739,-26.56,185.816,1.0
7.8333,128.182293,37.946298,6649.573492800001,129.605,-26.644,185.998,1.0
7.85,128.182291,37.946252,6647.4813456,129.39,-26.667,186.114,1.0
7.8666,128.182289,37.946206,6645.37914,129.097,-26.621,186.144,1.0
7.8833,128.182288,37.94616,6643.2680952,128.733,-26.503,186.074,1.0
7.9,128.182286,37.946114,6641.146992000001,128.292,-26.328,185.921,1.0
7.9166,128.182284,37.946068,6639.0170496,127.766,-26.111,185.704,1.0
7.9333,128.182282,37.946022,6636.8779632000005,127.15,-25.866,185.444,1.0
7.95,128.182279,37.945976,6634.730342400001,126.438,-25.609,185.161,1.0
7.9666,128.182277,37.94593,6632.574492000001,125.623,-25.353,184.874,1.0
7.9833,128.182275,37.945885,6630.4110216,124.7,-25.111,184.602,1.0
8.0,128.182272,37.945839,6628.240236000001,123.662,-24.898,184.365,1.0
8.0166,128.18227,37.945793,6626.06244,122.507,-24.722,184.179,1.0
8.0333,128.182267,37.945747,6623.8782432,121.238,-24.579,184.04,1.0
8.05,128.182264,37.945702,6621.6876456,119.866,-24.462,183.933,1.0
8.0666,128.182262,37.945656,6619.491256800001,118.398,-24.362,183.849,1.0
8.0833,128.182259,37.94561,6617.2893816000005,116.844,-24.275,183.778,1.0
8.1,128.182256,37.945565,6615.081715200001,115.199,-24.208,183.74,1.0
8.1166,128.182253,37.945519,6612.8688672,113.459,-24.166,183.755,1.0
8.1333,128.182249,37.945474,6610.650837600001,111.623,-24.154,183.839,1.0
8.15,128.182246,37.945428,6608.4279312,109.689,-24.171,184.003,1.0
8.1666,128.182243,37.945383,6606.1998432,107.666,-24.209,184.237,1.0
8.1833,128.18224,37.945338,6603.9671832,105.565,-24.258,184.525,1.0
8.2,128.182236,37.945292,6601.729951200001,103.398,-24.311,184.85,1.0
8.2166,128.182232,37.945247,6599.488147200001,101.175,-24.361,185.2,1.0
8.2333,128.182229,37.945201,6597.2423808,98.903,-24.403,185.567,1.0
8.25,128.182225,37.945156,6594.992347200001,96.589,-24.435,185.947,1.0
8.2666,128.182221,37.945111,6592.7389608,94.238,-24.454,186.334,1.0
8.2833,128.182217,37.945066,6590.4819168,91.852,-24.46,186.728,1.0
8.3,128.182213,37.94502,6588.2221296,89.434,-24.451,187.127,1.0
8.3166,128.182208,37.944975,6585.959904,86.987,-24.426,187.528,1.0
8.3333,128.182204,37.94493,6583.6955448,84.512,-24.385,187.93,1.0
8.35,128.182199,37.944885,6581.429356800001,82.012,-24.328,188.333,1.0
8.3666,128.182194,37.94484,6579.163168800001,79.712,-24.267,188.754,1.0
8.3833,128.18219,37.944795,6576.8960664,77.607,-24.203,189.188,1.0
8.4,128.182185,37.94475,6574.628354400001,75.702,-24.13,189.622,1.0
8.4166,128.182179,37.944705,6572.3600328,74.002,-24.046,190.047,1.0
8.4333,128.182174,37.944659,6570.091711200001,72.501,-23.951,190.455,1.0
8.45,128.182169,37.944614,6567.8236944,71.193,-23.846,190.844,1.0
8.4666,128.182163,37.944569,6565.5556776,70.067,-23.735,191.214,1.0
8.4833,128.182157,37.944524,6563.288270400001,69.113,-23.619,191.565,1.0
8.5,128.182152,37.944479,6561.0214728,68.321,-23.5,191.897,1.0
8.5166,128.182146,37.944434,6558.7555896,67.676,-23.383,192.215,1.0
8.5333,128.18214,37.944389,6556.4906208,67.168,-23.27,192.518,1.0
8.55,128.182133,37.944344,6554.2262616,66.782,-23.162,192.809,1.0
8.5666,128.182127,37.944299,6551.9631216,66.501,-23.058,193.086,1.0
8.5833,128.182121,37.944254,6549.7005912,66.309,-22.958,193.351,1.0
8.6,128.182114,37.944209,6547.4389752,66.192,-22.861,193.605,1.0
8.6166,128.182108,37.944164,6545.178883200001,66.138,-22.768,193.847,1.0
8.6333,128.182101,37.944119,6542.920315200001,66.136,-22.677,194.078,1.0
8.65,128.182094,37.944074,6540.6632712,66.177,-22.588,194.3,1.0
8.6666,128.182087,37.944029,6538.408056000001,66.25,-22.501,194.513,1.0
8.6833,128.182079,37.943984,6536.1546696000005,66.347,-22.417,194.717,1.0
8.7,128.182072,37.943939,6533.903112,66.46,-22.334,194.914,1.0
8.7166,128.182065,37.943895,6531.653688,66.583,-22.255,195.105,1.0
8.7333,128.182057,37.94385,6529.406397600001,66.711,-22.177,195.29,1.0
8.75,128.182049,37.943805,6527.1615456,66.84,-22.102,195.47,1.0
8.7666,128.182041,37.94376,6524.9188272,66.966,-22.028,195.646,1.0
8.7833,128.182033,37.943715,6522.6782424,67.087,-21.957,195.818,1.0
8.8,128.182025,37.94367,6520.4397912,67.201,-21.888,195.987,1.0
8.8166,128.182016,37.943625,6518.2037784,67.306,-21.82,196.153,1.0
8.8333,128.182008,37.94358,6515.970204,67.402,-21.754,196.316,1.0
8.85,128.181999,37.943536,6513.7387632,67.487,-21.689,196.477,1.0
8.8666,128.18199,37.943491,6511.509760800001,67.563,-21.627,196.636,1.0
8.8833,128.181981,37.943446,6509.282892,67.627,-21.565,196.794,1.0
8.9,128.181971,37.943401,6507.0584616,67.682,-21.505,196.95,1.0
8.9166,128.181962,37.943356,6504.836469600001,67.727,-21.445,197.105,1.0
8.9333,128.181952,37.943312,6502.616611200001,67.762,-21.387,197.258,1.0
8.95,128.181943,37.943267,6500.3988864,67.788,-21.33,197.411,1.0
8.9666,128.181933,37.943222,6498.1823808,67.724,-21.265,197.54,1.0
8.9833,128.181923,37.943177,6495.9686184,67.579,-21.199,197.629,1.0
9.0,128.181912,37.943133,6493.7572944,67.345,-21.137,197.681,1.0
9.0166,128.181902,37.943088,6491.5490184,67.015,-21.08,197.71,1.0
9.0333,128.181891,37.943043,6489.3437904,66.582,-21.026,197.728,1.0
9.05,128.181881,37.942999,6487.141915200001,66.046,-20.975,197.742,1.0
9.0666,128.18187,37.942954,6484.943697600001,65.408,-20.923,197.758,1.0
9.0833,128.181858,37.94291,6482.749442400001,64.67,-20.871,197.777,1.0
9.1,128.181847,37.942865,6480.5594544000005,63.837,-20.815,197.803,1.0
9.1166,128.181836,37.94282,6478.373124000001,62.91,-20.757,197.834,1.0
9.1333,128.181824,37.942776,6476.191365600001,61.895,-20.694,197.873,1.0
9.15,128.181812,37.942731,6474.0138744000005,60.792,-20.626,197.918,1.0
9.1666,128.1818,37.942687,6471.8409552,59.606,-20.552,197.971,1.0
9.1833,128.181788,37.942642,6469.672608,58.338,-20.472,198.031,1.0
9.2,128.181776,37.942598,6467.509747200001,56.992,-20.385,198.099,1.0
9.2166,128.181763,37.942553,6465.352068,55.571,-20.29,198.174,1.0
9.2333,128.18175,37.942509,6463.1998752,54.076,-20.187,198.255,1.0
9.25,128.181738,37.942464,6461.053473600001,52.51,-20.075,198.343,1.0
9.2666,128.181725,37.94242,6458.913168,50.876,-19.953,198.437,1.0
9.2833,128.181711,37.942375,6456.779568,49.176,-19.821,198.537,1.0
9.3,128.181698,37.942331,6454.6526736000005,47.413,-19.678,198.641,1.0
9.3166,128.181685,37.942286,6452.5327896,45.589,-19.523,198.75,1.0
9.3333,128.181671,37.942242,6450.4205256,43.706,-19.356,198.861,1.0
9.35,128.181657,37.942197,6448.3161864,41.766,-19.176,198.974,1.0
9.3666,128.181644,37.942153,6446.2200768,39.772,-18.984,199.089,1.0
9.3833,128.18163,37.942108,6444.132501600001,37.727,-18.778,199.203,1.0
9.4,128.181615,37.942064,6442.054375199999,35.631,-18.559,199.317,1.0
9.4166,128.181601,37.942019,6439.984478400001,33.506,-18.327,199.428,1.0
9.4333,128.181587,37.941975,6437.9237256,31.402,-18.09,199.536,1.0
9.45,128.181572,37.94193,6435.871812,29.362,-17.85,199.64,1.0
9.4666,128.181558,37.941886,6433.828737600001,27.48,-17.631,199.747,1.0
9.4833,128.181543,37.941841,6431.793588,25.756,-17.449,199.847,1.0
9.5,128.181528,37.941796,6429.7660584000005,24.2,-17.315,199.926,1.0
9.5166,128.181514,37.941752,6427.7449295999995,22.819,-17.243,199.972,1.0
9.5333,128.181499,37.941707,6425.7298968000005,21.612,-17.247,199.977,1.0
9.55,128.181484,37.941663,6423.7197408,20.573,-17.343,199.939,1.0
9.5666,128.181469,37.941618,6421.714156800001,19.691,-17.513,199.867,1.0
9.5833,128.181454,37.941573,6419.7122304,18.956,-17.738,199.772,1.0
9.6,128.181439,37.941528,6417.713352000001,18.355,-17.996,199.664,1.0
9.6166,128.181423,37.941484,6415.716912,17.877,-18.269,199.552,1.0
9.6333,128.181408,37.941439,6413.721996,17.514,-18.536,199.444,1.0
9.65,128.181393,37.941394,6411.7282992,17.257,-18.777,199.347,1.0
9.6666,128.181378,37.941349,6409.7349072,17.1,-18.985,199.263,1.0
9.6833,128.181362,37.941304,6407.7412104,17.04,-19.165,199.191,1.0
9.7,128.181347,37.94126,6405.7462944,17.074,-19.326,199.126,1.0
9.7166,128.181332,37.941215,6403.750464000001,17.2,-19.473,199.068,1.0
9.7333,128.181316,37.94117,6401.7534144,17.415,-19.609,199.013,1.0
9.75,128.181301,37.941125,6399.7548408,17.716,-19.737,198.962,1.0
9.7666,128.181286,37.94108,6397.7547432,18.102,-19.858,198.913,1.0
9.7833,128.18127,37.941035,6395.7528168,18.568,-19.974,198.865,1.0
9.8,128.181255,37.94099,6393.748756800001,19.112,-20.085,198.819,1.0
9.8166,128.181239,37.940945,6391.742868,19.733,-20.191,198.774,1.0
9.8333,128.181224,37.9409,6389.7345408,20.426,-20.293,198.73,1.0
9.85,128.181208,37.940855,6387.72408,21.19,-20.391,198.687,1.0
9.8666,128.181192,37.94081,6385.7111808,22.022,-20.486,198.645,1.0
9.8833,128.181177,37.940765,6383.6958432,22.921,-20.577,198.602,1.0
9.9,128.181161,37.94072,6381.6780672,23.884,-20.666,198.56,1.0
9.9166,128.181146,37.940675,6379.657548,24.909,-20.752,198.518,1.0
9.9333,128.18113,37.94063,6377.6342856,25.994,-20.836,198.476,1.0
9.95,128.181114,37.940585,6375.6082799999995,27.138,-20.918,198.434,1.0
9.9666,128.181099,37.94054,6373.5795312,28.338,-20.997,198.391,1.0
9.9833,128.181083,37.940495,6371.5480392,29.594,-21.075,198.348,1.0
10.0,128.181067,37.94045,6369.5131944,30.903,-21.151,198.305,1.0
10.0166,128.181051,37.940405,6367.475911200001,32.264,-21.226,198.261,1.0
10.0333,128.181036,37.94036,6365.4352751999995,33.675,-21.299,198.216,1.0
10.05,128.18102,37.940315,6363.3915912,35.136,-21.37,198.17,1.0
10.0666,128.181004,37.94027,6361.345164,36.645,-21.44,198.124,1.0
10.0833,128.180988,37.940224,6359.295384000001,38.2,-21.509,198.077,1.0
10.1,128.180972,37.940179,6357.242556000001,39.801,-21.576,198.029,1.0
10.1166,128.180957,37.940134,6355.1863752,41.446,-21.642,197.98,1.0
10.1333,128.180941,37.940089,6353.127451200001,43.134,-21.707,197.93,1.0
10.15,128.180925,37.940044,6351.064869600001,44.865,-21.77,197.879,1.0
10.1666,128.180909,37.939998,6348.99924,46.636,-21.832,197.826,1.0
10.1833,128.180893,37.939953,6346.9302576,48.448,-21.893,197.773,1.0
10.2,128.180877,37.939908,6344.8579224000005,50.3,-21.952,197.719,1.0
10.2166,128.180861,37.939863,6342.7822344,52.19,-22.009,197.664,1.0
10.2333,128.180845,37.939817,6340.7031936,54.117,-22.065,197.608,1.0
10.25,128.180829,37.939772,6338.620800000001,56.082,-22.119,197.55,1.0
10.2666,128.180813,37.939727,6336.5350536000005,58.082,-22.172,197.492,1.0
10.2833,128.180797,37.939681,6334.4456496,60.118,-22.223,197.433,1.0
10.3,128.180781,37.939636,6332.353197600001,62.189,-22.273,197.373,1.0
10.3166,128.180765,37.939591,6330.2567832,64.293,-22.32,197.312,1.0
10.3333,128.180749,37.939545,6328.1573208,66.431,-22.366,197.25,1.0
10.35,128.180733,37.9395,6326.053896,68.601,-22.41,197.188,1.0
10.3666,128.180717,37.939455,6323.9471184,70.803,-22.452,197.124,1.0
10.3833,128.180701,37.939409,6321.836988000001,73.036,-22.492,197.061,1.0
10.4,128.180685,37.939364,6319.7232,75.3,-22.53,196.997,1.0
10.4166,128.180668,37.939318,6317.6057544000005,77.594,-22.566,196.932,1.0
10.4333,128.180652,37.939273,6315.4846512,79.916,-22.599,196.869,1.0
10.45,128.180636,37.939228,6313.3601952,82.264,-22.629,196.816,1.0
10.4666,128.18062,37.939182,6311.2323864,84.633,-22.656,196.779,1.0
10.4833,128.180604,37.939137,6309.100920000001,87.022,-22.679,196.763,1.0
10.5,128.180588,37.939091,6306.965796,89.429,-22.701,196.769,1.0
10.5166,128.180572,37.939046,6304.8276240000005,91.853,-22.722,196.798,1.0
10.5333,128.180555,37.939,6302.6854896,94.294,-22.745,196.851,1.0
10.55,128.180539,37.938955,6300.5400024,96.749,-22.771,196.926,1.0
10.5666,128.180523,37.938909,6298.3911624,99.219,-22.802,197.022,1.0
10.5833,128.180507,37.938864,6296.23836,101.702,-22.84,197.14,1.0
10.6,128.18049,37.938818,6294.0819,104.186,-22.886,197.278,1.0
10.6166,128.180474,37.938772,6291.9211728,106.649,-22.941,197.437,1.0
10.6333,128.180458,37.938727,6289.756483200001,109.074,-23.004,197.616,1.0
10.65,128.180441,37.938681,6287.5869168,111.442,-23.078,197.813,1.0
10.6666,128.180425,37.938636,6285.4124736,113.735,-23.164,198.029,1.0
10.6833,128.180408,37.93859,6283.232544,115.941,-23.263,198.261,1.0
10.7,128.180391,37.938545,6281.0468232,118.048,-23.377,198.507,1.0
10.7166,128.180375,37.938499,6278.854701600001,120.047,-23.507,198.767,1.0
10.7333,128.180358,37.938454,6276.6558744,121.933,-23.653,199.039,1.0
10.75,128.180341,37.938409,6274.4494272,123.703,-23.815,199.319,1.0
10.7666,128.180324,37.938363,6272.235055200001,125.356,-23.994,199.608,1.0
10.7833,128.180307,37.938318,6270.0127584,126.893,-24.189,199.902,1.0
10.8,128.18029,37.938273,6267.7813176,128.316,-24.398,200.199,1.0
10.8166,128.180272,37.938228,6265.541037600001,129.631,-24.622,200.499,1.0
10.8333,128.180255,37.938182,6263.291004000001,130.84,-24.858,200.799,1.0
10.85,128.180238,37.938137,6261.030912,131.952,-25.105,201.098,1.0
10.8666,128.18022,37.938092,6258.760456800001,132.972,-25.363,201.395,1.0
10.8833,128.180202,37.938047,6256.479333600001,133.907,-25.628,201.687,1.0
10.9,128.180185,37.938002,6254.187237600001,134.765,-25.897,201.971,1.0
10.9166,128.180167,37.937957,6251.883864,135.556,-26.165,202.242,1.0
10.9333,128.180149,37.937913,6249.568908,136.284,-26.43,202.499,1.0
10.95,128.180131,37.937868,6247.242064800001,136.958,-26.691,202.742,1.0
10.9666,128.180113,37.937823,6244.9033344,137.582,-26.947,202.971,1.0
10.9833,128.180094,37.937778,6242.552412,138.162,-27.198,203.187,1.0
11.0,128.180076,37.937734,6240.188688000001,138.702,-27.445,203.392,1.0
11.0166,128.180058,37.937689,6237.812772,139.206,-27.688,203.587,1.0
11.0333,128.180039,37.937645,6235.4237496000005,139.679,-27.927,203.772,1.0
11.05,128.180021,37.9376,6233.0219256,140.123,-28.162,203.948,1.0
11.0666,128.180002,37.937556,6230.6069952,140.541,-28.393,204.116,1.0
11.0833,128.179983,37.937512,6228.1789584,140.936,-28.621,204.278,1.0
11.1,128.179964,37.937468,6225.738424800001,141.408,-28.851,204.426,1.0
11.1166,128.179946,37.937424,6223.2853944,141.952,-29.082,204.56,1.0
11.1333,128.179927,37.93738,6220.8198672,142.554,-29.312,204.687,1.0
11.15,128.179907,37.937336,6218.341538400001,143.198,-29.538,204.808,1.0
11.1666,128.179888,37.937292,6215.8501032,143.87,-29.761,204.927,1.0
11.1833,128.179869,37.937248,6213.3446472000005,144.554,-29.98,205.044,1.0
11.2,128.17985,37.937204,6210.8254752,145.236,-30.195,205.159,1.0
11.2166,128.179831,37.93716,6208.291977600001,145.904,-30.408,205.271,1.0
11.2333,128.179811,37.937117,6205.7441544,146.55,-30.619,205.379,1.0
11.25,128.179792,37.937073,6203.181700800001,147.168,-30.829,205.484,1.0
11.2666,128.179772,37.93703,6200.6046168,147.753,-31.038,205.586,1.0
11.2833,128.179752,37.936986,6198.012597600001,148.304,-31.246,205.685,1.0
11.3,128.179733,37.936943,6195.4056432,148.82,-31.455,205.78,1.0
11.3166,128.179713,37.9369,6192.7837536,149.302,-31.663,205.872,1.0
11.3333,128.179693,37.936857,6190.146928800001,149.75,-31.872,205.961,1.0
11.35,128.179673,37.936814,6187.494864,150.167,-32.081,206.048,1.0
11.3666,128.179653,37.936771,6184.8275592,150.554,-32.29,206.132,1.0
11.3833,128.179633,37.936728,6182.145014400001,150.916,-32.499,206.215,1.0
11.4,128.179613,37.936685,6179.4475344,151.255,-32.706,206.298,1.0
11.4166,128.179593,37.936643,6176.734509600001,151.571,-32.913,206.381,1.0
11.4333,128.179573,37.9366,6174.006549600001,151.866,-33.12,206.461,1.0
11.45,128.179553,37.936558,6171.2630448,152.141,-33.326,206.54,1.0
11.4666,128.179532,37.936515,6168.5043000000005,152.398,-33.532,206.618,1.0
11.4833,128.179512,37.936473,6165.7303152,152.638,-33.738,206.694,1.0
11.5,128.179491,37.936431,6162.941090400001,152.864,-33.943,206.768,1.0
11.5166,128.179471,37.936388,6160.1366256,153.077,-34.148,206.841,1.0
11.5333,128.179451,37.936346,6157.316616,153.279,-34.352,206.912,1.0
11.55,128.17943,37.936304,6154.4813664,153.469,-34.557,206.983,1.0
11.5666,128.179409,37.936262,6151.6308768,153.651,-34.76,207.052,1.0
11.5833,128.179389,37.936221,6148.764842400001,153.824,-34.963,207.121,1.0
11.6,128.179368,37.936179,6145.883568,153.989,-35.166,207.188,1.0
11.6166,128.179347,37.936137,6142.9870536,154.147,-35.368,207.255,1.0
11.6333,128.179327,37.936096,6140.0749944,154.299,-35.57,207.321,1.0
11.65,128.179306,37.936054,6137.1476952,154.445,-35.771,207.387,1.0
11.6666,128.179285,37.936013,6134.204851200001,154.586,-35.971,207.452,1.0
11.6833,128.179264,37.935972,6131.2467672,154.721,-36.171,207.516,1.0
11.7,128.179243,37.935931,6128.273138400001,154.852,-36.371,207.58,1.0
11.7166,128.179222,37.93589,6125.284269600001,154.979,-36.57,207.643,1.0
11.7333,128.179201,37.935849,6122.280160800001,155.101,-36.769,207.706,1.0
11.75,128.17918,37.935808,6119.2605072,155.22,-36.967,207.769,1.0
11.7666,128.179159,37.935767,6116.225308800001,155.334,-37.165,207.831,1.0
11.7833,128.179138,37.935726,6113.174870400001,155.446,-37.363,207.894,1.0
11.8,128.179117,37.935686,6110.109192000001,155.554,-37.56,207.955,1.0
11.8166,128.179095,37.935645,6107.0279688,155.659,-37.756,208.017,1.0
11.8333,128.179074,37.935605,6103.9315056000005,155.761,-37.953,208.079,1.0
11.85,128.179053,37.935565,6100.8194976,155.86,-38.149,208.14,1.0
11.8666,128.179032,37.935524,6097.692249600001,155.956,-38.345,208.201,1.0
11.8833,128.17901,37.935484,6094.5497616,156.05,-38.54,208.263,1.0
11.9,128.178989,37.935444,6091.3917288,156.141,-38.735,208.324,1.0
11.9166,128.178968,37.935404,6088.2184560000005,156.229,-38.93,208.385,1.0
11.9333,128.178946,37.935365,6085.029638400001,156.316,-39.125,208.446,1.0
11.95,128.178925,37.935325,6081.8255808,156.399,-39.32,208.507,1.0
11.9666,128.178903,37.935285,6078.606283200001,156.481,-39.514,208.568,1.0
11.9833,128.178882,37.935246,6075.3717456,156.56,-39.708,208.629,1.0
12.0,128.17886,37.935206,6072.121968,156.637,-39.901,208.69,1.0
12.0166,128.178839,37.935167,6068.856645600001,156.712,-40.095,208.751,1.0
12.0333,128.178817,37.935128,6065.576388,156.785,-40.288,208.812,1.0
12.05,128.178796,37.935089,6062.2805856,156.855,-40.481,208.874,1.0
12.0666,128.178774,37.93505,6058.9695432,156.924,-40.674,208.935,1.0
12.0833,128.178752,37.935011,6055.6432608000005,156.991,-40.867,208.996,1.0
12.1,128.178731,37.934972,6052.302043199999,157.056,-41.06,209.058,1.0
12.1166,128.178709,37.934933,6048.9452808,157.119,-41.252,209.12,1.0
12.1333,128.178687,37.934895,6045.573583200001,157.18,-41.444,209.182,1.0
12.15,128.178666,37.934856,6042.186645600001,157.24,-41.636,209.244,1.0
12.1666,128.178644,37.934818,6038.784468,157.297,-41.828,209.306,1.0
12.1833,128.178622,37.93478,6035.3670504,157.353,-42.02,209.369,1.0
12.2,128.1786,37.934741,6031.934697600001,157.407,-42.212,209.432,1.0
12.2166,128.178578,37.934703,6028.4871048,157.46,-42.403,209.495,1.0
12.2333,128.178557,37.934665,6025.0245768,157.511,-42.595,209.558,1.0
12.25,128.178535,37.934628,6021.5468088,157.56,-42.786,209.621,1.0
12.2666,128.178513,37.93459,6018.0538008,157.607,-42.977,209.685,1.0
12.2833,128.178491,37.934552,6014.5461624,157.653,-43.168,209.749,1.0
12.3,128.178469,37.934515,6011.023284000001,157.698,-43.359,209.813,1.0
12.3166,128.178447,37.934477,6007.485470400001,157.74,-43.549,209.877,1.0
12.3333,128.178425,37.93444,6003.9327216,157.782,-43.74,209.942,1.0
12.35,128.178403,37.934403,6000.364732800001,157.822,-43.93,210.007,1.0
12.3666,128.178381,37.934366,5996.7821136,157.86,-44.121,210.072,1.0
12.3833,128.17836,37.934329,5993.1842544,157.897,-44.311,210.138,1.0
12.4,128.178338,37.934292,5989.571764800001,157.932,-44.501,210.204,1.0
12.4166,128.178316,37.934255,5985.94434,157.966,-44.691,210.27,1.0
12.4333,128.178294,37.934218,5982.30198,157.998,-44.881,210.336,1.0
12.45,128.178272,37.934182,5978.6449896,158.029,-45.071,210.403,1.0
12.4666,128.17825,37.934145,5974.9727592,158.059,-45.261,210.471,1.0
12.4833,128.178228,37.934109,5971.2862032,158.087,-45.451,210.538,1.0
12.5,128.178206,37.934073,5967.5844072,158.113,-45.64,210.606,1.0
12.5166,128.178183,37.934036,5963.8682856000005,158.139,-45.83,210.674,1.0
12.5333,128.178161,37.934,5960.1372288,158.163,-46.019,210.743,1.0
12.55,128.178139,37.933965,5956.391541600001,158.185,-46.208,210.812,1.0
12.5666,128.178117,37.933929,5952.630919200001,158.207,-46.397,210.882,1.0
12.5833,128.178095,37.933893,5948.8559712,158.227,-46.587,210.952,1.0
12.6,128.178073,37.933858,5945.0663928,158.245,-46.776,211.022,1.0
12.6166,128.178051,37.933822,5941.261879200001,158.263,-46.965,211.093,1.0
12.6333,128.178029,37.933787,5937.44304,158.279,-47.153,211.164,1.0
12.65,128.178007,37.933752,5933.609570400001,158.293,-47.342,211.236,1.0
12.6666,128.177985,37.933716,5929.7617752,158.307,-47.531,211.308,1.0
12.6833,128.177963,37.933682,5925.8990448,158.319,-47.72,211.38,1.0
12.7,128.177941,37.933647,5922.0222936,158.33,-47.908,211.453,1.0
12.7166,128.177919,37.933612,5918.1306072,158.339,-48.096,211.527,1.0
12.7333,128.177897,37.933577,5914.2249,158.347,-48.285,211.601,1.0
12.75,128.177875,37.933543,5910.3045624,158.354,-48.473,211.675,1.0
12.7666,128.177852,37.933508,5906.3698992,158.36,-48.661,211.75,1.0
12.7833,128.17783,37.933474,5902.420910400001,158.365,-48.849,211.826,1.0
12.8,128.177808,37.93344,5898.457596,158.368,-49.037,211.902,1.0
12.8166,128.177786,37.933406,5894.480260800001,158.37,-49.225,211.978,1.0
12.8333,128.177764,37.933372,5890.4882952,158.371,-49.413,212.055,1.0
12.85,128.177742,37.933338,5886.4823088,158.371,-49.601,212.133,1.0
12.8666,128.17772,37.933304,5882.461996800001,158.369,-49.788,212.211,1.0
12.8833,128.177698,37.933271,5878.4273592,158.366,-49.976,212.289,1.0
12.9,128.177676,37.933237,5874.378700800001,158.362,-50.163,212.369,1.0
12.9166,128.177654,37.933204,5870.3160216,158.357,-50.351,212.448,1.0
12.9333,128.177632,37.933171,5866.2390168,158.35,-50.538,212.529,1.0
12.95,128.17761,37.933138,5862.148296,158.342,-50.725,212.61,1.0
12.9666,128.177588,37.933105,5858.0432496,158.333,-50.912,212.691,1.0
12.9833,128.177566,37.933072,5853.924487200001,158.323,-51.099,212.773,1.0
13.0,128.177543,37.933039,5849.7913992,158.312,-51.286,212.856,1.0
13.0166,128.177521,37.933007,5845.6445952,158.299,-51.473,212.94,1.0
13.0333,128.177499,37.932974,5841.483770400001,158.285,-51.66,213.024,1.0
13.0499,128.177477,37.932942,5837.3092295999995,158.27,-51.847,213.108,1.0
13.0666,128.177455,37.93291,5833.1206680000005,158.254,-52.033,213.194,1.0
13.0833,128.177433,37.932878,5828.9183904,158.237,-52.22,213.28,1.0
13.1,128.177411,37.932846,5824.7023968,158.218,-52.407,213.367,1.0
13.1166,128.177389,37.932814,5820.4723824,158.198,-52.593,213.454,1.0
13.1333,128.177368,37.932782,5816.228956800001,158.177,-52.779,213.542,1.0
13.15,128.177346,37.93275,5811.971510400001,158.155,-52.966,213.631,1.0
13.1666,128.177324,37.932719,5807.7006528,158.131,-53.152,213.721,1.0
13.1833,128.177302,37.932688,5803.416384000001,158.106,-53.338,213.811,1.0
13.2,128.17728,37.932656,5799.1180944,158.08,-53.524,213.902,1.0
13.2166,128.177258,37.932625,5794.8063936,158.053,-53.71,213.994,1.0
13.2333,128.177236,37.932594,5790.4812816,158.024,-53.896,214.087,1.0
13.25,128.177214,37.932563,5786.1427584,157.994,-54.082,214.18,1.0
13.2666,128.177192,37.932533,5781.790519200001,157.963,-54.268,214.275,1.0
13.2833,128.17717,37.932502,5777.424868800001,157.931,-54.454,214.37,1.0
13.3,128.177149,37.932472,5773.046112,157.898,-54.639,214.466,1.0
13.3166,128.177127,37.932441,5768.6536392,157.863,-54.825,214.562,1.0
13.3333,128.177105,37.932411,5764.248060000001,157.827,-55.01,214.66,1.0
13.35,128.177083,37.932381,5759.829374400001,157.789,-55.196,214.759,1.0
13.3666,128.177061,37.932351,5755.3972776,157.751,-55.381,214.858,1.0
13.3833,128.17704,37.932321,5750.9517696,157.711,-55.566,214.958,1.0
13.4,128.177018,37.932292,5746.493460000001,157.669,-55.752,215.059,1.0
13.4166,128.176996,37.932262,5742.0217391999995,157.627,-55.937,215.162,1.0
13.4333,128.176975,37.932233,5737.536912,157.583,-56.122,215.265,1.0
13.45,128.176953,37.932204,5733.039283200001,157.538,-56.307,215.369,1.0
13.4666,128.176931,37.932174,5728.528548,157.491,-56.492,215.474,1.0
13.4833,128.17691,37.932145,5724.004706400001,157.443,-56.676,215.58,1.0
13.5,128.176888,37.932116,5719.4677584,157.394,-56.861,215.687,1.0
13.5166,128.176866,37.932088,5714.9183136,157.343,-57.046,215.795,1.0
13.5333,128.176845,37.932059,5710.3557624,157.291,-57.23,215.904,1.0
13.55,128.176823,37.932031,5705.7804096,157.238,-57.415,216.015,1.0
13.5666,128.176802,37.932002,5701.192255200001,157.183,-57.599,216.126,1.0
13.5833,128.17678,37.931974,5696.5912992,157.127,-57.784,216.238,1.0
13.6,128.176759,37.931946,5691.9775416,157.069,-57.968,216.352,1.0
13.6166,128.176737,37.931918,5687.3512872,157.01,-58.152,216.466,1.0
13.6333,128.176716,37.93189,5682.7122312,156.95,-58.336,216.582,1.0
13.65,128.176694,37.931863,5678.0606784,156.888,-58.52,216.699,1.0
13.6666,128.176673,37.931835,5673.396324,156.825,-58.704,216.818,1.0
13.6833,128.176652,37.931808,5668.7197776,156.76,-58.888,216.937,1.0
13.7,128.17663,37.93178,5664.0304295999995,156.693,-59.072,217.058,1.0
13.7166,128.176609,37.931753,5659.3288896,156.625,-59.255,217.18,1.0
13.7333,128.176588,37.931726,5654.614852799999,156.556,-59.439,217.303,1.0
13.75,128.176566,37.9317,5649.8883192,156.485,-59.622,217.427,1.0
13.7666,128.176545,37.931673,5645.1495936,156.412,-59.806,217.553,1.0
13.7833,128.176524,37.931646,5640.398676,156.338,-59.989,217.68,1.0
13.8,128.176503,37.93162,5635.6352615999995,156.262,-60.172,217.809,1.0
13.8166,128.176482,37.931594,5630.859960000001,156.185,-60.355,217.939,1.0
13.8333,128.176461,37.931567,5626.0721616,156.106,-60.538,218.07,1.0
13.85,128.176439,37.931541,5621.272476,156.025,-60.721,218.203,1.0
13.8666,128.176418,37.931516,5616.4605984,155.942,-60.904,218.338,1.0
13.8833,128.176397,37.93149,5611.6368336000005,155.858,-61.087,218.473,1.0
13.9,128.176376,37.931464,5606.8008768,155.772,-61.269,218.611,1.0
13.9166,128.176355,37.931439,5601.9530328,155.685,-61.452,218.75,1.0
13.9333,128.176334,37.931413,5597.093301600001,155.595,-61.634,218.89,1.0
13.95,128.176314,37.931388,5592.2216832,155.504,-61.816,219.033,1.0
13.9666,128.176293,37.931363,5587.338177600001,155.411,-61.998,219.176,1.0
13.9833,128.176272,37.931338,5582.4430896,155.316,-62.18,219.322,1.0
14.0,128.176251,37.931314,5577.536114400001,155.219,-62.362,219.469,1.0
14.0166,128.17623,37.931289,5572.617556800001,155.12,-62.544,219.618,1.0
14.0333,128.17621,37.931265,5567.687112,155.019,-62.726,219.769,1.0
14.05,128.176189,37.93124,5562.7453896,154.917,-62.907,219.921,1.0
14.0666,128.176168,37.931216,5557.79178,154.812,-63.088,220.076,1.0
14.0833,128.176148,37.931192,5552.826892800001,154.705,-63.27,220.232,1.0
14.1,128.176127,37.931168,5547.8504232000005,154.596,-63.451,220.39,1.0
14.1166,128.176106,37.931145,5542.8623712,154.485,-63.632,220.551,1.0
14.1333,128.176086,37.931121,5537.8633464,154.372,-63.813,220.713,1.0
14.15,128.176065,37.931098,5532.8527392,154.257,-63.993,220.877,1.0
14.1666,128.176045,37.931074,5527.8308544,154.139,-64.174,221.043,1.0
14.1833,128.176024,37.931051,5522.797692,154.019,-64.354,221.212,1.0
14.2,128.176004,37.931028,5517.753252,153.897,-64.534,221.383,1.0
14.2166,128.175984,37.931006,5512.6978392,153.773,-64.715,221.555,1.0
14.2333,128.175963,37.930983,5507.6314536,153.646,-64.894,221.731,1.0
14.25,128.175943,37.93096,5502.5537904,153.517,-65.074,221.908,1.0
14.2666,128.175923,37.930938,5497.4651544,153.385,-65.254,222.088,1.0
14.2833,128.175903,37.930916,5492.365545600001,153.251,-65.433,222.27,1.0
14.3,128.175883,37.930894,5487.254964000001,153.114,-65.612,222.454,1.0
14.3166,128.175862,37.930872,5482.133714400001,152.975,-65.792,222.642,1.0
14.3333,128.175842,37.93085,5477.001492,152.833,-65.97,222.831,1.0
14.35,128.175822,37.930828,5471.858296800001,152.688,-66.149,223.024,1.0
14.3666,128.175802,37.930807,5466.704738400001,152.541,-66.328,223.218,1.0
14.3833,128.175782,37.930785,5461.5402072,152.391,-66.506,223.416,1.0
