Time,Longitude,Latitude,Altitude,Roll (deg),Pitch (deg),Yaw (deg),Health
0.0,128.181881,37.923646,7000.146528,0.0,-0.003,0.0,1.0
0.0166,128.181881,37.923691,7000.1605488000005,0.0,-0.012,0.0,1.0
0.0333,128.181881,37.923736,7000.173960000001,0.0,-0.025,0.0,1.0
0.05,128.181881,37.923781,7000.186152000001,0.0,-0.039,0.0,1.0
0.0666,128.181881,37.923826,7000.1977344,0.0,-0.054,0.0,1.0
0.0833,128.181881,37.923871,7000.2084024,0.0,-0.071,0.0,1.0
0.1,128.181881,37.923916,7000.218156000001,0.0,-0.087,0.0,1.0
0.1166,128.181881,37.923961,7000.226995200001,0.0,-0.104,0.0,1.0
0.1333,128.181881,37.924006,7000.2355296,-0.005,-0.12,359.999,1.0
0.15,128.181881,37.924051,7000.243454400001,-0.015,-0.134,359.997,1.0
0.1666,128.181881,37.924096,7000.2504648,-0.031,-0.148,359.996,1.0
0.1833,128.181881,37.924141,7000.2565608,-0.051,-0.161,359.994,1.0
0.2,128.181881,37.924186,7000.262047200001,-0.075,-0.173,359.991,1.0
0.2166,128.181881,37.924231,7000.2669240000005,-0.103,-0.185,359.99,1.0
0.2333,128.181881,37.924276,7000.2711912,-0.136,-0.196,359.987,1.0
0.25,128.181881,37.924321,7000.274544,-0.174,-0.206,359.983,1.0
0.2666,128.181881,37.924366,7000.277592,-0.217,-0.215,359.98,1.0
0.2833,128.181881,37.924411,7000.2794208,-0.264,-0.223,359.976,1.0
0.3,128.181881,37.924456,7000.2809448,-0.315,-0.231,359.972,1.0
0.3166,128.181881,37.924501,7000.2815544000005,-0.37,-0.238,359.968,1.0
0.3333,128.181881,37.924546,7000.2800304,-0.327,-0.249,359.967,1.0
0.35,128.181881,37.924591,7000.276982400001,-0.189,-0.263,359.968,1.0
0.3666,128.181881,37.924636,7000.2718008,0.033,-0.279,359.97,1.0
0.3833,128.181881,37.924681,7000.263876,0.329,-0.297,359.97,1.0
0.4,128.181881,37.924727,7000.2529032,0.689,-0.317,359.97,1.0
0.4166,128.181881,37.924772,7000.238882400001,1.102,-0.338,359.967,1.0
0.4333,128.181881,37.924817,7000.2233376,1.413,-0.358,359.952,1.0
0.45,128.181881,37.924862,7000.205964000001,1.624,-0.379,359.926,1.0
0.4666,128.181881,37.924907,7000.1873712,1.732,-0.4,359.894,1.0
0.4833,128.181881,37.924953,7000.1675592,1.736,-0.42,359.858,1.0
0.5,128.181881,37.924998,7000.147137600001,1.637,-0.44,359.822,1.0
0.5166,128.181881,37.925043,7000.126411200001,1.437,-0.46,359.785,1.0
0.5333,128.181881,37.925088,7000.1056848,1.14,-0.48,359.749,1.0
0.55,128.181881,37.925133,7000.085263200001,0.749,-0.499,359.715,1.0
0.5666,128.181881,37.925179,7000.065756000001,0.269,-0.517,359.681,1.0
0.5833,128.181881,37.925224,7000.0471632,-0.296,-0.535,359.648,1.0
0.6,128.181881,37.925269,7000.0300944,-0.945,-0.552,359.617,1.0
0.6166,128.181881,37.925314,7000.0145496000005,-1.672,-0.569,359.586,1.0
0.6333,128.181881,37.92536,7000.001138400001,-2.474,-0.585,359.557,1.0
0.65,128.181881,37.925405,6999.990165600001,-3.349,-0.601,359.528,1.0
0.6666,128.181881,37.92545,6999.9813264,-4.292,-0.616,359.501,1.0
0.6833,128.181881,37.925495,6999.974316,-5.302,-0.63,359.474,1.0
0.7,128.181881,37.925541,6999.9694392,-6.375,-0.644,359.449,1.0
0.7166,128.181881,37.925586,6999.9663912000005,-7.508,-0.657,359.424,1.0
0.7333,128.181881,37.925631,6999.9654768,-8.699,-0.67,359.4,1.0
0.75,128.181881,37.925676,6999.966086400001,-9.946,-0.683,359.377,1.0
0.7666,128.181881,37.925722,6999.9688295999995,-11.245,-0.695,359.355,1.0
0.7833,128.181881,37.925767,6999.973401600001,-12.595,-0.707,359.334,1.0
0.8,128.181881,37.925812,6999.979497600001,-13.993,-0.719,359.313,1.0
0.8166,128.181881,37.925858,6999.9874224000005,-15.437,-0.731,359.294,1.0
0.8333,128.18188,37.925903,6999.995956800001,-16.907,-0.743,359.276,1.0
0.85,128.18188,37.925948,7000.005405600001,-18.396,-0.754,359.261,1.0
0.8666,128.18188,37.925993,7000.015464,-19.899,-0.765,359.247,1.0
0.8833,128.18188,37.926039,7000.026132,-21.414,-0.776,359.236,1.0
0.9,128.18188,37.926084,7000.037104800001,-22.937,-0.788,359.225,1.0
0.9166,128.18188,37.926129,7000.048992000001,-24.466,-0.799,359.216,1.0
0.9333,128.18188,37.926175,7000.0602696000005,-25.963,-0.809,359.21,1.0
0.95,128.181879,37.92622,7000.0709376,-27.426,-0.819,359.207,1.0
0.9666,128.181879,37.926265,7000.080691200001,-28.859,-0.828,359.206,1.0
0.9833,128.181879,37.926311,7000.09014,-30.264,-0.838,359.206,1.0
1.0,128.181879,37.926356,7000.0995888,-31.645,-0.848,359.206,1.0
1.0166,128.181878,37.926401,7000.108123200001,-33.004,-0.858,359.206,1.0
1.0333,128.181878,37.926447,7000.115438400001,-34.306,-0.868,359.209,1.0
1.05,128.181878,37.926492,7000.1215344,-35.555,-0.877,359.213,1.0
1.0666,128.181877,37.926537,7000.125801600001,-36.758,-0.885,359.218,1.0
1.0833,128.181877,37.926583,7000.1294592,-37.919,-0.895,359.224,1.0
1.1,128.181877,37.926628,7000.1322024,-39.045,-0.904,359.229,1.0
1.1166,128.181876,37.926674,7000.1340312,-40.141,-0.915,359.233,1.0
1.1333,128.181876,37.926719,7000.1337264,-41.164,-0.924,359.24,1.0
1.15,128.181876,37.926764,7000.1315928,-42.12,-0.932,359.248,1.0
1.1666,128.181875,37.92681,7000.1270208,-43.016,-0.939,359.257,1.0
1.1833,128.181875,37.926855,7000.1215344,-43.861,-0.947,359.267,1.0
1.2,128.181874,37.926901,7000.114219200001,-44.661,-0.956,359.275,1.0
1.2166,128.181874,37.926946,7000.1056848,-45.424,-0.966,359.283,1.0
1.2333,128.181874,37.926992,7000.094102399999,-46.051,-0.971,359.294,1.0
1.25,128.181873,37.927037,7000.0803864,-46.546,-0.973,359.31,1.0
1.2666,128.181873,37.927083,7000.063927200001,-46.912,-0.972,359.329,1.0
1.2833,128.181872,37.927128,7000.044724800001,-47.151,-0.97,359.349,1.0
1.3,128.181872,37.927174,7000.022474400001,-47.264,-0.968,359.369,1.0
1.3166,128.181871,37.927219,6999.9968712,-47.258,-0.967,359.389,1.0
1.3333,128.181871,37.927265,6999.967915200001,-47.138,-0.966,359.41,1.0
1.35,128.181871,37.92731,6999.934996800001,-46.91,-0.964,359.431,1.0
1.3666,128.18187,37.927356,6999.898115999999,-46.577,-0.963,359.453,1.0
1.3833,128.18187,37.927401,6999.8572728,-46.143,-0.963,359.475,1.0
1.4,128.181869,37.927447,6999.812772,-45.611,-0.964,359.497,1.0
1.4166,128.181869,37.927493,6999.7646136,-44.986,-0.966,359.519,1.0
1.4333,128.181869,37.927538,6999.712188,-44.283,-0.965,359.545,1.0
1.45,128.181868,37.927584,6999.6561048,-43.508,-0.961,359.576,1.0
1.4666,128.181868,37.92763,6999.596668800001,-42.667,-0.955,359.609,1.0
1.4833,128.181868,37.927675,6999.53388,-41.77,-0.95,359.642,1.0
1.5,128.181867,37.927721,6999.468347999999,-40.822,-0.946,359.676,1.0
1.5166,128.181867,37.927767,6999.399768,-39.832,-0.944,359.708,1.0
1.5333,128.181867,37.927812,6999.3272256,-38.774,-0.942,359.741,1.0
1.55,128.181866,37.927858,6999.2507208,-37.652,-0.94,359.777,1.0
1.5666,128.181866,37.927904,6999.1705584,-36.467,-0.939,359.814,1.0
1.5833,128.181866,37.92795,6999.086738400001,-35.222,-0.939,359.851,1.0
1.6,128.181865,37.927995,6998.998956,-33.918,-0.941,359.888,1.0
1.6166,128.181865,37.928041,6998.907516,-32.558,-0.945,359.925,1.0
1.6333,128.181865,37.928087,6998.814856800001,-31.324,-0.95,359.935,1.0
1.65,128.181865,37.928133,6998.7197592,-30.214,-0.945,359.911,1.0
1.6666,128.181864,37.928179,6998.622832800001,-29.235,-0.911,359.854,1.0
1.6833,128.181864,37.928225,6998.5252968,-28.394,-0.834,359.765,1.0
1.7,128.181864,37.92827,6998.426846400001,-27.692,-0.722,359.654,1.0
1.7166,128.181863,37.928316,6998.3277864,-27.128,-0.585,359.531,1.0
1.7333,128.181863,37.928362,6998.2290312000005,-26.698,-0.438,359.404,1.0
1.75,128.181863,37.928408,6998.1305808,-26.398,-0.294,359.282,1.0
1.7666,128.181862,37.928454,6998.0330448,-26.223,-0.167,359.17,1.0
1.7833,128.181862,37.9285,6997.936423200001,-26.167,-0.069,359.076,1.0
1.8,128.181861,37.928546,6997.840716,-26.225,-0.013,359.004,1.0
1.8166,128.181861,37.928592,6997.746837600001,-26.391,-0.002,358.956,1.0
1.8333,128.181861,37.928638,6997.654788000001,-26.661,-0.025,358.927,1.0
1.85,128.18186,37.928684,6997.5651768,-27.029,-0.071,358.909,1.0
1.8666,128.181859,37.928729,6997.4780040000005,-27.492,-0.13,358.9,1.0
1.8833,128.181859,37.928775,6997.393574400001,-28.046,-0.196,358.896,1.0
1.9,128.181858,37.928821,6997.311888000001,-28.687,-0.266,358.895,1.0
1.9166,128.181858,37.928867,6997.2332496,-29.413,-0.336,358.895,1.0
1.9333,128.181857,37.928913,6997.1570496,-30.219,-0.406,358.896,1.0
1.95,128.181856,37.928959,6997.083288000001,-31.102,-0.473,358.897,1.0
1.9666,128.181856,37.929005,6997.011964800001,-32.061,-0.538,358.897,1.0
1.9833,128.181855,37.929051,6996.942470400001,-33.092,-0.599,358.898,1.0
2.0,128.181854,37.929097,6996.8754144,-34.192,-0.658,358.898,1.0
2.0166,128.181853,37.929143,6996.810187200001,-35.359,-0.713,358.897,1.0
2.0333,128.181852,37.929189,6996.746484000001,-36.589,-0.765,358.896,1.0
2.05,128.181851,37.929235,6996.684609600001,-37.881,-0.815,358.894,1.0
2.0666,128.18185,37.929281,6996.6239544,-39.232,-0.861,358.892,1.0
2.0833,128.181849,37.929327,6996.5648232,-40.64,-0.905,358.89,1.0
2.1,128.181848,37.929373,6996.506911200001,-42.102,-0.947,358.887,1.0
2.1166,128.181847,37.929419,6996.4502184,-43.616,-0.986,358.883,1.0
2.1333,128.181846,37.929465,6996.3941352,-45.179,-1.023,358.879,1.0
2.15,128.181845,37.929511,6996.3389664,-46.791,-1.058,358.875,1.0
2.1666,128.181844,37.929557,6996.284712,-48.449,-1.091,358.871,1.0
2.1833,128.181843,37.929603,6996.2304576,-50.151,-1.123,358.866,1.0
2.2,128.181841,37.929649,6996.1768128,-51.895,-1.154,358.861,1.0
2.2166,128.18184,37.929695,6996.1234728,-53.681,-1.183,358.856,1.0
2.2333,128.181839,37.929741,6996.0701328000005,-55.506,-1.208,358.847,1.0
2.25,128.181837,37.929787,6996.017097600001,-57.368,-1.23,358.834,1.0
2.2666,128.181836,37.929833,6995.9634528,-59.266,-1.249,358.818,1.0
2.2833,128.181834,37.929879,6995.909808,-61.199,-1.266,358.801,1.0
2.3,128.181833,37.929925,6995.8555536,-63.166,-1.283,358.782,1.0
2.3166,128.181831,37.929971,6995.8006896,-65.163,-1.299,358.762,1.0
2.3333,128.18183,37.930017,6995.745216,-67.191,-1.308,358.729,1.0
2.35,128.181828,37.930063,6995.6891328,-69.247,-1.307,358.669,1.0
2.3666,128.181826,37.930109,6995.63244,-71.329,-1.293,358.568,1.0
2.3833,128.181825,37.930155,6995.574832800001,-73.437,-1.267,358.429,1.0
2.4,128.181823,37.930201,6995.516006400001,-75.568,-1.236,358.261,1.0
2.4166,128.181821,37.930247,6995.456265600001,-77.72,-1.205,358.075,1.0
2.4333,128.181819,37.930293,6995.394696,-79.79,-1.166,357.86,1.0
2.45,128.181817,37.930339,6995.331297600001,-81.773,-1.119,357.602,1.0
2.4666,128.181815,37.930385,6995.26668,-83.676,-1.069,357.29,1.0
2.4833,128.181813,37.930431,6995.2002336000005,-85.507,-1.023,356.937,1.0
2.5,128.18181,37.930477,6995.1316536,-87.276,-0.986,356.56,1.0
2.5166,128.181808,37.930523,6995.0612448,-88.991,-0.961,356.175,1.0
2.5333,128.181806,37.930569,6994.987788,-90.531,-0.94,355.77,1.0
2.55,128.181803,37.930615,6994.912197600001,-91.904,-0.926,355.333,1.0
2.5666,128.181801,37.930661,6994.833864,-93.129,-0.921,354.872,1.0
2.5833,128.181798,37.930707,6994.753092000001,-94.228,-0.929,354.4,1.0
2.6,128.181795,37.930753,6994.6695768,-95.219,-0.951,353.931,1.0
2.6166,128.181793,37.930799,6994.5833184,-96.122,-0.985,353.471,1.0
2.6333,128.18179,37.930845,6994.4937072,-96.883,-1.024,353.039,1.0
2.65,128.181787,37.930892,6994.4007432,-97.51,-1.065,352.651,1.0
2.6666,128.181784,37.930938,6994.305036000001,-98.011,-1.105,352.323,1.0
2.6833,128.181781,37.930984,6994.205976,-98.39,-1.139,352.072,1.0
2.7,128.181778,37.93103,6994.103868,-98.655,-1.165,351.914,1.0
2.7166,128.181775,37.931076,6993.9990168,-98.811,-1.179,351.862,1.0
2.7333,128.181772,37.931122,6993.891727200001,-99.054,-1.192,351.912,1.0
2.75,128.181768,37.931168,6993.7810848,-99.383,-1.204,352.045,1.0
2.7666,128.181765,37.931214,6993.6670896,-99.802,-1.213,352.245,1.0
2.7833,128.181762,37.93126,6993.549741600001,-100.315,-1.217,352.493,1.0
2.8,128.181758,37.931307,6993.429040800001,-100.921,-1.216,352.771,1.0
2.8166,128.181755,37.931353,6993.3046824,-101.618,-1.212,353.062,1.0
2.8333,128.181751,37.931399,6993.1769712,-102.407,-1.206,353.349,1.0
2.85,128.181748,37.931445,6993.045297600001,-103.286,-1.203,353.615,1.0
2.8666,128.181744,37.931491,6992.9099664,-104.253,-1.204,353.844,1.0
2.8833,128.18174,37.931537,6992.7709776,-105.305,-1.211,354.039,1.0
2.9,128.181736,37.931584,6992.6277216,-106.442,-1.221,354.207,1.0
2.9166,128.181732,37.93163,6992.4805032,-107.66,-1.234,354.354,1.0
2.9333,128.181728,37.931676,6992.3293224,-108.957,-1.248,354.484,1.0
2.95,128.181724,37.931722,6992.1735696000005,-110.33,-1.263,354.601,1.0
2.9666,128.18172,37.931768,6992.0135496,-111.778,-1.279,354.706,1.0
2.9833,128.181716,37.931815,6991.8489576,-113.296,-1.295,354.802,1.0
3.0,128.181712,37.931861,6991.6794887999995,-114.882,-1.312,354.888,1.0
3.0166,128.181708,37.931907,6991.5051432,-116.534,-1.33,354.966,1.0
3.0333,128.181704,37.931953,6991.3259208,-118.25,-1.348,355.037,1.0
3.05,128.181699,37.931999,6991.1418216,-120.026,-1.367,355.101,1.0
3.0666,128.181695,37.932045,6990.9525408,-121.86,-1.387,355.159,1.0
3.0833,128.18169,37.932092,6990.758688000001,-123.749,-1.408,355.211,1.0
3.1,128.181686,37.932138,6990.5593488,-125.692,-1.429,355.258,1.0
3.1166,128.181681,37.932184,6990.3551328,-127.686,-1.452,355.3,1.0
3.1333,128.181677,37.93223,6990.1457352,-129.73,-1.476,355.338,1.0
3.15,128.181672,37.932276,6989.931156000001,-131.822,-1.502,355.372,1.0
3.1666,128.181667,37.932322,6989.7113952,-133.959,-1.529,355.403,1.0
3.1833,128.181663,37.932369,6989.486148,-136.14,-1.556,355.43,1.0
3.2,128.181658,37.932415,6989.256024,-138.364,-1.586,355.455,1.0
3.2166,128.181653,37.932461,6989.0201088,-140.628,-1.616,355.477,1.0
3.2333,128.181648,37.932507,6988.7787072,-142.93,-1.66,355.489,1.0
3.25,128.181643,37.932553,6988.5318192,-145.268,-1.716,355.49,1.0
3.2666,128.181639,37.932599,6988.2794448,-147.641,-1.781,355.485,1.0
3.2833,128.181634,37.932646,6988.021279200001,-150.046,-1.853,355.476,1.0
3.3,128.181629,37.932692,6987.757322400001,-152.481,-1.93,355.466,1.0
3.3166,128.181624,37.932738,6987.487574400001,-154.944,-2.01,355.455,1.0
3.3333,128.181619,37.932784,6987.2114255999995,-157.431,-2.105,355.44,1.0
3.35,128.181614,37.93283,6986.928876,-159.941,-2.226,355.416,1.0
3.3666,128.181609,37.932877,6986.6399255999995,-162.471,-2.369,355.388,1.0
3.3833,128.181604,37.932923,6986.344574400001,-165.019,-2.525,355.36,1.0
3.4,128.181599,37.932969,6986.0422128,-167.583,-2.691,355.334,1.0
3.4166,128.181594,37.933015,6985.7328408,-170.16,-2.861,355.313,1.0
3.4333,128.181589,37.933061,6985.4167632,-172.728,-3.048,355.293,1.0
3.45,128.181584,37.933107,6985.09398,-175.286,-3.254,355.277,1.0
3.4666,128.181579,37.933154,6984.7635768,-177.83,-3.474,355.267,1.0
3.4833,128.181573,37.9332,6984.4255536,179.637,-3.701,355.265,1.0
3.5,128.181568,37.933246,6984.079605600001,177.119,-3.931,355.271,1.0
3.5166,128.181563,37.933292,6983.7260376,174.614,-4.161,355.286,1.0
3.5333,128.181558,37.933338,6983.36424,172.15,-4.401,355.31,1.0
3.55,128.181553,37.933385,6982.995127200001,169.726,-4.652,355.345,1.0
3.5666,128.181548,37.933431,6982.61748,167.335,-4.906,355.391,1.0
3.5833,128.181543,37.933477,6982.2309936,164.975,-5.158,355.447,1.0
3.6,128.181538,37.933523,6981.835668000001,162.639,-5.405,355.513,1.0
3.6166,128.181533,37.933569,6981.4315032,160.324,-5.644,355.589,1.0
3.6333,128.181528,37.933616,6981.0191088,158.042,-5.88,355.675,1.0
3.65,128.181523,37.933662,6980.597265600001,155.788,-6.111,355.771,1.0
3.6666,128.181518,37.933708,6980.166278400001,153.558,-6.336,355.876,1.0
3.6833,128.181513,37.933754,6979.725842400001,151.346,-6.553,355.988,1.0
3.7,128.181508,37.9338,6979.2759576,149.15,-6.759,356.108,1.0
3.7166,128.181503,37.933847,6978.816928800001,146.966,-6.953,356.233,1.0
3.7333,128.181498,37.933893,6978.3484512,144.794,-7.139,356.365,1.0
3.75,128.181494,37.933939,6977.8708295999995,142.633,-7.314,356.502,1.0
3.7666,128.181489,37.933985,6977.3834544,140.479,-7.48,356.643,1.0
3.7833,128.181484,37.934032,6976.88724,138.331,-7.636,356.789,1.0
3.8,128.18148,37.934078,6976.3815768,136.187,-7.781,356.937,1.0
3.8166,128.181475,37.934124,6975.867074400001,134.044,-7.915,357.089,1.0
3.8333,128.181471,37.93417,6975.3458664,132.068,-8.043,357.219,1.0
3.85,128.181466,37.934216,6974.816733600001,130.255,-8.154,357.315,1.0
3.8666,128.181462,37.934263,6974.280590400001,128.61,-8.236,357.37,1.0
3.8833,128.181457,37.934309,6973.738351200001,127.134,-8.278,357.375,1.0
3.9,128.181453,37.934355,6973.189711200001,125.824,-8.283,357.333,1.0
3.9166,128.181449,37.934401,6972.6349752,124.674,-8.26,357.258,1.0
3.9333,128.181445,37.934448,6972.0747528,123.674,-8.222,357.162,1.0
3.95,128.181441,37.934494,6971.5096536,122.813,-8.178,357.057,1.0
3.9666,128.181436,37.93454,6970.9393728000005,122.086,-8.133,356.952,1.0
3.9833,128.181432,37.934587,6970.364824800001,121.486,-8.091,356.848,1.0
4.0,128.181428,37.934633,6969.7860096,121.007,-8.051,356.75,1.0
4.0166,128.181424,37.934679,6969.203232000001,120.645,-8.016,356.656,1.0
4.0333,128.18142,37.934726,6968.616796800001,120.394,-7.985,356.567,1.0
4.05,128.181416,37.934772,6968.027008800001,120.25,-7.958,356.483,1.0
4.0666,128.181412,37.934818,6967.433868,120.21,-7.936,356.404,1.0
4.0833,128.181408,37.934865,6966.837679200001,120.27,-7.916,356.33,1.0
4.1,128.181404,37.934911,6966.2381376,120.427,-7.899,356.26,1.0
4.1166,128.1814,37.934958,6965.6358528,120.679,-7.884,356.194,1.0
4.1333,128.181396,37.935004,6965.0277768000005,120.828,-7.862,356.158,1.0
4.15,128.181392,37.935051,6964.416348,120.879,-7.832,356.151,1.0
4.1666,128.181388,37.935097,6963.8012616,120.823,-7.799,356.166,1.0
4.1833,128.181384,37.935143,6963.1822128,120.656,-7.767,356.194,1.0
4.2,128.18138,37.93519,6962.558896800001,120.376,-7.736,356.23,1.0
4.2166,128.181376,37.935236,6961.931923200001,119.985,-7.709,356.269,1.0
4.2333,128.181372,37.935283,6961.3006824,119.487,-7.686,356.314,1.0
4.25,128.181368,37.935329,6960.664869600001,118.886,-7.667,356.363,1.0
4.2666,128.181364,37.935376,6960.0247896,118.188,-7.652,356.416,1.0
4.2833,128.18136,37.935423,6959.380137600001,117.397,-7.639,356.47,1.0
4.3,128.181356,37.935469,6958.7306088000005,116.518,-7.628,356.525,1.0
4.3166,128.181352,37.935516,6958.076508,115.556,-7.617,356.581,1.0
4.3333,128.181348,37.935562,6957.4175304,114.514,-7.61,356.643,1.0
4.35,128.181345,37.935609,6956.753676,113.395,-7.607,356.712,1.0
4.3666,128.181341,37.935655,6956.0849448,112.205,-7.605,356.785,1.0
4.3833,128.181337,37.935702,6955.411336800001,110.947,-7.605,356.861,1.0
4.4,128.181334,37.935749,6954.732547200001,109.625,-7.605,356.938,1.0
4.4166,128.18133,37.935795,6954.0491856,108.242,-7.605,357.016,1.0
4.4333,128.181327,37.935842,6953.360947200001,106.799,-7.608,357.107,1.0
4.45,128.181324,37.935888,6952.668136800001,105.301,-7.613,357.21,1.0
4.4666,128.18132,37.935935,6951.9707544,103.75,-7.62,357.323,1.0
4.4833,128.181317,37.935982,6951.269104800001,102.149,-7.626,357.44,1.0
4.5,128.181314,37.936028,6950.563492800001,100.503,-7.631,357.558,1.0
4.5166,128.181311,37.936075,6949.8539184,98.814,-7.633,357.677,1.0
4.5333,128.181308,37.936121,6949.1403816,97.082,-7.635,357.808,1.0
4.55,128.181305,37.936168,6948.423187200001,95.31,-7.635,357.951,1.0
4.5666,128.181302,37.936215,6947.7023352,93.501,-7.632,358.1,1.0
4.5833,128.181299,37.936261,6946.9784352,91.658,-7.626,358.253,1.0
4.6,128.181297,37.936308,6946.2514872,89.782,-7.615,358.404,1.0
4.6166,128.181294,37.936355,6945.521796000001,87.876,-7.601,358.553,1.0
4.6333,128.181291,37.936401,6944.7893616,85.94,-7.582,358.711,1.0
4.65,128.181289,37.936448,6944.0544887999995,83.976,-7.557,358.878,1.0
4.6666,128.181287,37.936495,6943.317787200001,81.985,-7.526,359.048,1.0
4.6833,128.181284,37.936541,6942.579256800001,79.969,-7.49,359.218,1.0
4.7,128.181282,37.936588,6941.8392023999995,77.929,-7.449,359.385,1.0
4.7166,128.18128,37.936635,6941.097928800001,75.868,-7.403,359.546,1.0
4.7333,128.181278,37.936682,6940.355436,73.793,-7.35,359.711,1.0
4.75,128.181276,37.936728,6939.612638400001,71.709,-7.291,359.879,1.0
4.7666,128.181274,37.936775,6938.8692312,69.618,-7.225,0.047,1.0
4.7833,128.181273,37.936822,6938.1261288000005,67.521,-7.154,0.21,1.0
4.8,128.181271,37.936869,6937.3830264,65.42,-7.078,0.368,1.0
4.8166,128.181269,37.936915,6936.640533600001,63.315,-6.998,0.518,1.0
4.8333,128.181268,37.936962,6935.8986504,61.245,-6.914,0.668,1.0
4.85,128.181267,37.937009,6935.157681600001,59.209,-6.824,0.816,1.0
4.8666,128.181265,37.937056,6934.4176272,57.203,-6.73,0.961,1.0
4.8833,128.181264,37.937103,6933.6790968000005,55.224,-6.631,1.1,1.0
4.9,128.181263,37.937149,6932.942395200001,53.267,-6.529,1.232,1.0
4.9166,128.181262,37.937196,6932.2078272,51.328,-6.424,1.355,1.0
4.9333,128.181261,37.937243,6931.475392800001,49.442,-6.316,1.473,1.0
4.95,128.18126,37.93729,6930.7447872,47.605,-6.206,1.587,1.0
4.9666,128.181259,37.937337,6930.0163152000005,45.81,-6.093,1.695,1.0
4.9833,128.181258,37.937384,6929.291196,44.05,-5.979,1.795,1.0
5.0,128.181257,37.937431,6928.56882,42.32,-5.863,1.888,1.0
5.0166,128.181257,37.937478,6927.850101600001,40.614,-5.745,1.974,1.0
5.0333,128.181256,37.937524,6927.1341264,38.955,-5.63,2.052,1.0
5.05,128.181256,37.937571,6926.4211992,37.34,-5.517,2.122,1.0
5.0666,128.181255,37.937618,6925.7119296,35.76,-5.406,2.184,1.0
5.0833,128.181255,37.937665,6925.0069272,34.211,-5.295,2.24,1.0
5.1,128.181254,37.937712,6924.3058872,32.687,-5.185,2.289,1.0
5.1166,128.181254,37.937759,6923.6091144,31.183,-5.075,2.333,1.0
5.1333,128.181254,37.937806,6922.916304,29.731,-4.967,2.371,1.0
5.15,128.181254,37.937853,6922.226846400001,28.328,-4.862,2.406,1.0
5.1666,128.181254,37.9379,6921.541656,26.966,-4.76,2.435,1.0
5.1833,128.181253,37.937948,6920.861037600001,25.64,-4.658,2.46,1.0
5.2,128.181253,37.937995,6920.1846864,24.343,-4.557,2.48,1.0
5.2166,128.181253,37.938042,6919.5135168,23.07,-4.455,2.496,1.0
5.2333,128.181253,37.938089,6918.846004800001,21.865,-4.355,2.511,1.0
5.25,128.181253,37.938136,6918.182455200001,20.723,-4.257,2.523,1.0
5.2666,128.181254,37.938183,6917.5222584,19.635,-4.16,2.534,1.0
5.2833,128.181254,37.93823,6916.8669384,18.595,-4.063,2.541,1.0
5.3,128.181254,37.938277,6916.2161904,17.594,-3.967,2.545,1.0
5.3166,128.181254,37.938325,6915.570319200001,16.626,-3.871,2.545,1.0
5.3333,128.181254,37.938372,6914.927496,15.721,-3.779,2.543,1.0
5.35,128.181255,37.938419,6914.2886352000005,14.874,-3.693,2.539,1.0
5.3666,128.181255,37.938466,6913.654041600001,14.076,-3.61,2.532,1.0
5.3833,128.181255,37.938514,6913.024020000001,13.32,-3.529,2.523,1.0
5.4,128.181255,37.938561,6912.398570400001,12.6,-3.449,2.511,1.0
5.4166,128.181256,37.938608,6911.777997600001,11.909,-3.37,2.497,1.0
5.4333,128.181256,37.938655,6911.1623016,11.214,-3.296,2.478,1.0
5.45,128.181257,37.938703,6910.552701600001,10.512,-3.226,2.455,1.0
5.4666,128.181257,37.93875,6909.948892800001,9.8,-3.16,2.429,1.0
5.4833,128.181257,37.938797,6909.350265600001,9.08,-3.095,2.401,1.0
5.5,128.181258,37.938845,6908.7574296,8.351,-3.031,2.372,1.0
5.5166,128.181258,37.938892,6908.17008,7.615,-2.967,2.342,1.0
5.5333,128.181259,37.93894,6907.5873024,6.963,-2.904,2.317,1.0
5.55,128.181259,37.938987,6907.009401600001,6.396,-2.84,2.297,1.0
5.5666,128.18126,37.939034,6906.4354632,5.906,-2.776,2.279,1.0
5.5833,128.181261,37.939082,6905.865487200001,5.482,-2.712,2.26,1.0
5.6,128.181261,37.939129,6905.298864,5.117,-2.648,2.241,1.0
5.6166,128.181262,37.939177,6904.7362032,4.801,-2.583,2.219,1.0
5.6333,128.181262,37.939224,6904.175676,4.578,-2.534,2.198,1.0
5.65,128.181263,37.939272,6903.6175872,4.441,-2.511,2.176,1.0
5.6666,128.181263,37.939319,6903.0613272,4.378,-2.508,2.153,1.0
5.6833,128.181264,37.939367,6902.5090296,4.379,-2.519,2.129,1.0
5.7,128.181265,37.939414,6901.959170400001,4.434,-2.536,2.103,1.0
5.7166,128.181265,37.939462,6901.412664,4.533,-2.556,2.076,1.0
5.7333,128.181266,37.93951,6900.8673768,4.709,-2.594,2.061,1.0
5.75,128.181267,37.939557,6900.323308800001,4.959,-2.666,2.056,1.0
5.7666,128.181267,37.939605,6899.7798504,5.288,-2.777,2.056,1.0
5.7833,128.181268,37.939652,6899.236392000001,5.698,-2.916,2.058,1.0
5.8,128.181269,37.9397,6898.693238400001,6.193,-3.07,2.06,1.0
5.8166,128.181269,37.939748,6898.1503896,6.77,-3.23,2.061,1.0
5.8333,128.18127,37.939795,6897.607236,7.43,-3.39,2.061,1.0
5.85,128.181271,37.939843,6897.0637776,8.168,-3.547,2.06,1.0
5.8666,128.181271,37.939891,6896.5197096,8.983,-3.699,2.058,1.0
5.8833,128.181272,37.939939,6895.975032,9.872,-3.846,2.055,1.0
5.9,128.181273,37.939986,6895.42944,10.833,-3.987,2.051,1.0
5.9166,128.181273,37.940034,6894.882933600001,11.864,-4.122,2.046,1.0
5.9333,128.181274,37.940082,6894.335208,12.962,-4.252,2.04,1.0
5.95,128.181275,37.94013,6893.786263200001,14.125,-4.377,2.033,1.0
5.9666,128.181276,37.940178,6893.2357944000005,15.351,-4.497,2.025,1.0
5.9833,128.181276,37.940225,6892.683801600001,16.638,-4.613,2.016,1.0
6.0,128.181277,37.940273,6892.12998,17.984,-4.724,2.006,1.0
6.0166,128.181278,37.940321,6891.5743296,19.388,-4.831,1.994,1.0
6.0333,128.181279,37.940369,6891.0171552,20.846,-4.935,1.982,1.0
6.05,128.181279,37.940417,6890.4575424,22.359,-5.035,1.968,1.0
6.0666,128.18128,37.940465,6889.896100800001,23.923,-5.132,1.953,1.0
6.0833,128.181281,37.940513,6889.3325256,25.538,-5.226,1.937,1.0
6.1,128.181282,37.940561,6888.766512,27.201,-5.317,1.92,1.0
6.1166,128.181283,37.940609,6888.1983648000005,28.912,-5.405,1.901,1.0
6.1333,128.181283,37.940657,6887.627779200001,30.668,-5.491,1.881,1.0
6.15,128.181284,37.940705,6887.054755200001,32.469,-5.574,1.86,1.0
6.1666,128.181285,37.940753,6886.479292800001,34.313,-5.655,1.838,1.0
6.1833,128.181286,37.940801,6885.901392000001,36.198,-5.733,1.815,1.0
6.2,128.181287,37.940849,6885.320748,38.124,-5.809,1.79,1.0
6.2166,128.181287,37.940897,6884.737360800001,40.09,-5.883,1.765,1.0
6.2333,128.181288,37.940945,6884.1512304,42.093,-5.954,1.738,1.0
6.25,128.181289,37.940993,6883.5626616,44.133,-6.024,1.71,1.0
6.2666,128.18129,37.941042,6882.9710448000005,46.21,-6.091,1.681,1.0
6.2833,128.181291,37.94109,6882.3766848,48.321,-6.156,1.651,1.0
6.3,128.181292,37.941138,6881.779581600001,50.466,-6.219,1.62,1.0
6.3166,128.181292,37.941186,6881.1797352,52.644,-6.28,1.588,1.0
6.3333,128.181293,37.941234,6880.5768408,54.854,-6.339,1.555,1.0
6.35,128.181294,37.941283,6879.9712032,57.095,-6.396,1.521,1.0
6.3666,128.181295,37.941331,6879.3625176000005,59.366,-6.451,1.486,1.0
6.3833,128.181296,37.941379,6878.750784000001,61.666,-6.504,1.451,1.0
6.4,128.181297,37.941427,6878.1363071999995,63.995,-6.555,1.415,1.0
6.4166,128.181297,37.941476,6877.5187824,66.351,-6.604,1.378,1.0
6.4333,128.181298,37.941524,6876.898514400001,68.735,-6.651,1.341,1.0
6.45,128.181299,37.941572,6876.2751984,71.144,-6.695,1.303,1.0
6.4666,128.1813,37.941621,6875.6488344,73.578,-6.738,1.265,1.0
6.4833,128.181301,37.941669,6875.0197272000005,76.037,-6.779,1.227,1.0
6.5,128.181301,37.941717,6874.387572000001,78.52,-6.818,1.188,1.0
6.5166,128.181302,37.941766,6873.752673600001,81.026,-6.856,1.149,1.0
6.5333,128.181303,37.941814,6873.114727200001,83.554,-6.891,1.11,1.0
6.55,128.181304,37.941863,6872.474342400001,86.104,-6.924,1.071,1.0
6.5666,128.181305,37.941911,6871.8309096,88.675,-6.956,1.032,1.0
6.5833,128.181305,37.941959,6871.184733600001,91.267,-6.986,0.993,1.0
6.6,128.181306,37.942008,6870.5358144,93.878,-7.014,0.954,1.0
6.6166,128.181307,37.942056,6869.8841520000005,96.507,-7.04,0.916,1.0
6.6333,128.181308,37.942105,6869.2297464,99.156,-7.065,0.877,1.0
6.65,128.181308,37.942153,6868.5729024,101.821,-7.088,0.839,1.0
6.6666,128.181309,37.942202,6867.913620000001,104.504,-7.11,0.802,1.0
6.6833,128.18131,37.942251,6867.2518992000005,107.203,-7.13,0.764,1.0
6.7,128.181311,37.942299,6866.5874352,109.918,-7.148,0.728,1.0
6.7166,128.181311,37.942348,6865.920837600001,112.648,-7.166,0.691,1.0
6.7333,128.181312,37.942396,6865.2518016,115.393,-7.181,0.656,1.0
6.75,128.181313,37.942445,6864.580632,118.151,-7.196,0.62,1.0
6.7666,128.181313,37.942494,6863.907024000001,120.923,-7.209,0.586,1.0
6.7833,128.181314,37.942542,6863.231587200001,123.707,-7.221,0.552,1.0
6.8,128.181315,37.942591,6862.553712,126.504,-7.232,0.518,1.0
6.8166,128.181315,37.94264,6861.874312800001,129.312,-7.242,0.485,1.0
6.8333,128.181316,37.942689,6861.1924751999995,132.133,-7.25,0.453,1.0
6.85,128.181317,37.942737,6860.5091136,134.964,-7.258,0.421,1.0
6.8666,128.181317,37.942786,6859.823618400001,137.806,-7.264,0.389,1.0
6.8833,128.181318,37.942835,6859.1365992,140.658,-7.27,0.358,1.0
6.9,128.181318,37.942884,6858.4477512,143.519,-7.274,0.328,1.0
6.9166,128.181319,37.942933,6857.757379200001,146.39,-7.278,0.298,1.0
6.9333,128.18132,37.942981,6857.065483200001,149.269,-7.28,0.269,1.0
6.95,128.18132,37.94303,6856.3717584000005,152.156,-7.281,0.241,1.0
6.9666,128.181321,37.943079,6855.676814400001,155.051,-7.282,0.213,1.0
6.9833,128.181321,37.943128,6854.980041600001,157.953,-7.281,0.186,1.0
7.0,128.181322,37.943177,6854.2820496,160.861,-7.279,0.159,1.0
7.0166,128.181322,37.943226,6853.582533600001,163.775,-7.277,0.133,1.0
7.0333,128.181323,37.943275,6852.8817984,166.694,-7.273,0.108,1.0
7.05,128.181324,37.943324,6852.179844,169.618,-7.268,0.083,1.0
7.0666,128.181324,37.943373,6851.476060800001,172.546,-7.262,0.059,1.0
7.0833,128.181325,37.943422,6850.7713632,175.478,-7.255,0.036,1.0
7.1,128.181325,37.943471,6850.0651416,178.413,-7.247,0.014,1.0
7.1166,128.181326,37.94352,6849.357396,-178.649,-7.238,359.993,1.0
7.1333,128.181326,37.943569,6848.6475168,-175.931,-7.229,0.001,1.0
7.15,128.181327,37.943618,6847.9351992,-173.425,-7.222,0.038,1.0
7.1666,128.181327,37.943668,6847.220138400001,-171.14,-7.218,0.091,1.0
7.1833,128.181328,37.943717,6846.5020296,-169.08,-7.215,0.15,1.0
7.2,128.181328,37.943766,6845.7802632,-167.246,-7.214,0.209,1.0
7.2166,128.181329,37.943815,6845.0545344,-165.631,-7.215,0.265,1.0
7.2333,128.181329,37.943864,6844.325148,-164.225,-7.218,0.318,1.0
7.25,128.18133,37.943913,6843.5911896,-163.018,-7.224,0.367,1.0
7.2666,128.181331,37.943962,6842.852659200001,-162.002,-7.232,0.414,1.0
7.2833,128.181331,37.944012,6842.109252000001,-161.167,-7.244,0.46,1.0
7.3,128.181332,37.944061,6841.3606632,-160.505,-7.259,0.503,1.0
7.3166,128.181332,37.94411,6840.606588000001,-160.009,-7.276,0.544,1.0
7.3333,128.181333,37.944159,6839.8470264,-159.671,-7.296,0.583,1.0
7.35,128.181333,37.944208,6839.081368800001,-159.485,-7.319,0.62,1.0
7.3666,128.181334,37.944258,6838.309615200001,-159.444,-7.343,0.656,1.0
7.3833,128.181334,37.944307,6837.531156000001,-159.543,-7.369,0.69,1.0
7.4,128.181334,37.944356,6836.746296,-159.774,-7.398,0.722,1.0
7.4166,128.181335,37.944405,6835.9544256,-160.133,-7.428,0.752,1.0
7.4333,128.181335,37.944454,6835.156154400001,-160.614,-7.46,0.781,1.0
7.45,128.181336,37.944504,6834.3511776000005,-161.211,-7.493,0.809,1.0
7.4666,128.181336,37.944553,6833.5401048,-161.919,-7.528,0.835,1.0
7.4833,128.181336,37.944602,6832.7223264,-162.733,-7.564,0.86,1.0
7.5,128.181337,37.944651,6831.898452000001,-163.649,-7.6,0.884,1.0
7.5166,128.181337,37.9447,6831.0678720000005,-164.662,-7.638,0.908,1.0
7.5333,128.181337,37.94475,6830.231196000001,-165.767,-7.677,0.931,1.0
7.55,128.181338,37.944799,6829.388424000001,-166.96,-7.716,0.953,1.0
7.5666,128.181338,37.944848,6828.538946400001,-168.236,-7.755,0.974,1.0
7.5833,128.181338,37.944897,6827.6836776,-169.592,-7.795,0.996,1.0
7.6,128.181339,37.944946,6826.822008,-171.024,-7.835,1.017,1.0
7.6166,128.181339,37.944995,6825.9539376,-172.527,-7.876,1.038,1.0
7.6333,128.181339,37.945045,6825.0797712,-174.099,-7.916,1.059,1.0
7.65,128.181339,37.945094,6824.1992040000005,-175.734,-7.956,1.08,1.0
7.6666,128.18134,37.945143,6823.3128456,-177.431,-7.996,1.101,1.0
7.6833,128.18134,37.945192,6822.4197816000005,-179.185,-8.035,1.122,1.0
7.7,128.18134,37.945241,6821.5209264000005,179.006,-8.074,1.143,1.0
7.7166,128.181341,37.94529,6820.6156704,177.146,-8.112,1.164,1.0
7.7333,128.181341,37.945339,6819.7040136000005,175.244,-8.166,1.187,1.0
7.75,128.181341,37.945389,6818.7862608000005,173.311,-8.251,1.212,1.0
7.7666,128.181342,37.945438,6817.861497600001,171.354,-8.383,1.243,1.0
7.7833,128.181342,37.945487,6816.9297240000005,169.38,-8.575,1.285,1.0
7.8,128.181342,37.945536,6815.9900256,167.393,-8.836,1.344,1.0
7.8166,128.181343,37.945585,6815.0433168,165.398,-9.146,1.42,1.0
7.8333,128.181343,37.945634,6814.088683200001,163.463,-9.504,1.511,1.0
7.85,128.181343,37.945683,6813.1264296,161.59,-9.892,1.616,1.0
7.8666,128.181344,37.945733,6812.156556000001,159.775,-10.292,1.735,1.0
7.8833,128.181344,37.945782,6811.178148,158.014,-10.69,1.866,1.0
7.9,128.181345,37.945831,6810.189986400001,156.298,-11.078,2.01,1.0
7.9166,128.181345,37.94588,6809.1926808,154.619,-11.449,2.163,1.0
7.9333,128.181346,37.945929,6808.1859264,153.042,-11.82,2.325,1.0
7.95,128.181346,37.945978,6807.169418400001,151.556,-12.197,2.502,1.0
7.9666,128.181347,37.946027,6806.1437664,150.146,-12.574,2.692,1.0
7.9833,128.181347,37.946076,6805.107751200001,148.8,-12.94,2.891,1.0
8.0,128.181348,37.946125,6804.0607632,147.503,-13.29,3.096,1.0
8.0166,128.181349,37.946174,6803.0024976,146.246,-13.619,3.303,1.0
8.0333,128.18135,37.946223,6801.934173600001,145.136,-13.945,3.513,1.0
8.05,128.181351,37.946272,6800.8548768,144.162,-14.278,3.729,1.0
8.0666,128.181352,37.946321,6799.764912,143.305,-14.61,3.952,1.0
8.0833,128.181353,37.94637,6798.664279200001,142.546,-14.933,4.18,1.0
8.1,128.181354,37.946419,6797.553283200001,141.869,-15.241,4.409,1.0
8.1166,128.181355,37.946468,6796.4297904000005,141.256,-15.532,4.637,1.0
8.1333,128.181356,37.946517,6795.2968488,140.743,-15.809,4.857,1.0
8.15,128.181357,37.946566,6794.1526296,140.315,-16.074,5.068,1.0
8.1666,128.181359,37.946615,6792.996828,139.959,-16.325,5.271,1.0
8.1833,128.18136,37.946664,6791.829444,139.664,-16.564,5.467,1.0
8.2,128.181362,37.946713,6790.649563200001,139.418,-16.789,5.658,1.0
8.2166,128.181364,37.946762,6789.4577952,139.212,-17.004,5.845,1.0
8.2333,128.181365,37.946811,6788.2550544000005,139.058,-17.213,6.019,1.0
8.25,128.181367,37.94686,6787.0407312,138.95,-17.419,6.182,1.0
8.2666,128.181369,37.946909,6785.813606400001,138.883,-17.62,6.336,1.0
8.2833,128.181371,37.946958,6784.5745944,138.853,-17.815,6.484,1.0
8.3,128.181373,37.947006,6783.3227808,138.857,-18.005,6.628,1.0
8.3166,128.181375,37.947055,6782.0581656,138.888,-18.189,6.769,1.0
8.3333,128.181378,37.947104,6780.7822728,139.0,-18.371,6.902,1.0
8.35,128.18138,37.947153,6779.494188000001,139.185,-18.552,7.029,1.0
8.3666,128.181383,37.947201,6778.1945208,139.435,-18.73,7.15,1.0
8.3833,128.181385,37.94725,6776.882356800001,139.741,-18.905,7.268,1.0
8.4,128.181388,37.947299,6775.5573912,140.094,-19.077,7.383,1.0
8.4166,128.181391,37.947347,6774.219928800001,140.486,-19.246,7.497,1.0
8.4333,128.181394,37.947396,6772.870884000001,140.941,-19.414,7.605,1.0
8.45,128.181396,37.947445,6771.5096472000005,141.452,-19.581,7.709,1.0
8.4666,128.181399,37.947493,6770.1356088,142.011,-19.747,7.809,1.0
8.4833,128.181403,37.947542,6768.748464,142.611,-19.912,7.906,1.0
8.5,128.181406,37.94759,6767.3485176,143.245,-20.076,8.001,1.0
8.5166,128.181409,37.947639,6765.935464800001,143.908,-20.239,8.092,1.0
8.5333,128.181412,37.947687,6764.5083912,144.582,-20.401,8.182,1.0
8.55,128.181416,37.947736,6763.067296800001,145.263,-20.562,8.27,1.0
8.5666,128.18142,37.947784,6761.6124864,145.948,-20.722,8.357,1.0
8.5833,128.181423,37.947832,6760.14396,146.637,-20.884,8.44,1.0
8.6,128.181427,37.947881,6758.6614128,147.328,-21.045,8.52,1.0
8.6166,128.181431,37.947929,6757.16454,148.021,-21.209,8.597,1.0
8.6333,128.181435,37.947977,6755.6527320000005,148.698,-21.372,8.673,1.0
8.65,128.181439,37.948025,6754.1259887999995,149.359,-21.536,8.749,1.0
8.6666,128.181443,37.948073,6752.584920000001,150.005,-21.701,8.822,1.0
8.6833,128.181447,37.948122,6751.0292208,150.638,-21.868,8.893,1.0
8.7,128.181451,37.94817,6749.4585864,151.262,-22.037,8.961,1.0
8.7166,128.181455,37.948218,6747.8736264,151.877,-22.208,9.027,1.0
8.7333,128.18146,37.948266,6746.272512,152.468,-22.378,9.094,1.0
8.75,128.181464,37.948314,6744.6558528,153.036,-22.549,9.163,1.0
8.7666,128.181469,37.948361,6743.024563200001,153.584,-22.72,9.232,1.0
8.7833,128.181473,37.948409,6741.377728800001,154.114,-22.893,9.3,1.0
8.8,128.181478,37.948457,6739.7156544,154.627,-23.067,9.365,1.0
8.8166,128.181483,37.948505,6738.0386448,155.126,-23.244,9.429,1.0
8.8333,128.181488,37.948553,6736.345176,155.601,-23.42,9.494,1.0
8.85,128.181493,37.9486,6734.6361624,156.054,-23.596,9.562,1.0
8.8666,128.181498,37.948648,6732.911604,156.487,-23.773,9.63,1.0
8.8833,128.181503,37.948695,6731.1715008,156.901,-23.951,9.698,1.0
8.9,128.181508,37.948743,6729.4161576,157.299,-24.13,9.763,1.0
8.9166,128.181513,37.94879,6727.644964800001,157.684,-24.311,9.827,1.0
8.9333,128.181518,37.948838,6725.857617600001,158.046,-24.492,9.89,1.0
8.95,128.181523,37.948885,6724.0547256,158.389,-24.675,9.952,1.0
8.9666,128.181529,37.948933,6722.235984000001,158.716,-24.858,10.013,1.0
8.9833,128.181534,37.94898,6720.401697600001,159.029,-25.042,10.073,1.0
9.0,128.18154,37.949027,6718.5518664,159.331,-25.226,10.131,1.0
9.0166,128.181545,37.949074,6716.6864904,159.623,-25.412,10.187,1.0
9.0333,128.181551,37.949121,6714.8046552000005,159.902,-25.598,10.243,1.0
9.05,128.181556,37.949168,6712.9072752,160.168,-25.784,10.298,1.0
9.0666,128.181562,37.949215,6710.9940456,160.424,-25.97,10.353,1.0
9.0833,128.181568,37.949262,6709.0652712,160.671,-26.157,10.406,1.0
9.1,128.181574,37.949309,6707.1206472,160.911,-26.344,10.458,1.0
9.1166,128.18158,37.949356,6705.1601736,161.145,-26.531,10.509,1.0
9.1333,128.181586,37.949403,6703.183850400001,161.368,-26.719,10.559,1.0
9.15,128.181592,37.94945,6701.1913728,161.581,-26.907,10.607,1.0
9.1666,128.181598,37.949496,6699.183350400001,161.787,-27.095,10.654,1.0
9.1833,128.181604,37.949543,6697.159478400001,161.986,-27.283,10.7,1.0
9.2,128.18161,37.94959,6695.1200616,162.18,-27.472,10.745,1.0
9.2166,128.181616,37.949636,6693.0644904,162.37,-27.66,10.789,1.0
9.2333,128.181622,37.949683,6690.993069600001,162.552,-27.849,10.832,1.0
9.25,128.181628,37.949729,6688.9054944,162.727,-28.038,10.874,1.0
9.2666,128.181635,37.949775,6686.802374400001,162.895,-28.226,10.916,1.0
9.2833,128.181641,37.949822,6684.6834048,163.059,-28.415,10.956,1.0
9.3,128.181647,37.949868,6682.5482808,163.219,-28.604,10.996,1.0
9.3166,128.181654,37.949914,6680.397612,163.375,-28.793,11.035,1.0
9.3333,128.18166,37.94996,6678.2307888,163.526,-28.982,11.072,1.0
9.35,128.181667,37.950006,6676.0484208,163.671,-29.17,11.11,1.0
9.3666,128.181674,37.950052,6673.8498984,163.812,-29.359,11.146,1.0
9.3833,128.18168,37.950098,6671.6355264,163.95,-29.548,11.182,1.0
9.4,128.181687,37.950144,6669.4053048000005,164.086,-29.737,11.217,1.0
9.4166,128.181694,37.95019,6667.1592336,164.219,-29.926,11.251,1.0
9.4333,128.1817,37.950236,6664.897617600001,164.35,-30.114,11.285,1.0
9.45,128.181707,37.950281,6662.619847200001,164.479,-30.303,11.317,1.0
9.4666,128.181714,37.950327,6660.3262272,164.607,-30.492,11.349,1.0
9.4833,128.181721,37.950373,6658.0170624,164.734,-30.68,11.38,1.0
9.5,128.181728,37.950418,6655.6917432,164.861,-30.869,11.41,1.0
9.5166,128.181735,37.950463,6653.350879200001,164.987,-31.057,11.44,1.0
9.5333,128.181742,37.950509,6650.994165600001,165.111,-31.247,11.466,1.0
9.55,128.181749,37.950554,6648.621907199999,165.231,-31.437,11.488,1.0
9.5666,128.181756,37.950599,6646.2337992,165.351,-31.627,11.506,1.0
9.5833,128.181763,37.950645,6643.829841600001,165.471,-31.818,11.523,1.0
9.6,128.18177,37.95069,6641.4100344,165.593,-32.008,11.539,1.0
9.6166,128.181777,37.950735,6638.9746824,165.718,-32.199,11.555,1.0
9.6333,128.181785,37.95078,6636.5234808000005,165.842,-32.389,11.568,1.0
9.65,128.181792,37.950825,6634.0567344,165.966,-32.581,11.578,1.0
9.6666,128.181799,37.950869,6631.574138400001,166.091,-32.772,11.586,1.0
9.6833,128.181806,37.950914,6629.075692800001,166.218,-32.963,11.593,1.0
9.7,128.181814,37.950959,6626.561702399999,166.347,-33.155,11.6,1.0
9.7166,128.181821,37.951004,6624.0318624,166.477,-33.346,11.606,1.0
9.7333,128.181829,37.951048,6621.4864776,166.61,-33.537,11.612,1.0
9.75,128.181836,37.951093,6618.925243199999,166.744,-33.728,11.617,1.0
9.7666,128.181844,37.951137,6616.348464000001,166.88,-33.918,11.622,1.0
9.7833,128.181851,37.951182,6613.7558352,167.017,-34.109,11.627,1.0
9.8,128.181859,37.951226,6611.1476616,167.155,-34.299,11.631,1.0
9.8166,128.181866,37.95127,6608.523638400001,167.294,-34.49,11.636,1.0
9.8333,128.181874,37.951314,6605.884070400001,167.434,-34.68,11.64,1.0
9.85,128.181881,37.951358,6603.2286527999995,167.574,-34.87,11.643,1.0
9.8666,128.181889,37.951402,6600.5576904,167.716,-35.061,11.645,1.0
9.8833,128.181897,37.951446,6597.871183200001,167.857,-35.251,11.647,1.0
9.9,128.181905,37.95149,6595.1688264,168.0,-35.441,11.65,1.0
9.9166,128.181912,37.951534,6592.4509248,168.142,-35.631,11.651,1.0
9.9333,128.18192,37.951578,6589.717478400001,168.285,-35.82,11.653,1.0
9.95,128.181928,37.951621,6586.968487200001,168.428,-36.01,11.653,1.0
9.9666,128.181936,37.951665,6584.2036464,168.572,-36.2,11.653,1.0
9.9833,128.181943,37.951708,6581.423260800001,168.715,-36.39,11.653,1.0
10.0,128.181951,37.951752,6578.6273304,168.859,-36.579,11.652,1.0
10.0166,128.181959,37.951795,6575.8158552,169.003,-36.769,11.652,1.0
10.0333,128.181967,37.951838,6572.9888352,169.147,-36.958,11.651,1.0
10.05,128.181975,37.951882,6570.145965600001,169.291,-37.148,11.649,1.0
10.0666,128.181983,37.951925,6567.287856000001,169.435,-37.337,11.647,1.0
10.0833,128.181991,37.951968,6564.4142016000005,169.579,-37.526,11.644,1.0
10.1,128.181999,37.952011,6561.524697600001,169.723,-37.715,11.642,1.0
10.1166,128.182007,37.952054,6558.6199536,169.866,-37.905,11.639,1.0
10.1333,128.182015,37.952096,6555.6996648,170.01,-38.094,11.635,1.0
10.15,128.182023,37.952139,6552.7638312,170.153,-38.282,11.632,1.0
10.1666,128.182031,37.952182,6549.8124528,170.297,-38.471,11.628,1.0
10.1833,128.182039,37.952224,6546.8458344,170.44,-38.66,11.623,1.0
10.2,128.182047,37.952267,6543.8633664,170.583,-38.849,11.619,1.0
10.2166,128.182055,37.952309,6540.8656584,170.725,-39.037,11.614,1.0
10.2333,128.182063,37.952352,6537.8527104,170.868,-39.226,11.609,1.0
10.25,128.182071,37.952394,6534.8242176,171.01,-39.414,11.604,1.0
10.2666,128.182079,37.952436,6531.78018,171.152,-39.602,11.598,1.0
10.2833,128.182088,37.952478,6528.7205976000005,171.293,-39.791,11.592,1.0
10.3,128.182096,37.95252,6525.6460799999995,171.435,-39.979,11.586,1.0
10.3166,128.182104,37.952562,6522.5557128,171.576,-40.167,11.579,1.0
10.3333,128.182112,37.952604,6519.450410400001,171.716,-40.355,11.573,1.0
10.35,128.18212,37.952646,6516.3295632,171.855,-40.542,11.566,1.0
10.3666,128.182128,37.952687,6513.1931712,171.994,-40.73,11.559,1.0
10.3833,128.182137,37.952729,6510.041844,172.132,-40.918,11.552,1.0
10.4,128.182145,37.952771,6506.8749720000005,172.27,-41.105,11.544,1.0
10.4166,128.182153,37.952812,6503.69286,172.406,-41.293,11.536,1.0
10.4333,128.182161,37.952853,6500.495508,172.542,-41.48,11.528,1.0
10.45,128.18217,37.952895,6497.282916,172.676,-41.668,11.52,1.0
10.4666,128.182178,37.952936,6494.0550840000005,172.808,-41.855,11.512,1.0
10.4833,128.182186,37.952977,6490.812012,172.94,-42.042,11.503,1.0
10.5,128.182194,37.953018,6487.5537,173.07,-42.229,11.494,1.0
10.5166,128.182203,37.953059,6484.2804528,173.2,-42.417,11.485,1.0
10.5333,128.182211,37.9531,6480.9916608,173.327,-42.604,11.476,1.0
10.55,128.182219,37.95314,6477.687933600001,173.453,-42.79,11.467,1.0
10.5666,128.182227,37.953181,6474.3689664,173.577,-42.977,11.457,1.0
10.5833,128.182236,37.953222,6471.034759200001,173.7,-43.164,11.447,1.0
10.6,128.182244,37.953262,6467.6856168,173.821,-43.351,11.437,1.0
10.6166,128.182252,37.953302,6464.3215392,173.941,-43.537,11.427,1.0
10.6333,128.18226,37.953343,6460.9422216,174.059,-43.724,11.417,1.0
10.65,128.182269,37.953383,6457.547664000001,174.175,-43.911,11.406,1.0
10.6666,128.182277,37.953423,6454.138476,174.289,-44.097,11.396,1.0
10.6833,128.182285,37.953463,6450.714048,174.402,-44.283,11.385,1.0
10.7,128.182294,37.953503,6447.2746848,174.513,-44.47,11.374,1.0
10.7166,128.182302,37.953543,6443.820386400001,174.624,-44.656,11.362,1.0
10.7333,128.18231,37.953583,6440.3511528,174.732,-44.842,11.351,1.0
10.75,128.182318,37.953622,6436.866984000001,174.839,-45.028,11.339,1.0
10.7666,128.182327,37.953662,6433.36788,174.944,-45.215,11.327,1.0
10.7833,128.182335,37.953701,6429.8538408,175.048,-45.401,11.315,1.0
10.8,128.182343,37.953741,6426.3251712,175.151,-45.587,11.303,1.0
10.8166,128.182351,37.95378,6422.7815664,175.253,-45.773,11.291,1.0
10.8333,128.18236,37.953819,6419.2230264,175.353,-45.958,11.278,1.0
10.85,128.182368,37.953858,6415.649856000001,175.452,-46.144,11.265,1.0
10.8666,128.182376,37.953897,6412.0620552,175.55,-46.33,11.252,1.0
10.8833,128.182384,37.953936,6408.4593192,175.647,-46.516,11.239,1.0
10.9,128.182393,37.953975,6404.8419527999995,175.742,-46.701,11.226,1.0
10.9166,128.182401,37.954014,6401.209956000001,175.837,-46.887,11.212,1.0
10.9333,128.182409,37.954052,6397.563024000001,175.931,-47.073,11.199,1.0
10.95,128.182417,37.954091,6393.9017664,176.022,-47.258,11.185,1.0
10.9666,128.182425,37.954129,6390.2258784000005,176.113,-47.443,11.171,1.0
10.9833,128.182434,37.954168,6386.535055200001,176.203,-47.629,11.157,1.0
11.0,128.182442,37.954206,6382.829906400001,176.291,-47.814,11.143,1.0
11.0166,128.18245,37.954244,6379.110432,176.379,-48.0,11.128,1.0
11.0333,128.182458,37.954282,6375.376022400001,176.465,-48.185,11.114,1.0
11.05,128.182466,37.95432,6371.627287200001,176.549,-48.37,11.099,1.0
11.0666,128.182474,37.954358,6367.8642264,176.633,-48.555,11.084,1.0
11.0833,128.182482,37.954396,6364.0865352,176.715,-48.74,11.069,1.0
11.1,128.182491,37.954433,6360.2945184,176.797,-48.926,11.054,1.0
11.1166,128.182499,37.954471,6356.488176,176.877,-49.111,11.039,1.0
11.1333,128.182507,37.954508,6352.667508,176.957,-49.296,11.023,1.0
11.15,128.182515,37.954546,6348.8322096,177.034,-49.481,11.008,1.0
11.1666,128.182523,37.954583,6344.9828904000005,177.111,-49.666,10.992,1.0
11.1833,128.182531,37.95462,6341.1189408,177.186,-49.851,10.976,1.0
11.2,128.182539,37.954657,6337.240970400001,177.261,-50.036,10.961,1.0
11.2166,128.182547,37.954694,6333.348979200001,177.335,-50.221,10.944,1.0
11.2333,128.182555,37.954731,6329.4423576,177.407,-50.406,10.928,1.0
11.25,128.182563,37.954768,6325.52202,177.478,-50.591,10.912,1.0
11.2666,128.182571,37.954804,6321.587052000001,177.547,-50.775,10.896,1.0
11.2833,128.182579,37.954841,6317.638368,177.616,-50.96,10.879,1.0
11.3,128.182587,37.954877,6313.6753584,177.683,-51.145,10.863,1.0
11.3166,128.182595,37.954913,6309.698328,177.75,-51.33,10.846,1.0
11.3333,128.182603,37.95495,6305.7072768,177.815,-51.515,10.829,1.0
11.35,128.182611,37.954986,6301.702204800001,177.88,-51.699,10.812,1.0
11.3666,128.182619,37.955022,6297.6834168,177.942,-51.884,10.795,1.0
11.3833,128.182626,37.955057,6293.6503032,178.004,-52.069,10.778,1.0
11.4,128.182634,37.955093,6289.6034736,178.065,-52.254,10.761,1.0
11.4166,128.182642,37.955129,6285.5426232,178.126,-52.439,10.744,1.0
11.4333,128.18265,37.955164,6281.468056800001,178.185,-52.623,10.726,1.0
11.45,128.182658,37.9552,6277.3794696,178.243,-52.808,10.709,1.0
11.4666,128.182665,37.955235,6273.2774712,178.3,-52.993,10.691,1.0
11.4833,128.182673,37.95527,6269.161452000001,178.356,-53.177,10.674,1.0
11.5,128.182681,37.955306,6265.0317168,178.411,-53.362,10.656,1.0
11.5166,128.182689,37.955341,6260.8882656000005,178.465,-53.547,10.638,1.0
11.5333,128.182696,37.955375,6256.7310984,178.519,-53.732,10.62,1.0
11.55,128.182704,37.95541,6252.560215200001,178.571,-53.916,10.602,1.0
11.5666,128.182712,37.955445,6248.3759208,178.622,-54.101,10.584,1.0
11.5833,128.182719,37.955479,6244.177910400001,178.673,-54.286,10.566,1.0
11.6,128.182727,37.955514,6239.9664888,178.723,-54.47,10.548,1.0
11.6166,128.182735,37.955548,6235.7413512,178.772,-54.655,10.53,1.0
11.6333,128.182742,37.955582,6231.502802399999,178.82,-54.84,10.512,1.0
11.65,128.18275,37.955617,6227.250842400001,178.867,-55.025,10.493,1.0
11.6666,128.182757,37.955651,6222.9854712,178.914,-55.209,10.475,1.0
11.6833,128.182765,37.955684,6218.7066888,178.959,-55.394,10.457,1.0
11.7,128.182772,37.955718,6214.414495200001,179.004,-55.579,10.438,1.0
11.7166,128.18278,37.955752,6210.109195200001,179.049,-55.764,10.42,1.0
11.7333,128.182787,37.955785,6205.790484000001,179.092,-55.948,10.401,1.0
11.75,128.182795,37.955819,6201.4583616,179.135,-56.133,10.382,1.0
11.7666,128.182802,37.955852,6197.1131328,179.177,-56.318,10.364,1.0
11.7833,128.182809,37.955885,6192.7547976000005,179.218,-56.503,10.345,1.0
11.8,128.182817,37.955918,6188.383356,179.259,-56.688,10.326,1.0
11.8166,128.182824,37.955951,6183.9985032,179.299,-56.872,10.307,1.0
11.8333,128.182831,37.955984,6179.6008488,179.338,-57.057,10.288,1.0
11.85,128.182839,37.956017,6175.190088,179.377,-57.242,10.269,1.0
11.8666,128.182846,37.956049,6170.7662208,179.415,-57.427,10.251,1.0
11.8833,128.182853,37.956082,6166.329552000001,179.453,-57.612,10.232,1.0
11.9,128.18286,37.956114,6161.8797768,179.49,-57.797,10.212,1.0
11.9166,128.182867,37.956147,6157.4172,179.527,-57.982,10.193,1.0
11.9333,128.182875,37.956179,6152.9415168,179.563,-58.167,10.174,1.0
11.95,128.182882,37.956211,6148.453032,179.599,-58.352,10.155,1.0
11.9666,128.182889,37.956243,6143.9520504,179.634,-58.537,10.136,1.0
11.9833,128.182896,37.956274,6139.4379624,179.669,-58.722,10.116,1.0
12.0,128.182903,37.956306,6134.9113776,179.703,-58.907,10.097,1.0
12.0166,128.18291,37.956337,6130.371991200001,179.737,-59.092,10.077,1.0
12.0333,128.182917,37.956369,6125.820108,179.77,-59.277,10.058,1.0
12.05,128.182924,37.9564,6121.2554232,179.803,-59.462,10.038,1.0
12.0666,128.182931,37.956431,6116.678241600001,179.836,-59.647,10.019,1.0
12.0833,128.182938,37.956462,6112.0882584,179.868,-59.832,9.999,1.0
12.1,128.182945,37.956493,6107.4860832,179.901,-60.017,9.979,1.0
12.1166,128.182952,37.956524,6102.871106400001,179.933,-60.202,9.959,1.0
12.1333,128.182958,37.956555,6098.2439376,179.964,-60.388,9.939,1.0
12.15,128.182965,37.956585,6093.6045768,179.996,-60.573,9.919,1.0
12.1666,128.182972,37.956616,6088.952414400001,-179.972,-60.758,9.899,1.0
12.1833,128.182979,37.956646,6084.288364800001,-179.94,-60.944,9.879,1.0
12.2,128.182986,37.956676,6079.6115136,-179.909,-61.129,9.858,1.0
12.2166,128.182992,37.956706,6074.9227752,-179.878,-61.314,9.838,1.0
12.2333,128.182999,37.956736,6070.2218448,-179.848,-61.5,9.817,1.0
12.25,128.183006,37.956766,6065.5087224,-179.817,-61.685,9.797,1.0
12.2666,128.183012,37.956795,6060.783408,-179.786,-61.87,9.776,1.0
12.2833,128.183019,37.956825,6056.0459016,-179.755,-62.056,9.755,1.0
12.3,128.183025,37.956854,6051.296508,-179.724,-62.241,9.734,1.0
12.3166,128.183032,37.956884,6046.5349224,-179.694,-62.427,9.713,1.0
12.3333,128.183038,37.956913,6041.761449600001,-179.663,-62.612,9.691,1.0
12.35,128.183045,37.956942,6036.9760896,-179.633,-62.797,9.67,1.0
12.3666,128.183051,37.956971,6032.178842400001,-179.602,-62.983,9.649,1.0
12.3833,128.183058,37.956999,6027.369708,-179.572,-63.168,9.627,1.0
12.4,128.183064,37.957028,6022.5486864,-179.541,-63.354,9.605,1.0
12.4166,128.18307,37.957056,6017.7160824,-179.511,-63.539,9.583,1.0
12.4333,128.183077,37.957085,6012.871591200001,-179.48,-63.725,9.561,1.0
12.45,128.183083,37.957113,6008.0152128,-179.449,-63.91,9.538,1.0
12.4666,128.183089,37.957141,6003.1475568000005,-179.418,-64.096,9.516,1.0
12.4833,128.183095,37.957169,5998.2680136,-179.387,-64.281,9.493,1.0
12.5,128.183102,37.957197,5993.377192800001,-179.355,-64.467,9.47,1.0
12.5166,128.183108,37.957224,5988.4744848,-179.324,-64.652,9.447,1.0
12.5333,128.183114,37.957252,5983.5604992,-179.292,-64.838,9.424,1.0
12.55,128.18312,37.957279,5978.6349312,-179.26,-65.023,9.4,1.0
12.5666,128.183126,37.957307,5973.6980856,-179.228,-65.209,9.376,1.0
12.5833,128.183132,37.957334,5968.7499624,-179.196,-65.395,9.352,1.0
12.6,128.183138,37.957361,5963.790256800001,-179.163,-65.58,9.328,1.0
12.6166,128.183144,37.957388,5958.8192736,-179.131,-65.766,9.303,1.0
12.6333,128.18315,37.957414,5953.8373176000005,-179.097,-65.952,9.278,1.0
12.65,128.183156,37.957441,5948.844084000001,-179.064,-66.137,9.253,1.0
12.6666,128.183162,37.957467,5943.8395728000005,-179.03,-66.323,9.228,1.0
12.6833,128.183168,37.957494,5938.8240888,-178.995,-66.509,9.202,1.0
12.7,128.183173,37.95752,5933.7973272,-178.961,-66.695,9.176,1.0
12.7166,128.183179,37.957546,5928.759592800001,-178.926,-66.881,9.149,1.0
12.7333,128.183185,37.957572,5923.7111904,-178.89,-67.067,9.123,1.0
12.75,128.183191,37.957598,5918.651510400001,-178.854,-67.252,9.096,1.0
12.7666,128.183196,37.957623,5913.5811624,-178.818,-67.438,9.068,1.0
12.7833,128.183202,37.957649,5908.499841600001,-178.781,-67.624,9.04,1.0
12.8,128.183208,37.957674,5903.4078528,-178.744,-67.81,9.012,1.0
12.8166,128.183213,37.957699,5898.3048912,-178.706,-67.996,8.983,1.0
12.8333,128.183219,37.957725,5893.1912616,-178.668,-68.182,8.954,1.0
12.85,128.183224,37.957749,5888.066964000001,-178.628,-68.369,8.925,1.0
12.8666,128.18323,37.957774,5882.9323032,-178.589,-68.555,8.895,1.0
12.8833,128.183235,37.957799,5877.786669600001,-178.548,-68.741,8.864,1.0
12.9,128.183241,37.957823,5872.6306728,-178.508,-68.927,8.833,1.0
12.9166,128.183246,37.957848,5867.4643128,-178.466,-69.113,8.802,1.0
12.9333,128.183251,37.957872,5862.2872848,-178.424,-69.299,8.77,1.0
12.95,128.183257,37.957896,5857.1001983999995,-178.381,-69.486,8.737,1.0
12.9666,128.183262,37.95792,5851.902444,-178.338,-69.672,8.704,1.0
12.9833,128.183267,37.957944,5846.6946312,-178.293,-69.858,8.67,1.0
13.0,128.183272,37.957967,5841.476150400001,-178.248,-70.045,8.636,1.0
13.0166,128.183277,37.957991,5836.247915999999,-178.202,-70.231,8.601,1.0
13.0333,128.183283,37.958014,5831.009318400001,-178.156,-70.418,8.565,1.0
13.0499,128.183288,37.958038,5825.7606624,-178.108,-70.604,8.529,1.0
13.0666,128.183293,37.958061,5820.501948,-178.059,-70.791,8.492,1.0
13.0833,128.183298,37.958084,5815.2331752,-178.009,-70.977,8.454,1.0
13.1,128.183303,37.958106,5809.954344,-177.958,-71.164,8.415,1.0
13.1166,128.183308,37.958129,5804.6654544,-177.906,-71.35,8.376,1.0
13.1333,128.183312,37.958152,5799.367115999999,-177.854,-71.537,8.336,1.0
13.15,128.183317,37.958174,5794.0587192,-177.799,-71.724,8.295,1.0
13.1666,128.183322,37.958196,5788.740568800001,-177.744,-71.91,8.253,1.0
13.1833,128.183327,37.958218,5783.4126648,-177.688,-72.097,8.21,1.0
13.2,128.183332,37.95824,5778.0750072,-177.63,-72.284,8.166,1.0
13.2166,128.183336,37.958262,5772.7279008000005,-177.571,-72.471,8.121,1.0
13.2333,128.183341,37.958283,5767.371040800001,-177.511,-72.657,8.075,1.0
13.25,128.183346,37.958305,5762.004732,-177.45,-72.844,8.028,1.0
13.2666,128.18335,37.958326,5756.628669600001,-177.387,-73.031,7.98,1.0
13.2833,128.183355,37.958347,5751.2434632,-177.323,-73.218,7.93,1.0
13.3,128.18336,37.958368,5745.848808,-177.257,-73.405,7.88,1.0
13.3166,128.183364,37.958389,5740.4450088,-177.19,-73.592,7.828,1.0
13.3333,128.183368,37.95841,5735.0317608000005,-177.121,-73.779,7.775,1.0
13.35,128.183373,37.95843,5729.609064,-177.051,-73.966,7.721,1.0
13.3666,128.183377,37.958451,5724.177528,-176.979,-74.153,7.665,1.0
13.3833,128.183382,37.958471,5718.7365432,-176.905,-74.34,7.607,1.0
13.4,128.183386,37.958491,5713.2867192,-176.83,-74.527,7.549,1.0
13.4166,128.18339,37.958511,5707.8277512,-176.753,-74.714,7.488,1.0
13.4333,128.183394,37.958531,5702.359944,-176.674,-74.901,7.426,1.0
13.45,128.183399,37.95855,5696.8829928000005,-176.592,-75.089,7.362,1.0
13.4666,128.183403,37.95857,5691.3972023999995,-176.509,-75.276,7.296,1.0
13.4833,128.183407,37.958589,5685.902572800001,-176.423,-75.463,7.229,1.0
13.5,128.183411,37.958608,5680.3994088,-176.335,-75.65,7.159,1.0
13.5166,128.183415,37.958627,5674.8874056,-176.246,-75.838,7.088,1.0
13.5333,128.183419,37.958646,5669.3665632,-176.153,-76.025,7.014,1.0
13.55,128.183423,37.958665,5663.8371864,-176.058,-76.212,6.938,1.0
13.5666,128.183427,37.958684,5658.29958,-175.96,-76.399,6.86,1.0
13.5833,128.183431,37.958702,5652.7531344,-175.86,-76.587,6.779,1.0
13.6,128.183434,37.95872,5647.1981544,-175.756,-76.774,6.695,1.0
13.6166,128.183438,37.958738,5641.6349448,-175.65,-76.961,6.61,1.0
13.6333,128.183442,37.958756,5636.0635056,-175.541,-77.149,6.521,1.0
13.65,128.183446,37.958774,5630.483532,-175.429,-77.336,6.429,1.0
13.6666,128.183449,37.958792,5624.8953288,-175.313,-77.524,6.334,1.0
13.6833,128.183453,37.958809,5619.2992008,-175.194,-77.711,6.236,1.0
13.7,128.183456,37.958826,5613.694538400001,-175.072,-77.898,6.135,1.0
13.7166,128.18346,37.958843,5608.082256000001,-174.946,-78.086,6.031,1.0
13.7333,128.183463,37.95886,5602.461744,-174.816,-78.273,5.922,1.0
13.75,128.183467,37.958877,5596.8330024,-174.681,-78.461,5.81,1.0
13.7666,128.18347,37.958894,5591.1966408,-174.542,-78.648,5.693,1.0
13.7833,128.183474,37.95891,5585.552354400001,-174.399,-78.836,5.572,1.0
13.8,128.183477,37.958927,5579.900447999999,-174.251,-79.023,5.447,1.0
13.8166,128.18348,37.958943,5574.2406168,-174.098,-79.21,5.317,1.0
13.8333,128.183484,37.958959,5568.573165600001,-173.94,-79.398,5.182,1.0
13.85,128.183487,37.958975,5562.8980944,-173.776,-79.585,5.041,1.0
13.8666,128.18349,37.958991,5557.2154032,-173.606,-79.772,4.895,1.0
13.8833,128.183493,37.959006,5551.525396800001,-173.43,-79.96,4.743,1.0
13.9,128.183496,37.959021,5545.8274656,-173.248,-80.147,4.585,1.0
13.9166,128.183499,37.959037,5540.122524,-173.059,-80.334,4.42,1.0
13.9333,128.183502,37.959052,5534.4102672,-172.863,-80.521,4.248,1.0
13.95,128.183505,37.959067,5528.6903904,-172.658,-80.709,4.069,1.0
13.9666,128.183508,37.959081,5522.9635032,-172.446,-80.896,3.881,1.0
13.9833,128.183511,37.959096,5517.2296056000005,-172.225,-81.083,3.686,1.0
14.0,128.183513,37.95911,5511.488392800001,-171.995,-81.27,3.481,1.0
14.0166,128.183516,37.959125,5505.740169600001,-171.755,-81.456,3.267,1.0
14.0333,128.183519,37.959139,5499.984936,-171.504,-81.643,3.042,1.0
14.05,128.183522,37.959152,5494.222996800001,-171.242,-81.83,2.806,1.0
14.0666,128.183524,37.959166,5488.453742400001,-170.968,-82.017,2.559,1.0
14.0833,128.183527,37.95918,5482.678087200001,-170.681,-82.203,2.298,1.0
14.1,128.183529,37.959193,5476.8954216,-170.381,-82.389,2.025,1.0
14.1166,128.183532,37.959206,5471.106050400001,-170.066,-82.576,1.737,1.0
14.1333,128.183534,37.95922,5465.3102784,-169.735,-82.762,1.434,1.0
14.15,128.183537,37.959232,5459.5078008,-169.387,-82.947,1.113,1.0
14.1666,128.183539,37.959245,5453.6986176,-169.02,-83.133,0.774,1.0
14.1833,128.183541,37.959258,5447.883338400001,-168.634,-83.319,0.416,1.0
14.2,128.183543,37.95927,5442.0613536,-168.225,-83.504,0.036,1.0
14.2166,128.183546,37.959282,5436.2332728,-167.794,-83.689,359.633,1.0
14.2333,128.183548,37.959294,5430.3987912,-167.337,-83.873,359.205,1.0
14.25,128.18355,37.959306,5424.5579088,-166.852,-84.058,358.749,1.0
14.2666,128.183552,37.959318,5418.7112352,-166.336,-84.241,358.262,1.0
14.2833,128.183554,37.95933,5412.8581608,-165.787,-84.425,357.743,1.0
14.3,128.183556,37.959341,5406.9992952,-165.202,-84.608,357.187,1.0
14.3166,128.183558,37.959352,5401.134333600001,-164.577,-84.791,356.591,1.0
14.3333,128.18356,37.959363,5395.2635808,-163.906,-84.972,355.95,1.0
14.35,128.183561,37.959374,5389.387036800001,-163.186,-85.154,355.26,1.0
14.3666,128.183563,37.959385,5383.504396800001,-162.411,-85.334,354.514,1.0
14.3833,128.183565,37.959396,5377.616270400001,-161.574,-85.514,353.708,1.0
14.4,128.183566,37.959406,5371.7226576,-160.669,-85.693,352.833,1.0
14.4166,128.183568,37.959416,5365.8232536,-159.686,-85.871,351.881,1.0
14.4333,128.18357,37.959426,5359.9183632,-158.616,-86.047,350.841,1.0
14.45,128.183571,37.959436,5354.0079864,-157.447,-86.222,349.702,1.0
14.4666,128.183573,37.959446,5348.0921232,-156.165,-86.395,348.452,1.0
14.4833,128.183574,37.959455,5342.171078400001,-154.755,-86.567,347.073,1.0
14.5,128.183575,37.959465,5336.244852000001,-153.2,-86.736,345.549,1.0
14.5166,128.183577,37.959474,5330.3131392,-151.477,-86.903,343.857,1.0
14.5333,128.183578,37.959483,5324.3765496000005,-149.56,-87.067,341.972,1.0
14.55,128.183579,37.959492,5318.4347784,-147.419,-87.227,339.863,1.0
14.5666,128.18358,37.9595,5312.4881304,-145.02,-87.383,337.496,1.0
14.5833,128.183581,37.959509,5306.5363008,-142.324,-87.534,334.832,1.0
14.6,128.183582,37.959517,5300.5795944,-139.285,-87.679,331.825,1.0
