Time,Longitude,Latitude,Altitude,Roll (deg),Pitch (deg),Yaw (deg),Health
399.9666,128.197601,37.928859,8497.028472,9.0,-8.003,10.999,1.0
399.9833,128.197611,37.928902,8496.344805600002,9.0,-8.01,10.998,1.0
400.0,128.197622,37.928946,8495.6611392,8.928,-8.02,10.987,1.0
400.0166,128.197633,37.92899,8494.9768632,8.787,-8.031,10.967,1.0
400.0333,128.197644,37.929033,8494.2922824,8.573,-8.042,10.941,1.0
400.05,128.197655,37.929077,8493.608006400002,8.286,-8.055,10.91,1.0
400.0666,128.197665,37.929121,8492.9237304,7.926,-8.068,10.877,1.0
400.0833,128.197676,37.929164,8492.240368800001,7.492,-8.08,10.844,1.0
400.1,128.197687,37.929208,8491.5579216,6.987,-8.093,10.81,1.0
400.1166,128.197698,37.929252,8490.8763888,6.411,-8.106,10.776,1.0
400.1333,128.197709,37.929296,8490.1966848,5.768,-8.118,10.743,1.0
400.15,128.19772,37.929339,8489.5175904,5.06,-8.13,10.711,1.0
400.1666,128.197731,37.929383,8488.839715200002,4.288,-8.142,10.679,1.0
400.1833,128.197741,37.929427,8488.1627544,3.454,-8.153,10.649,1.0
400.2,128.197752,37.929471,8487.4870128,2.562,-8.164,10.619,1.0
400.2166,128.197763,37.929514,8486.8124904,1.612,-8.175,10.59,1.0
400.2333,128.197774,37.929558,8486.1388824,0.608,-8.185,10.562,1.0
400.25,128.197785,37.929602,8485.4661888,-0.448,-8.195,10.536,1.0
400.2666,128.197796,37.929646,8484.794409600001,-1.555,-8.206,10.51,1.0
400.2833,128.197807,37.92969,8484.1235448,-2.712,-8.215,10.485,1.0
400.3,128.197817,37.929733,8483.4538992,-3.915,-8.225,10.461,1.0
400.3166,128.197828,37.929777,8482.785168,-5.163,-8.235,10.438,1.0
400.3333,128.197839,37.929821,8482.1173512,-6.455,-8.245,10.415,1.0
400.35,128.19785,37.929865,8481.4504488,-7.789,-8.255,10.394,1.0
400.3666,128.197861,37.929909,8480.784460800001,-9.162,-8.266,10.373,1.0
400.3833,128.197872,37.929953,8480.1190824,-10.575,-8.276,10.353,1.0
400.4,128.197883,37.929997,8479.4549232,-12.024,-8.287,10.334,1.0
400.4166,128.197893,37.93004,8478.791373600001,-13.508,-8.298,10.316,1.0
400.4333,128.197904,37.930084,8478.1287384,-15.027,-8.309,10.299,1.0
400.45,128.197915,37.930128,8477.4670176,-16.579,-8.321,10.283,1.0
400.4666,128.197926,37.930172,8476.8059064,-18.162,-8.333,10.267,1.0
400.4833,128.197937,37.930216,8476.145709600001,-19.776,-8.346,10.252,1.0
400.5,128.197947,37.93026,8475.4861224,-21.418,-8.358,10.238,1.0
400.5166,128.197958,37.930304,8474.8271448,-23.089,-8.372,10.225,1.0
400.5333,128.197969,37.930348,8474.168776800001,-24.786,-8.385,10.213,1.0
400.55,128.19798,37.930392,8473.5110184,-26.509,-8.399,10.201,1.0
400.5666,128.19799,37.930436,8472.853564800002,-28.257,-8.414,10.191,1.0
400.5833,128.198001,37.93048,8472.1970256,-30.029,-8.429,10.181,1.0
400.6,128.198012,37.930524,8471.540486400001,-31.824,-8.444,10.172,1.0
400.6166,128.198022,37.930568,8470.884556800002,-33.641,-8.459,10.164,1.0
400.6333,128.198033,37.930612,8470.228932,-35.48,-8.475,10.157,1.0
400.65,128.198044,37.930656,8469.573612,-37.339,-8.491,10.151,1.0
400.6666,128.198054,37.9307,8468.918292,-39.217,-8.507,10.145,1.0
400.6833,128.198065,37.930744,8468.2632768,-41.115,-8.524,10.141,1.0
400.7,128.198075,37.930788,8467.6082616,-43.031,-8.541,10.137,1.0
400.7166,128.198086,37.930832,8466.9529416,-44.965,-8.558,10.134,1.0
400.7333,128.198096,37.930876,8466.2976216,-46.916,-8.575,10.132,1.0
400.75,128.198107,37.93092,8465.641996800001,-48.884,-8.592,10.131,1.0
400.7666,128.198117,37.930964,8464.9860672,-50.868,-8.609,10.13,1.0
400.7833,128.198128,37.931008,8464.3298328,-52.867,-8.626,10.13,1.0
400.8,128.198138,37.931052,8463.6732936,-54.88,-8.636,10.122,1.0
400.8166,128.198148,37.931096,8463.0161448,-56.905,-8.637,10.099,1.0
400.8333,128.198158,37.931141,8462.358386400001,-58.943,-8.63,10.065,1.0
400.85,128.198169,37.931185,8461.6997136,-60.992,-8.619,10.022,1.0
400.8666,128.198179,37.931229,8461.040431200001,-63.054,-8.604,9.972,1.0
400.8833,128.198189,37.931273,8460.3805392,-65.127,-8.589,9.918,1.0
400.9,128.198199,37.931317,8459.719428,-67.208,-8.568,9.849,1.0
400.9166,128.198209,37.931361,8459.0577072,-69.297,-8.539,9.754,1.0
400.9333,128.198219,37.931406,8458.3947672,-71.391,-8.505,9.636,1.0
400.95,128.198229,37.93145,8457.730608,-73.493,-8.468,9.501,1.0
400.9666,128.198239,37.931494,8457.0652296,-75.602,-8.432,9.355,1.0
400.9833,128.198249,37.931538,8456.3983272,-77.718,-8.399,9.201,1.0
401.0,128.198259,37.931582,8455.7299008,-79.824,-8.367,9.03,1.0
401.0166,128.198268,37.931627,8455.0596456,-81.917,-8.335,8.833,1.0
401.0333,128.198278,37.931671,8454.3872568,-83.999,-8.306,8.615,1.0
401.05,128.198288,37.931715,8453.7130392,-86.071,-8.282,8.383,1.0
401.0666,128.198297,37.93176,8453.036688,-88.134,-8.266,8.144,1.0
401.0833,128.198307,37.931804,8452.3578984,-90.192,-8.258,7.902,1.0
401.1,128.198316,37.931848,8451.6760608,-92.184,-8.256,7.647,1.0
401.1166,128.198325,37.931893,8450.9917848,-94.112,-8.261,7.373,1.0
401.1333,128.198335,37.931937,8450.304156,-95.981,-8.275,7.083,1.0
401.15,128.198344,37.931981,8449.613784000001,-97.8,-8.298,6.787,1.0
401.1666,128.198353,37.932026,8448.9197544,-99.575,-8.333,6.489,1.0
401.1833,128.198362,37.93207,8448.222372,-101.312,-8.378,6.194,1.0
401.2,128.198371,37.932114,8447.521332,-102.962,-8.433,5.891,1.0
401.2166,128.19838,37.932159,8446.8160248,-104.529,-8.499,5.577,1.0
401.2333,128.198389,37.932203,8446.10706,-106.024,-8.577,5.256,1.0
401.25,128.198398,37.932248,8445.393828,-107.455,-8.666,4.934,1.0
401.2666,128.198407,37.932292,8444.6763288,-108.833,-8.765,4.616,1.0
401.2833,128.198415,37.932336,8443.9539528,-110.165,-8.873,4.307,1.0
401.3,128.198424,37.932381,8443.226395200001,-111.419,-8.991,3.994,1.0
401.3166,128.198432,37.932425,8442.4942656,-112.601,-9.12,3.679,1.0
401.3333,128.198441,37.93247,8441.7569544,-113.721,-9.258,3.366,1.0
401.35,128.198449,37.932514,8441.014156800002,-114.787,-9.403,3.058,1.0
401.3666,128.198457,37.932559,8440.2658728,-115.808,-9.555,2.759,1.0
401.3833,128.198466,37.932603,8439.5114928,-116.79,-9.713,2.47,1.0
401.4,128.198474,37.932648,8438.7510168,-117.719,-9.873,2.194,1.0
401.4166,128.198482,37.932692,8437.9847496,-118.601,-10.034,1.929,1.0
401.4333,128.19849,37.932737,8437.2117768,-119.442,-10.197,1.678,1.0
401.45,128.198497,37.932782,8436.4320984,-120.249,-10.361,1.44,1.0
401.4666,128.198505,37.932826,8435.646019200001,-121.026,-10.526,1.215,1.0
401.4833,128.198513,37.932871,8434.852624800002,-121.778,-10.69,1.002,1.0
401.5,128.19852,37.932915,8434.052220000001,-122.492,-10.854,0.801,1.0
401.5166,128.198528,37.93296,8433.2451096,-123.171,-11.017,0.61,1.0
401.5333,128.198535,37.933004,8432.430379200001,-123.819,-11.179,0.43,1.0
401.55,128.198543,37.933049,8431.608333600001,-124.441,-11.34,0.259,1.0
401.5666,128.19855,37.933094,8430.778363200001,-125.041,-11.5,0.098,1.0
401.5833,128.198557,37.933138,8429.9407728,-125.622,-11.66,359.945,1.0
401.6,128.198564,37.933183,8429.0949528,-126.212,-11.82,359.801,1.0
401.6166,128.198571,37.933227,8428.2409032,-126.814,-11.981,359.664,1.0
401.6333,128.198578,37.933272,8427.378014400001,-127.428,-12.143,359.535,1.0
401.65,128.198585,37.933316,8426.506286400001,-128.054,-12.305,359.412,1.0
401.6666,128.198591,37.933361,8425.626024000001,-128.692,-12.467,359.295,1.0
401.6833,128.198598,37.933406,8424.7366176,-129.341,-12.629,359.183,1.0
401.7,128.198604,37.93345,8423.8386768,-129.962,-12.79,359.074,1.0
401.7166,128.19861,37.933495,8422.9322016,-130.556,-12.949,358.968,1.0
401.7333,128.198617,37.933539,8422.017192000001,-131.125,-13.108,358.866,1.0
401.75,128.198623,37.933584,8421.0933432,-131.672,-13.267,358.766,1.0
401.7666,128.198629,37.933628,8420.161264800001,-132.198,-13.425,358.67,1.0
401.7833,128.198635,37.933673,8419.2200424,-132.706,-13.584,358.578,1.0
401.8,128.198641,37.933718,8418.2702856,-133.176,-13.741,358.488,1.0
401.8166,128.198647,37.933762,8417.3122992,-133.609,-13.899,358.4,1.0
401.8333,128.198653,37.933807,8416.3454736,-134.011,-14.055,358.315,1.0
401.85,128.198658,37.933851,8415.3698088,-134.383,-14.212,358.232,1.0
401.8666,128.198664,37.933896,8414.3853048,-134.73,-14.368,358.153,1.0
401.8833,128.198669,37.93394,8413.3919616,-135.054,-14.524,358.076,1.0
401.9,128.198675,37.933985,8412.3897792,-135.351,-14.679,358.001,1.0
401.9166,128.19868,37.934029,8411.3784528,-135.624,-14.834,357.929,1.0
401.9333,128.198685,37.934074,8410.3579824,-135.877,-14.989,357.858,1.0
401.95,128.198691,37.934119,8409.328368,-136.11,-15.143,357.79,1.0
401.9666,128.198696,37.934163,8408.2893048,-136.326,-15.296,357.724,1.0
401.9833,128.198701,37.934208,8407.241097600001,-136.528,-15.449,357.659,1.0
402.0,128.198706,37.934252,8406.1837464,-136.691,-15.601,357.595,1.0
402.0166,128.198711,37.934297,8405.117860800001,-136.817,-15.751,357.532,1.0
402.0333,128.198715,37.934341,8404.0428312,-136.91,-15.899,357.469,1.0
402.05,128.19872,37.934386,8402.9586576,-136.972,-16.047,357.408,1.0
402.0666,128.198725,37.93443,8401.86534,-137.006,-16.193,357.347,1.0
402.0833,128.198729,37.934475,8400.7628784,-137.017,-16.338,357.288,1.0
402.1,128.198734,37.934519,8399.6515776,-136.968,-16.48,357.227,1.0
402.1166,128.198738,37.934564,8398.5317424,-136.86,-16.62,357.166,1.0
402.1333,128.198743,37.934608,8397.403068,-136.699,-16.757,357.105,1.0
402.15,128.198747,37.934652,8396.2658592,-136.488,-16.891,357.043,1.0
402.1666,128.198751,37.934697,8395.1198112,-136.234,-17.024,356.982,1.0
402.1833,128.198756,37.934741,8393.964924,-135.94,-17.154,356.922,1.0
402.2,128.19876,37.934786,8392.800892800002,-135.646,-17.283,356.862,1.0
402.2166,128.198764,37.93483,8391.6274128,-135.356,-17.411,356.804,1.0
402.2333,128.198768,37.934875,8390.4447888,-135.07,-17.537,356.747,1.0
402.25,128.198771,37.934919,8389.252106400001,-134.788,-17.662,356.69,1.0
402.2666,128.198775,37.934963,8388.0499752,-134.509,-17.785,356.632,1.0
402.2833,128.198779,37.935008,8386.8380904,-134.233,-17.906,356.575,1.0
402.3,128.198782,37.935052,8385.6173664,-133.953,-18.024,356.516,1.0
402.3166,128.198786,37.935096,8384.3868888,-133.669,-18.141,356.455,1.0
402.3333,128.198789,37.935141,8383.1469624,-133.38,-18.255,356.393,1.0
402.35,128.198793,37.935185,8381.897892,-133.086,-18.368,356.33,1.0
402.3666,128.198796,37.935229,8380.6393728,-132.786,-18.479,356.265,1.0
402.3833,128.198799,37.935274,8379.3714048,-132.482,-18.588,356.2,1.0
402.4,128.198802,37.935318,8378.0942928,-132.23,-18.7,356.136,1.0
402.4166,128.198805,37.935362,8376.807427200001,-132.03,-18.815,356.075,1.0
402.4333,128.198808,37.935407,8375.5105032,-131.878,-18.932,356.014,1.0
402.45,128.198811,37.935451,8374.2038256,-131.77,-19.049,355.954,1.0
402.4666,128.198814,37.935495,8372.8867848,-131.702,-19.166,355.893,1.0
402.4833,128.198816,37.935539,8371.559990400001,-131.671,-19.284,355.83,1.0
402.5,128.198819,37.935584,8370.222528,-131.688,-19.403,355.767,1.0
402.5166,128.198821,37.935628,8368.8747024,-131.751,-19.522,355.702,1.0
402.5333,128.198823,37.935672,8367.517123200001,-131.854,-19.642,355.636,1.0
402.55,128.198826,37.935716,8366.149180800001,-131.993,-19.762,355.568,1.0
402.5666,128.198828,37.93576,8364.7714848,-132.164,-19.884,355.499,1.0
402.5833,128.19883,37.935804,8363.383425600001,-132.362,-20.005,355.428,1.0
402.6,128.198832,37.935848,8361.985612800001,-132.589,-20.128,355.355,1.0
402.6166,128.198833,37.935892,8360.5774368,-132.841,-20.252,355.281,1.0
402.6333,128.198835,37.935936,8359.1595072,-133.115,-20.376,355.206,1.0
402.65,128.198837,37.93598,8357.731824,-133.408,-20.502,355.13,1.0
402.6666,128.198838,37.936024,8356.2937776,-133.718,-20.628,355.053,1.0
402.6833,128.19884,37.936068,8354.8459776,-134.043,-20.756,354.976,1.0
402.7,128.198841,37.936112,8353.388424,-134.375,-20.884,354.897,1.0
402.7166,128.198842,37.936156,8351.920812,-134.711,-21.013,354.818,1.0
402.7333,128.198844,37.9362,8350.4434464,-135.052,-21.143,354.739,1.0
402.75,128.198845,37.936244,8348.9563272,-135.396,-21.275,354.66,1.0
402.7666,128.198846,37.936288,8347.459149600001,-135.742,-21.407,354.581,1.0
402.7833,128.198847,37.936332,8345.9519136,-136.092,-21.54,354.502,1.0
402.8,128.198848,37.936376,8344.434924000001,-136.433,-21.674,354.423,1.0
402.8166,128.198848,37.936419,8342.908180800001,-136.767,-21.808,354.345,1.0
402.8333,128.198849,37.936463,8341.371684000002,-137.093,-21.944,354.266,1.0
402.85,128.19885,37.936507,8339.825128800001,-137.413,-22.08,354.189,1.0
402.8666,128.19885,37.936551,8338.268515200001,-137.727,-22.217,354.112,1.0
402.8833,128.198851,37.936594,8336.7018432,-138.036,-22.354,354.036,1.0
402.9,128.198851,37.936638,8335.1257224,-138.333,-22.492,353.96,1.0
402.9166,128.198851,37.936682,8333.5392384,-138.617,-22.63,353.885,1.0
402.9333,128.198851,37.936726,8331.9430008,-138.89,-22.769,353.81,1.0
402.95,128.198852,37.936769,8330.3367048,-139.153,-22.908,353.736,1.0
402.9666,128.198852,37.936813,8328.7203504,-139.408,-23.047,353.663,1.0
402.9833,128.198852,37.936856,8327.0936328,-139.655,-23.187,353.591,1.0
403.0,128.198852,37.9369,8325.4571616,-139.89,-23.326,353.519,1.0
403.0166,128.198851,37.936944,8323.810632,-140.113,-23.466,353.448,1.0
403.0333,128.198851,37.936987,8322.1537392,-140.327,-23.605,353.377,1.0
403.05,128.198851,37.937031,8320.486788,-140.531,-23.745,353.306,1.0
403.0666,128.198851,37.937074,8318.8094736,-140.726,-23.884,353.237,1.0
403.0833,128.19885,37.937118,8317.122100800001,-140.915,-24.024,353.168,1.0
403.1,128.19885,37.937161,8315.424669600001,-141.093,-24.163,353.099,1.0
403.1166,128.198849,37.937204,8313.716570400002,-141.263,-24.303,353.03,1.0
403.1333,128.198848,37.937248,8311.9984128,-141.425,-24.442,352.962,1.0
403.15,128.198848,37.937291,8310.2701968,-141.579,-24.581,352.894,1.0
403.1666,128.198847,37.937335,8308.5313128,-141.727,-24.72,352.827,1.0
403.1833,128.198846,37.937378,8306.7820656,-141.869,-24.859,352.76,1.0
403.2,128.198845,37.937421,8305.0224552,-142.004,-24.997,352.693,1.0
403.2166,128.198844,37.937464,8303.2524816,-142.132,-25.136,352.626,1.0
403.2333,128.198843,37.937508,8301.4721448,-142.255,-25.274,352.56,1.0
403.25,128.198842,37.937551,8299.6814448,-142.373,-25.412,352.493,1.0
403.2666,128.19884,37.937594,8297.8803816,-142.486,-25.55,352.427,1.0
403.2833,128.198839,37.937637,8296.0686504,-142.595,-25.688,352.362,1.0
403.3,128.198838,37.93768,8294.2462512,-142.699,-25.826,352.296,1.0
403.3166,128.198836,37.937723,8292.4137936,-142.8,-25.963,352.23,1.0
403.3333,128.198835,37.937766,8290.5703632,-142.896,-26.101,352.165,1.0
403.35,128.198833,37.937809,8288.716569600001,-142.989,-26.238,352.099,1.0
403.3666,128.198831,37.937852,8286.8524128,-143.079,-26.375,352.033,1.0
403.3833,128.19883,37.937895,8284.977588000002,-143.166,-26.512,351.968,1.0
403.4,128.198828,37.937938,8283.0920952,-143.25,-26.649,351.902,1.0
403.4166,128.198826,37.937981,8281.1959344,-143.332,-26.786,351.837,1.0
403.4333,128.198824,37.938024,8279.2894104,-143.412,-26.922,351.771,1.0
403.45,128.198822,37.938067,8277.3722184,-143.489,-27.058,351.705,1.0
403.4666,128.19882,37.93811,8275.4443584,-143.564,-27.195,351.639,1.0
403.4833,128.198818,37.938153,8273.5058304,-143.636,-27.331,351.573,1.0
403.5,128.198815,37.938195,8271.5566344,-143.71,-27.465,351.504,1.0
403.5166,128.198813,37.938238,8269.596465600001,-143.783,-27.598,351.433,1.0
403.5333,128.198811,37.938281,8267.6259336,-143.856,-27.73,351.36,1.0
403.55,128.198808,37.938324,8265.6447336,-143.927,-27.861,351.286,1.0
403.5666,128.198806,37.938366,8263.652865600001,-143.996,-27.991,351.211,1.0
403.5833,128.198803,37.938409,8261.6503296,-144.062,-28.121,351.135,1.0
403.6,128.198801,37.938451,8259.6374304,-144.063,-28.239,351.059,1.0
403.6166,128.198798,37.938494,8257.6144728,-144.001,-28.346,350.982,1.0
403.6333,128.198795,37.938536,8255.5817616,-143.873,-28.444,350.905,1.0
403.65,128.198792,37.938579,8253.539296800001,-143.68,-28.537,350.829,1.0
403.6666,128.19879,37.938621,8251.487383200001,-143.421,-28.624,350.753,1.0
403.6833,128.198787,37.938664,8249.4263256,-143.098,-28.709,350.677,1.0
403.7,128.198784,37.938706,8247.356428800002,-142.711,-28.791,350.601,1.0
403.7166,128.198781,37.938749,8245.2776928,-142.262,-28.87,350.527,1.0
403.7333,128.198778,37.938791,8243.1898128,-141.753,-28.946,350.452,1.0
403.75,128.198774,37.938833,8241.0927888,-141.186,-29.022,350.377,1.0
403.7666,128.198771,37.938876,8238.9869256,-140.567,-29.095,350.302,1.0
403.7833,128.198768,37.938918,8236.8719184,-139.902,-29.168,350.226,1.0
403.8,128.198765,37.93896,8234.7474624,-139.205,-29.242,350.148,1.0
403.8166,128.198761,37.939002,8232.6138624,-138.481,-29.318,350.067,1.0
403.8333,128.198758,37.939045,8230.470508800001,-137.733,-29.396,349.983,1.0
403.85,128.198754,37.939087,8228.318316,-136.963,-29.473,349.897,1.0
403.8666,128.198751,37.939129,8226.156674400001,-136.175,-29.551,349.808,1.0
403.8833,128.198747,37.939171,8223.985584000002,-135.37,-29.628,349.716,1.0
403.9,128.198743,37.939213,8221.805349600001,-134.566,-29.709,349.619,1.0
403.9166,128.19874,37.939255,8219.6153616,-133.765,-29.793,349.514,1.0
403.9333,128.198736,37.939297,8217.415924800001,-132.965,-29.88,349.403,1.0
403.95,128.198732,37.939339,8215.2070392,-132.168,-29.968,349.288,1.0
403.9666,128.198728,37.939381,8212.9893144,-131.373,-30.056,349.168,1.0
403.9833,128.198723,37.939423,8210.7621408,-130.579,-30.143,349.043,1.0
404.0,128.198719,37.939465,8208.5255184,-129.805,-30.23,348.916,1.0
404.0166,128.198715,37.939507,8206.2791424,-129.051,-30.317,348.785,1.0
404.0333,128.198711,37.939549,8204.0239272,-128.313,-30.402,348.652,1.0
404.05,128.198706,37.939591,8201.759568,-127.591,-30.486,348.515,1.0
404.0666,128.198701,37.939632,8199.486369600001,-126.882,-30.568,348.377,1.0
404.0833,128.198697,37.939674,8197.204027200001,-126.184,-30.647,348.236,1.0
404.1,128.198692,37.939716,8194.912236,-125.511,-30.725,348.094,1.0
404.1166,128.198687,37.939757,8192.611605600001,-124.863,-30.801,347.951,1.0
404.1333,128.198682,37.939799,8190.3024408,-124.235,-30.875,347.806,1.0
404.15,128.198677,37.939841,8187.9841320000005,-123.625,-30.947,347.66,1.0
404.1666,128.198672,37.939882,8185.6572888,-123.032,-31.017,347.513,1.0
404.1833,128.198667,37.939924,8183.321606400001,-122.452,-31.084,347.364,1.0
404.2,128.198661,37.939965,8180.9773896,-121.895,-31.15,347.215,1.0
404.2166,128.198656,37.940006,8178.624333600001,-121.361,-31.214,347.065,1.0
404.2333,128.19865,37.940048,8176.263048,-120.845,-31.277,346.913,1.0
404.25,128.198645,37.940089,8173.893532800001,-120.346,-31.337,346.761,1.0
404.2666,128.198639,37.940131,8171.515483200001,-119.862,-31.396,346.608,1.0
404.2833,128.198633,37.940172,8169.129204,-119.389,-31.453,346.454,1.0
404.3,128.198627,37.940213,8166.734695200001,-118.889,-31.507,346.298,1.0
404.3166,128.198621,37.940254,8164.3328712,-118.358,-31.556,346.14,1.0
404.3333,128.198615,37.940296,8161.9231224000005,-117.799,-31.603,345.98,1.0
404.35,128.198609,37.940337,8159.5060584,-117.214,-31.647,345.82,1.0
404.3666,128.198602,37.940378,8157.081374400001,-116.606,-31.689,345.659,1.0
404.3833,128.198596,37.940419,8154.649070400001,-115.976,-31.729,345.498,1.0
404.4,128.198589,37.94046,8152.2094512,-115.35,-31.768,345.338,1.0
404.4166,128.198583,37.940501,8149.762212,-114.729,-31.807,345.179,1.0
404.4333,128.198576,37.940542,8147.3073527999995,-114.113,-31.846,345.019,1.0
404.45,128.198569,37.940583,8144.845483200001,-113.503,-31.883,344.86,1.0
404.4666,128.198562,37.940624,8142.3759936,-112.897,-31.918,344.701,1.0
404.4833,128.198555,37.940665,8139.8994936,-112.296,-31.951,344.541,1.0
404.5,128.198548,37.940706,8137.415678400001,-111.72,-31.985,344.382,1.0
404.5166,128.19854,37.940746,8134.924548,-111.17,-32.017,344.222,1.0
404.5333,128.198533,37.940787,8132.4264072,-110.642,-32.049,344.063,1.0
404.55,128.198525,37.940828,8129.9212560000005,-110.134,-32.079,343.902,1.0
404.5666,128.198518,37.940869,8127.4090944,-109.643,-32.108,343.742,1.0
404.5833,128.19851,37.940909,8124.8902272000005,-109.169,-32.135,343.58,1.0
404.6,128.198502,37.94095,8122.3643496,-108.654,-32.157,343.418,1.0
404.6166,128.198494,37.940991,8119.8320712,-108.097,-32.174,343.256,1.0
404.6333,128.198486,37.941031,8117.2933920000005,-107.5,-32.186,343.095,1.0
404.65,128.198478,37.941072,8114.7486168000005,-106.868,-32.196,342.934,1.0
404.6666,128.198469,37.941112,8112.1977456,-106.202,-32.204,342.774,1.0
404.6833,128.198461,37.941153,8109.641083200001,-105.507,-32.21,342.614,1.0
404.7,128.198453,37.941193,8107.078020000001,-104.803,-32.215,342.453,1.0
404.7166,128.198444,37.941234,8104.509165600001,-104.092,-32.221,342.29,1.0
404.7333,128.198435,37.941274,8101.934520000001,-103.375,-32.226,342.127,1.0
404.75,128.198426,37.941315,8099.354083200001,-102.655,-32.23,341.963,1.0
404.7666,128.198417,37.941355,8096.7681600000005,-101.933,-32.233,341.798,1.0
404.7833,128.198408,37.941395,8094.1764456,-101.208,-32.234,341.633,1.0
404.8,128.198399,37.941435,8091.5792448,-100.502,-32.234,341.467,1.0
404.8166,128.19839,37.941476,8088.9768624,-99.816,-32.234,341.302,1.0
404.8333,128.19838,37.941516,8086.3689936,-99.147,-32.233,341.136,1.0
404.85,128.198371,37.941556,8083.7559432,-98.494,-32.23,340.97,1.0
404.8666,128.198361,37.941596,8081.137711200001,-97.856,-32.225,340.803,1.0
404.8833,128.198351,37.941636,8078.5146024,-97.231,-32.218,340.637,1.0
404.9,128.198341,37.941676,8075.886312,-96.58,-32.206,340.47,1.0
404.9166,128.198331,37.941716,8073.253449600001,-95.902,-32.19,340.303,1.0
404.9333,128.198321,37.941757,8070.616015200001,-95.2,-32.171,340.135,1.0
404.95,128.198311,37.941797,8067.974008800001,-94.474,-32.149,339.969,1.0
404.9666,128.1983,37.941836,8065.3274304,-93.728,-32.124,339.802,1.0
404.9833,128.19829,37.941876,8062.6765848000005,-92.963,-32.098,339.636,1.0
405.0,128.198279,37.941916,8060.0217768,-92.223,-32.072,339.471,1.0
405.0166,128.198268,37.941956,8057.363006400001,-91.511,-32.047,339.307,1.0
405.0333,128.198257,37.941996,8054.7002736,-90.824,-32.022,339.143,1.0
405.05,128.198246,37.942036,8052.033578400001,-90.16,-31.996,338.98,1.0
405.0666,128.198235,37.942076,8049.3632256,-89.519,-31.968,338.818,1.0
405.0833,128.198224,37.942116,8046.689215200001,-88.896,-31.938,338.656,1.0
405.1,128.198212,37.942155,8044.0118520000005,-88.317,-31.908,338.494,1.0
405.1166,128.198201,37.942195,8041.331136000001,-87.778,-31.878,338.332,1.0
405.1333,128.198189,37.942235,8038.647372,-87.276,-31.846,338.17,1.0
405.15,128.198177,37.942274,8035.960255200001,-86.807,-31.813,338.008,1.0
405.1666,128.198165,37.942314,8033.2697856,-86.367,-31.779,337.846,1.0
405.1833,128.198153,37.942354,8030.576572800001,-85.952,-31.743,337.684,1.0
405.2,128.198141,37.942393,8027.8806168,-85.571,-31.706,337.522,1.0
405.2166,128.198129,37.942433,8025.1816128,-85.22,-31.668,337.359,1.0
405.2333,128.198116,37.942472,8022.479865600001,-84.895,-31.63,337.197,1.0
405.25,128.198103,37.942512,8019.7753752,-84.595,-31.59,337.035,1.0
405.2666,128.198091,37.942551,8017.068141600001,-84.315,-31.55,336.873,1.0
405.2833,128.198078,37.94259,8014.358469600001,-84.054,-31.508,336.711,1.0
405.3,128.198065,37.94263,8011.6460544,-83.81,-31.466,336.549,1.0
405.3166,128.198051,37.942669,8008.9315056000005,-83.582,-31.424,336.388,1.0
405.3333,128.198038,37.942708,8006.2142136,-83.368,-31.382,336.227,1.0
405.35,128.198025,37.942748,8003.494483200001,-83.166,-31.339,336.067,1.0
405.3666,128.198011,37.942787,8000.7723144,-82.974,-31.296,335.907,1.0
405.3833,128.197997,37.942826,7998.048012,-82.793,-31.254,335.747,1.0
405.4,128.197983,37.942865,7995.321576,-82.623,-31.211,335.588,1.0
405.4166,128.197969,37.942905,7992.5927016000005,-82.464,-31.169,335.43,1.0
405.4333,128.197955,37.942944,7989.8619984,-82.314,-31.128,335.272,1.0
405.45,128.197941,37.942983,7987.128856800001,-82.173,-31.087,335.115,1.0
405.4666,128.197926,37.943022,7984.3935816,-82.041,-31.046,334.958,1.0
405.4833,128.197912,37.943061,7981.656172800001,-81.916,-31.005,334.802,1.0
405.5,128.197897,37.9431,7978.9169352,-81.803,-30.965,334.646,1.0
405.5166,128.197882,37.943139,7976.175868800001,-81.701,-30.927,334.49,1.0
405.5333,128.197867,37.943178,7973.4326688,-81.609,-30.888,334.335,1.0
405.55,128.197852,37.943217,7970.68764,-81.527,-30.851,334.181,1.0
405.5666,128.197837,37.943256,7967.9404776,-81.454,-30.814,334.026,1.0
405.5833,128.197822,37.943295,7965.1914864,-81.389,-30.777,333.873,1.0
405.6,128.197806,37.943333,7962.4409712,-81.337,-30.742,333.719,1.0
405.6166,128.19779,37.943372,7959.6883224,-81.296,-30.707,333.565,1.0
405.6333,128.197775,37.943411,7956.9338448,-81.265,-30.674,333.411,1.0
405.65,128.197759,37.94345,7954.1778432,-81.245,-30.641,333.258,1.0
405.6666,128.197743,37.943488,7951.4200128,-81.234,-30.609,333.105,1.0
405.6833,128.197726,37.943527,7948.6600488,-81.232,-30.578,332.952,1.0
405.7,128.19771,37.943566,7945.898865600001,-81.241,-30.548,332.798,1.0
405.7166,128.197694,37.943604,7943.1358536,-81.26,-30.519,332.645,1.0
405.7333,128.197677,37.943643,7940.3710128,-81.29,-30.49,332.492,1.0
405.75,128.19766,37.943681,7937.6043432,-81.329,-30.463,332.338,1.0
405.7666,128.197643,37.94372,7934.836149600001,-81.377,-30.437,332.185,1.0
405.7833,128.197626,37.943758,7932.0658224,-81.432,-30.411,332.031,1.0
405.8,128.197609,37.943797,7929.2942760000005,-81.496,-30.386,331.877,1.0
405.8166,128.197592,37.943835,7926.5209008,-81.568,-30.363,331.723,1.0
405.8333,128.197574,37.943874,7923.745696800001,-81.648,-30.34,331.569,1.0
405.85,128.197557,37.943912,7920.968664000001,-81.736,-30.319,331.415,1.0
405.8666,128.197539,37.94395,7918.1901072,-81.83,-30.298,331.26,1.0
405.8833,128.197521,37.943988,7915.4097216,-81.93,-30.278,331.106,1.0
405.9,128.197503,37.944027,7912.627812,-82.032,-30.261,330.95,1.0
405.9166,128.197485,37.944065,7909.8440736,-82.137,-30.247,330.795,1.0
405.9333,128.197467,37.944103,7907.058506400001,-82.245,-30.235,330.639,1.0
405.95,128.197449,37.944141,7904.271415200001,-82.356,-30.224,330.482,1.0
405.9666,128.19743,37.944179,7901.4821904,-82.472,-30.215,330.325,1.0
405.9833,128.197411,37.944217,7898.691441600001,-82.591,-30.207,330.168,1.0
406.0,128.197393,37.944255,7895.898864000001,-82.711,-30.202,330.011,1.0
406.0166,128.197374,37.944293,7893.1044576,-82.83,-30.2,329.852,1.0
406.0333,128.197355,37.944331,7890.3082224,-82.949,-30.199,329.694,1.0
406.05,128.197335,37.944369,7887.5101584,-83.071,-30.201,329.535,1.0
406.0666,128.197316,37.944407,7884.709960800001,-83.194,-30.203,329.376,1.0
406.0833,128.197297,37.944445,7881.9082392,-83.321,-30.207,329.216,1.0
406.1,128.197277,37.944482,7879.104384000001,-83.446,-30.212,329.057,1.0
406.1166,128.197257,37.94452,7876.2983952,-83.571,-30.218,328.897,1.0
406.1333,128.197238,37.944558,7873.4905776000005,-83.696,-30.225,328.737,1.0
406.15,128.197218,37.944595,7870.6809312000005,-83.821,-30.234,328.576,1.0
406.1666,128.197197,37.944633,7867.8691512000005,-83.946,-30.243,328.416,1.0
406.1833,128.197177,37.94467,7865.0552376000005,-84.072,-30.252,328.255,1.0
406.2,128.197157,37.944708,7862.239190400001,-84.197,-30.263,328.094,1.0
406.2166,128.197136,37.944745,7859.4213144000005,-84.321,-30.274,327.933,1.0
406.2333,128.197116,37.944783,7856.6013048,-84.444,-30.286,327.772,1.0
406.25,128.197095,37.94482,7853.7788568000005,-84.567,-30.299,327.61,1.0
406.2666,128.197074,37.944857,7850.95458,-84.69,-30.312,327.449,1.0
406.2833,128.197053,37.944895,7848.128169600001,-84.813,-30.326,327.287,1.0
406.3,128.197032,37.944932,7845.2996256,-84.937,-30.341,327.125,1.0
406.3166,128.197011,37.944969,7842.4686432,-85.063,-30.357,326.963,1.0
406.3333,128.196989,37.945006,7839.635832000001,-85.191,-30.373,326.801,1.0
406.35,128.196968,37.945043,7836.8005824,-85.32,-30.391,326.639,1.0
406.3666,128.196946,37.94508,7833.9631992,-85.451,-30.409,326.476,1.0
406.3833,128.196924,37.945117,7831.123377600001,-85.584,-30.428,326.313,1.0
406.4,128.196902,37.945154,7828.2814224,-85.72,-30.447,326.15,1.0
406.4166,128.19688,37.945191,7825.437333600001,-85.86,-30.468,325.987,1.0
406.4333,128.196858,37.945228,7822.590501600001,-86.002,-30.489,325.824,1.0
406.45,128.196836,37.945265,7819.7418408,-86.147,-30.511,325.66,1.0
406.4666,128.196813,37.945302,7816.8904368,-86.295,-30.534,325.496,1.0
406.4833,128.19679,37.945338,7814.0365944000005,-86.445,-30.557,325.332,1.0
406.5,128.196768,37.945375,7811.180618400001,-86.599,-30.581,325.167,1.0
406.5166,128.196745,37.945412,7808.322204,-86.756,-30.606,325.002,1.0
406.5333,128.196722,37.945448,7805.461046400001,-86.917,-30.632,324.837,1.0
406.55,128.196699,37.945485,7802.5977552,-87.08,-30.659,324.672,1.0
406.5666,128.196676,37.945521,7799.7317207999995,-87.247,-30.686,324.506,1.0
406.5833,128.196652,37.945558,7796.863248,-87.416,-30.714,324.341,1.0
406.6,128.196629,37.945594,7793.992032,-87.587,-30.743,324.175,1.0
406.6166,128.196605,37.94563,7791.118377600001,-87.762,-30.773,324.008,1.0
406.6333,128.196581,37.945666,7788.24198,-87.939,-30.803,323.841,1.0
406.65,128.196557,37.945703,7785.3628392,-88.118,-30.835,323.674,1.0
406.6666,128.196533,37.945739,7782.4812600000005,-88.3,-30.867,323.507,1.0
406.6833,128.196509,37.945775,7779.5966328,-88.484,-30.9,323.34,1.0
406.7,128.196485,37.945811,7776.7095672000005,-88.669,-30.934,323.172,1.0
406.7166,128.196461,37.945847,7773.8194536,-88.856,-30.969,323.004,1.0
406.7333,128.196436,37.945883,7770.926596800001,-89.045,-31.004,322.836,1.0
406.75,128.196412,37.945918,7768.030996800001,-89.235,-31.041,322.668,1.0
406.7666,128.196387,37.945954,7765.1323488,-89.426,-31.078,322.499,1.0
406.7833,128.196362,37.94599,7762.2306528,-89.619,-31.116,322.33,1.0
406.8,128.196337,37.946026,7759.3262136,-89.812,-31.155,322.161,1.0
406.8166,128.196312,37.946061,7756.4187264,-90.005,-31.194,321.992,1.0
406.8333,128.196286,37.946097,7753.5081912000005,-90.199,-31.235,321.822,1.0
406.85,128.196261,37.946132,7750.594608,-90.393,-31.276,321.653,1.0
406.8666,128.196236,37.946168,7747.677976800001,-90.589,-31.318,321.483,1.0
406.8833,128.19621,37.946203,7744.7579928000005,-90.784,-31.361,321.313,1.0
406.9,128.196184,37.946238,7741.835265600001,-90.979,-31.404,321.143,1.0
406.9166,128.196158,37.946274,7738.908880800001,-91.174,-31.449,320.973,1.0
406.9333,128.196132,37.946309,7735.979448,-91.368,-31.494,320.802,1.0
406.95,128.196106,37.946344,7733.0466624,-91.562,-31.54,320.632,1.0
406.9666,128.19608,37.946379,7730.1108288000005,-91.755,-31.586,320.461,1.0
406.9833,128.196054,37.946414,7727.171337600001,-91.949,-31.634,320.29,1.0
407.0,128.196027,37.946449,7724.2284936,-92.141,-31.682,320.119,1.0
407.0166,128.196,37.946484,7721.282296800001,-92.333,-31.73,319.948,1.0
407.0333,128.195974,37.946518,7718.332747200001,-92.523,-31.78,319.777,1.0
407.05,128.195947,37.946553,7715.37954,-92.712,-31.83,319.606,1.0
407.0666,128.19592,37.946588,7712.4226751999995,-92.901,-31.881,319.435,1.0
407.0833,128.195893,37.946622,7709.4624576,-93.089,-31.933,319.263,1.0
407.1,128.195866,37.946657,7706.4988872,-93.275,-31.985,319.092,1.0
407.1166,128.195838,37.946691,7703.5313544,-93.461,-32.038,318.92,1.0
407.1333,128.195811,37.946726,7700.560164,-93.645,-32.091,318.749,1.0
407.15,128.195783,37.94676,7697.585316,-93.828,-32.146,318.577,1.0
407.1666,128.195756,37.946794,7694.6068104000005,-94.011,-32.201,318.406,1.0
407.1833,128.195728,37.946829,7691.6243424,-94.193,-32.256,318.234,1.0
407.2,128.1957,37.946863,7688.6385216,-94.375,-32.312,318.062,1.0
407.2166,128.195672,37.946897,7685.648433600001,-94.555,-32.369,317.89,1.0
407.2333,128.195644,37.946931,7682.6546880000005,-94.735,-32.427,317.718,1.0
407.25,128.195616,37.946965,7679.65698,-94.915,-32.485,317.546,1.0
407.2666,128.195587,37.946998,7676.655309600001,-95.094,-32.544,317.374,1.0
407.2833,128.195559,37.947032,7673.649676800001,-95.273,-32.603,317.202,1.0
407.3,128.19553,37.947066,7670.6400816000005,-95.452,-32.663,317.03,1.0
407.3166,128.195501,37.947099,7667.6262192,-95.631,-32.723,316.858,1.0
407.3333,128.195473,37.947133,7664.6086992,-95.809,-32.785,316.685,1.0
407.35,128.195444,37.947166,7661.586912,-95.988,-32.846,316.513,1.0
407.3666,128.195415,37.9472,7658.5608576,-96.166,-32.909,316.341,1.0
407.3833,128.195385,37.947233,7655.530536,-96.345,-32.972,316.168,1.0
407.4,128.195356,37.947266,7652.496252000001,-96.523,-33.035,315.995,1.0
407.4166,128.195327,37.9473,7649.457700800001,-96.701,-33.099,315.823,1.0
407.4333,128.195297,37.947333,7646.4148824,-96.878,-33.164,315.65,1.0
407.45,128.195268,37.947366,7643.367796800001,-97.055,-33.229,315.477,1.0
407.4666,128.195238,37.947399,7640.3161392,-97.231,-33.294,315.304,1.0
407.4833,128.195208,37.947431,7637.2602144,-97.407,-33.36,315.132,1.0
407.5,128.195178,37.947464,7634.2000224,-97.583,-33.427,314.959,1.0
407.5166,128.195148,37.947497,7631.135258400001,-97.758,-33.494,314.786,1.0
407.5333,128.195118,37.94753,7628.0659224,-97.932,-33.562,314.613,1.0
407.55,128.195088,37.947562,7624.992319200001,-98.105,-33.63,314.439,1.0
407.5666,128.195057,37.947595,7621.9138391999995,-98.279,-33.699,314.266,1.0
407.5833,128.195027,37.947627,7618.831092,-98.451,-33.768,314.093,1.0
407.6,128.194996,37.947659,7615.7437728,-98.624,-33.838,313.92,1.0
407.6166,128.194966,37.947691,7612.6515768,-98.795,-33.908,313.746,1.0
407.6333,128.194935,37.947724,7609.5548088000005,-98.966,-33.978,313.573,1.0
407.65,128.194904,37.947756,7606.4531640000005,-99.137,-34.05,313.399,1.0
407.6666,128.194873,37.947788,7603.346947200001,-99.307,-34.121,313.226,1.0
407.6833,128.194842,37.94782,7600.2361584,-99.477,-34.194,313.052,1.0
407.7,128.194811,37.947851,7597.120188000001,-99.646,-34.266,312.879,1.0
407.7166,128.194779,37.947883,7593.999645600001,-99.815,-34.339,312.705,1.0
407.7333,128.194748,37.947915,7590.8742264,-99.984,-34.413,312.531,1.0
407.75,128.194716,37.947946,7587.7436256,-100.152,-34.487,312.358,1.0
407.7666,128.194685,37.947978,7584.6084528,-100.32,-34.562,312.184,1.0
407.7833,128.194653,37.948009,7581.4680984,-100.487,-34.637,312.01,1.0
407.8,128.194621,37.94804,7578.3225624,-100.656,-34.712,311.836,1.0
407.8166,128.194589,37.948072,7575.1721496,-100.824,-34.789,311.662,1.0
407.8333,128.194557,37.948103,7572.016860000001,-100.993,-34.865,311.488,1.0
407.85,128.194525,37.948134,7568.8563888,-101.163,-34.942,311.314,1.0
407.8666,128.194493,37.948165,7565.6907360000005,-101.333,-35.02,311.14,1.0
407.8833,128.194461,37.948196,7562.519901600001,-101.503,-35.098,310.966,1.0
407.9,128.194428,37.948226,7559.3438856,-101.669,-35.176,310.791,1.0
407.9166,128.194396,37.948257,7556.162688,-101.83,-35.254,310.617,1.0
407.9333,128.194363,37.948288,7552.976004,-101.987,-35.333,310.442,1.0
407.95,128.19433,37.948318,7549.7844432,-102.14,-35.411,310.268,1.0
407.9666,128.194298,37.948349,7546.587396000001,-102.29,-35.49,310.093,1.0
407.9833,128.194265,37.948379,7543.3848624,-102.436,-35.569,309.918,1.0
408.0,128.194232,37.948409,7540.177147200001,-102.583,-35.65,309.744,1.0
408.0166,128.194199,37.948439,7536.9639456,-102.732,-35.731,309.569,1.0
408.0333,128.194165,37.948469,7533.7452576,-102.881,-35.812,309.395,1.0
408.05,128.194132,37.948499,7530.521388000001,-103.031,-35.894,309.221,1.0
408.0666,128.194099,37.948529,7527.2917272,-103.182,-35.977,309.046,1.0
408.0833,128.194065,37.948559,7524.0565799999995,-103.334,-36.06,308.872,1.0
408.1,128.194032,37.948589,7520.815946400001,-103.487,-36.143,308.697,1.0
408.1166,128.193998,37.948618,7517.5698264,-103.641,-36.227,308.522,1.0
408.1333,128.193965,37.948648,7514.317915200001,-103.797,-36.311,308.348,1.0
408.15,128.193931,37.948677,7511.0602128,-103.954,-36.395,308.173,1.0
408.1666,128.193897,37.948707,7507.797024,-104.111,-36.48,307.998,1.0
408.1833,128.193863,37.948736,7504.5283488000005,-104.268,-36.566,307.823,1.0
408.2,128.193829,37.948765,7501.2535776,-104.427,-36.652,307.648,1.0
408.2166,128.193795,37.948794,7497.973320000001,-104.586,-36.738,307.472,1.0
408.2333,128.19376,37.948823,7494.6869664,-104.745,-36.824,307.297,1.0
408.25,128.193726,37.948852,7491.3951264,-104.905,-36.911,307.121,1.0
408.2666,128.193692,37.948881,7488.0971904,-105.065,-36.999,306.946,1.0
408.2833,128.193657,37.948909,7484.793463200001,-105.226,-37.087,306.77,1.0
408.3,128.193622,37.948938,7481.4839448,-105.386,-37.175,306.594,1.0
408.3166,128.193588,37.948966,7478.1683304,-105.545,-37.264,306.418,1.0
408.3333,128.193553,37.948994,7474.846620000001,-105.704,-37.353,306.242,1.0
408.35,128.193518,37.949023,7471.5191184000005,-105.862,-37.442,306.066,1.0
408.3666,128.193483,37.949051,7468.1855208,-106.02,-37.532,305.89,1.0
408.3833,128.193448,37.949079,7464.846132000001,-106.178,-37.622,305.714,1.0
408.4,128.193413,37.949107,7461.500342400001,-106.335,-37.713,305.538,1.0
408.4166,128.193378,37.949135,7458.1484568000005,-106.491,-37.804,305.361,1.0
408.4333,128.193343,37.949162,7454.7904751999995,-106.646,-37.895,305.185,1.0
408.45,128.193308,37.94919,7451.426397600001,-106.801,-37.987,305.008,1.0
408.4666,128.193272,37.949218,7448.055919200001,-106.956,-38.079,304.831,1.0
408.4833,128.193237,37.949245,7444.6793448,-107.11,-38.172,304.655,1.0
408.5,128.193201,37.949272,7441.296369600001,-107.262,-38.264,304.478,1.0
408.5166,128.193165,37.9493,7437.9072984,-107.412,-38.358,304.301,1.0
408.5333,128.19313,37.949327,7434.5118264,-107.562,-38.451,304.124,1.0
408.55,128.193094,37.949354,7431.1102584,-107.709,-38.545,303.947,1.0
408.5666,128.193058,37.949381,7427.7019848,-107.856,-38.639,303.77,1.0
408.5833,128.193022,37.949408,7424.287310400001,-108.001,-38.734,303.593,1.0
408.6,128.192986,37.949434,7420.86654,-108.145,-38.829,303.416,1.0
408.6166,128.19295,37.949461,7417.439064,-108.287,-38.924,303.238,1.0
408.6333,128.192914,37.949488,7414.0051872,-108.427,-39.02,303.061,1.0
408.65,128.192878,37.949514,7410.564909600001,-108.565,-39.115,302.884,1.0
408.6666,128.192842,37.94954,7407.1179264,-108.703,-39.212,302.706,1.0
408.6833,128.192805,37.949567,7403.664542400001,-108.839,-39.308,302.529,1.0
408.7,128.192769,37.949593,7400.2044528,-108.974,-39.405,302.351,1.0
408.7166,128.192732,37.949619,7396.7376576,-109.108,-39.502,302.173,1.0
408.7333,128.192696,37.949644,7393.2644616,-109.24,-39.6,301.996,1.0
408.75,128.192659,37.94967,7389.784560000001,-109.372,-39.698,301.818,1.0
408.7666,128.192623,37.949696,7386.2979528,-109.503,-39.796,301.64,1.0
408.7833,128.192586,37.949722,7382.80464,-109.633,-39.894,301.462,1.0
408.8,128.192549,37.949747,7379.3046216,-109.763,-39.993,301.284,1.0
408.8166,128.192512,37.949772,7375.797897600001,-109.892,-40.092,301.106,1.0
408.8333,128.192475,37.949798,7372.284468000001,-110.02,-40.191,300.927,1.0
408.85,128.192438,37.949823,7368.7640280000005,-110.148,-40.291,300.749,1.0
408.8666,128.192401,37.949848,7365.2368824000005,-110.276,-40.391,300.571,1.0
408.8833,128.192364,37.949873,7361.7027264,-110.403,-40.491,300.392,1.0
408.9,128.192327,37.949897,7358.1618648,-110.528,-40.592,300.213,1.0
408.9166,128.19229,37.949922,7354.614297600001,-110.653,-40.692,300.034,1.0
408.9333,128.192252,37.949947,7351.059720000001,-110.776,-40.793,299.855,1.0
408.95,128.192215,37.949971,7347.498132000001,-110.898,-40.894,299.676,1.0
408.9666,128.192178,37.949996,7343.9295336000005,-111.019,-40.996,299.497,1.0
408.9833,128.19214,37.95002,7340.353924800001,-111.139,-41.097,299.317,1.0
409.0,128.192103,37.950044,7336.7713056,-111.258,-41.199,299.138,1.0
409.0166,128.192065,37.950068,7333.1819808,-111.375,-41.301,298.958,1.0
409.0333,128.192027,37.950092,7329.5853408,-111.49,-41.404,298.778,1.0
409.05,128.19199,37.950116,7325.9816904,-111.604,-41.506,298.598,1.0
409.0666,128.191952,37.950139,7322.3710296,-111.717,-41.609,298.418,1.0
409.0833,128.191914,37.950163,7318.7533584,-111.829,-41.712,298.237,1.0
409.1,128.191876,37.950187,7315.128372,-111.938,-41.815,298.057,1.0
409.1166,128.191838,37.95021,7311.496375199999,-112.046,-41.919,297.876,1.0
409.1333,128.1918,37.950233,7307.857368,-112.151,-42.022,297.695,1.0
409.15,128.191762,37.950256,7304.2110456,-112.255,-42.126,297.514,1.0
409.1666,128.191724,37.950279,7300.557408,-112.358,-42.23,297.333,1.0
409.1833,128.191686,37.950302,7296.8967600000005,-112.459,-42.334,297.152,1.0
409.2,128.191648,37.950325,7293.228796800001,-112.557,-42.438,296.97,1.0
409.2166,128.19161,37.950348,7289.553823200001,-112.653,-42.542,296.788,1.0
409.2333,128.191572,37.95037,7285.871229599999,-112.747,-42.647,296.606,1.0
409.25,128.191534,37.950393,7282.1816256,-112.839,-42.751,296.424,1.0
409.2666,128.191495,37.950415,7278.4847064000005,-112.929,-42.856,296.242,1.0
409.2833,128.191457,37.950437,7274.780472,-113.017,-42.961,296.059,1.0
409.3,128.191418,37.950459,7271.068922400001,-113.103,-43.066,295.877,1.0
409.3166,128.19138,37.950481,7267.3497528,-113.186,-43.171,295.694,1.0
409.3333,128.191341,37.950503,7263.6235728,-113.267,-43.276,295.511,1.0
409.35,128.191303,37.950525,7259.8900776,-113.346,-43.381,295.327,1.0
409.3666,128.191264,37.950547,7256.1489624,-113.424,-43.487,295.144,1.0
409.3833,128.191226,37.950568,7252.400532000001,-113.499,-43.592,294.96,1.0
409.4,128.191187,37.95059,7248.6450912,-113.564,-43.697,294.775,1.0
409.4166,128.191148,37.950611,7244.8817256,-113.619,-43.801,294.59,1.0
409.4333,128.19111,37.950632,7241.111349600001,-113.664,-43.904,294.404,1.0
409.45,128.191071,37.950653,7237.3336584,-113.701,-44.007,294.218,1.0
409.4666,128.191032,37.950674,7233.5483472000005,-113.729,-44.11,294.032,1.0
409.4833,128.190993,37.950695,7229.7557208,-113.752,-44.213,293.846,1.0
409.5,128.190955,37.950716,7225.9557792000005,-113.775,-44.317,293.66,1.0
409.5166,128.190916,37.950736,7222.1482176,-113.801,-44.422,293.474,1.0
409.5333,128.190877,37.950757,7218.333036,-113.83,-44.527,293.289,1.0
409.55,128.190838,37.950777,7214.5105392,-113.861,-44.633,293.103,1.0
409.5666,128.190799,37.950797,7210.680422400001,-113.894,-44.738,292.918,1.0
409.5833,128.19076,37.950817,7206.842685600001,-113.929,-44.844,292.731,1.0
409.6,128.190721,37.950837,7202.997633600001,-113.969,-44.95,292.545,1.0
409.6166,128.190682,37.950857,7199.1449616,-114.013,-45.055,292.358,1.0
409.6333,128.190642,37.950877,7195.2849744000005,-114.061,-45.161,292.17,1.0
409.65,128.190603,37.950896,7191.4170624,-114.111,-45.267,291.982,1.0
409.6666,128.190564,37.950916,7187.5418352,-114.165,-45.374,291.794,1.0
409.6833,128.190525,37.950935,7183.658988000001,-114.219,-45.479,291.604,1.0
409.7,128.190486,37.950955,7179.7688256,-114.27,-45.585,291.414,1.0
409.7166,128.190447,37.950974,7175.870738400001,-114.317,-45.69,291.224,1.0
409.7333,128.190407,37.950993,7171.9656408,-114.359,-45.794,291.032,1.0
409.75,128.190368,37.951012,7168.0526184,-114.396,-45.898,290.84,1.0
409.7666,128.190329,37.95103,7164.131976,-114.43,-46.003,290.647,1.0
409.7833,128.190289,37.951049,7160.204018400001,-114.461,-46.107,290.454,1.0
409.8,128.19025,37.951068,7156.2684408000005,-114.487,-46.212,290.261,1.0
409.8166,128.190211,37.951086,7152.3252432,-114.509,-46.316,290.067,1.0
409.8333,128.190171,37.951104,7148.3747304,-114.528,-46.42,289.873,1.0
409.8499,128.190132,37.951122,7144.4162928000005,-114.543,-46.524,289.679,1.0
409.8666,128.190092,37.95114,7140.45054,-114.556,-46.628,289.484,1.0
409.8833,128.190053,37.951158,7136.4771672,-114.566,-46.732,289.289,1.0
409.9,128.190013,37.951176,7132.496174400001,-114.574,-46.836,289.093,1.0
409.9166,128.189974,37.951194,7128.5072568000005,-114.579,-46.94,288.897,1.0
409.9333,128.189934,37.951211,7124.511328800001,-114.583,-47.044,288.7,1.0
409.95,128.189895,37.951229,7120.507476,-114.585,-47.148,288.503,1.0
409.9666,128.189855,37.951246,7116.4960032,-114.585,-47.252,288.306,1.0
409.9833,128.189816,37.951263,7112.476910400001,-114.583,-47.356,288.108,1.0
410.0,128.189776,37.95128,7108.4505024,-114.58,-47.459,287.91,1.0
410.0166,128.189736,37.951297,7104.416169600001,-114.575,-47.562,287.711,1.0
410.0333,128.189697,37.951314,7100.3745216,-114.568,-47.666,287.511,1.0
410.05,128.189657,37.951331,7096.3252536,-114.559,-47.769,287.311,1.0
410.0666,128.189618,37.951347,7092.268060800001,-114.549,-47.871,287.11,1.0
410.0833,128.189578,37.951364,7088.2035528,-114.538,-47.974,286.909,1.0
410.0999,128.189538,37.95138,7084.131424800001,-114.525,-48.077,286.707,1.0
410.1166,128.189499,37.951396,7080.051676800001,-114.51,-48.179,286.505,1.0
410.1333,128.189459,37.951412,7075.9646136,-114.494,-48.282,286.302,1.0
410.15,128.189419,37.951428,7071.8696256,-114.477,-48.384,286.098,1.0
410.1666,128.18938,37.951444,7067.7673224,-114.459,-48.486,285.894,1.0
410.1833,128.18934,37.951459,7063.6570944000005,-114.439,-48.588,285.689,1.0
410.2,128.1893,37.951475,7059.5395512000005,-114.418,-48.69,285.484,1.0
410.2166,128.18926,37.95149,7055.414388000001,-114.395,-48.792,285.278,1.0
410.2333,128.189221,37.951506,7051.2816048,-114.371,-48.893,285.071,1.0
410.25,128.189181,37.951521,7047.141506400001,-114.345,-48.994,284.864,1.0
410.2666,128.189141,37.951536,7042.993483200001,-114.318,-49.095,284.656,1.0
410.2833,128.189102,37.951551,7038.8381448,-114.29,-49.196,284.447,1.0
410.3,128.189062,37.951565,7034.675186400001,-114.261,-49.297,284.238,1.0
410.3166,128.189022,37.95158,7030.5049128,-114.231,-49.398,284.028,1.0
410.3333,128.188982,37.951595,7026.3267144,-114.2,-49.498,283.817,1.0
410.3499,128.188943,37.951609,7022.141200800001,-114.167,-49.599,283.606,1.0
410.3666,128.188903,37.951623,7017.9480672,-114.134,-49.699,283.394,1.0
410.3833,128.188863,37.951637,7013.747618400001,-114.1,-49.799,283.181,1.0
410.4,128.188823,37.951651,7009.5395496,-114.065,-49.899,282.967,1.0
410.4166,128.188784,37.951665,7005.323860800001,-114.028,-49.998,282.753,1.0
410.4333,128.188744,37.951679,7001.100856800001,-113.991,-50.098,282.538,1.0
410.45,128.188704,37.951692,6996.870232800001,-113.952,-50.197,282.322,1.0
410.4666,128.188665,37.951706,6992.6319888,-113.912,-50.296,282.106,1.0
410.4833,128.188625,37.951719,6988.3864296,-113.871,-50.395,281.889,1.0
410.5,128.188585,37.951732,6984.133555200001,-113.829,-50.494,281.671,1.0
410.5166,128.188545,37.951746,6979.8730608000005,-113.787,-50.593,281.453,1.0
410.5333,128.188506,37.951758,6975.604946400001,-113.743,-50.691,281.233,1.0
410.55,128.188466,37.951771,6971.3295168,-113.699,-50.789,281.013,1.0
410.5666,128.188426,37.951784,6967.046772000001,-113.654,-50.887,280.792,1.0
410.5833,128.188387,37.951796,6962.7564072,-113.609,-50.985,280.571,1.0
410.5999,128.188347,37.951809,6958.4587272,-113.562,-51.083,280.348,1.0
410.6166,128.188307,37.951821,6954.1534272,-113.515,-51.181,280.125,1.0
410.6333,128.188268,37.951833,6949.840812,-113.467,-51.278,279.901,1.0
410.65,128.188228,37.951845,6945.5208816,-113.418,-51.375,279.676,1.0
410.6666,128.188189,37.951857,6941.1933312,-113.369,-51.472,279.451,1.0
410.6833,128.188149,37.951869,6936.858770400001,-113.318,-51.569,279.225,1.0
410.7,128.188109,37.951881,6932.5165896,-113.266,-51.666,278.997,1.0
410.7166,128.18807,37.951892,6928.1670936,-113.213,-51.762,278.769,1.0
410.7333,128.18803,37.951903,6923.810282400001,-113.159,-51.858,278.54,1.0
410.75,128.187991,37.951915,6919.446156000001,-113.103,-51.954,278.311,1.0
410.7666,128.187951,37.951926,6915.074409600001,-113.046,-52.05,278.08,1.0
410.7833,128.187912,37.951937,6910.6956528,-112.988,-52.146,277.849,1.0
410.8,128.187872,37.951948,6906.309276,-112.929,-52.241,277.617,1.0
410.8166,128.187833,37.951958,6901.9158888,-112.868,-52.336,277.384,1.0
410.8333,128.187793,37.951969,6897.5151864,-112.807,-52.431,277.15,1.0
410.8499,128.187754,37.951979,6893.1071688,-112.745,-52.526,276.915,1.0
410.8666,128.187714,37.95199,6888.691836,-112.682,-52.621,276.68,1.0
410.8833,128.187675,37.952,6884.269188000001,-112.617,-52.715,276.444,1.0
410.9,128.187636,37.95201,6879.839224800001,-112.551,-52.809,276.206,1.0
410.9166,128.187596,37.95202,6875.4019464,-112.485,-52.903,275.968,1.0
410.9333,128.187557,37.952029,6870.9576576,-112.416,-52.996,275.729,1.0
410.95,128.187518,37.952039,6866.5060536,-112.347,-53.09,275.49,1.0
410.9666,128.187478,37.952049,6862.0474392,-112.276,-53.183,275.249,1.0
410.9833,128.187439,37.952058,6857.581509600001,-112.204,-53.276,275.007,1.0
411.0,128.1874,37.952067,6853.108264800001,-112.131,-53.369,274.765,1.0
411.0166,128.187361,37.952076,6848.6280096,-112.056,-53.461,274.521,1.0
411.0333,128.187322,37.952085,6844.1404391999995,-111.98,-53.553,274.277,1.0
411.05,128.187282,37.952094,6839.6458584,-111.903,-53.645,274.032,1.0
411.0666,128.187243,37.952103,6835.1442672,-111.824,-53.737,273.786,1.0
411.0833,128.187204,37.952111,6830.635360800001,-111.745,-53.828,273.539,1.0
411.0999,128.187165,37.95212,6826.119444,-111.662,-53.919,273.292,1.0
411.1166,128.187126,37.952128,6821.596212,-111.578,-54.009,273.043,1.0
411.1333,128.187087,37.952136,6817.066274400001,-111.491,-54.1,272.793,1.0
411.15,128.187048,37.952144,6812.5290216,-111.403,-54.19,272.543,1.0
411.1666,128.187009,37.952152,6807.9847584,-111.312,-54.279,272.292,1.0
411.1833,128.18697,37.95216,6803.4334848,-111.22,-54.369,272.04,1.0
411.2,128.186931,37.952167,6798.8752008,-111.124,-54.457,271.786,1.0
411.2166,128.186893,37.952175,6794.310211200001,-111.027,-54.546,271.532,1.0
411.2333,128.186854,37.952182,6789.737906400001,-110.927,-54.634,271.277,1.0
411.25,128.186815,37.952189,6785.1585912,-110.825,-54.722,271.021,1.0
411.2666,128.186776,37.952196,6780.572570400001,-110.721,-54.81,270.765,1.0
411.2833,128.186738,37.952203,6775.9795392,-110.615,-54.897,270.507,1.0
411.3,128.186699,37.95221,6771.379497600001,-110.499,-54.982,270.247,1.0
411.3166,128.18666,37.952217,6766.7724456000005,-110.373,-55.066,269.986,1.0
411.3333,128.186622,37.952223,6762.158992800001,-110.238,-55.149,269.724,1.0
411.3499,128.186583,37.95223,6757.5382248000005,-110.095,-55.231,269.46,1.0
411.3666,128.186545,37.952236,6752.911056000001,-109.945,-55.313,269.196,1.0
411.3833,128.186506,37.952242,6748.2768768000005,-109.787,-55.394,268.931,1.0
411.4,128.186468,37.952248,6743.635992,-109.625,-55.475,268.666,1.0
411.4166,128.18643,37.952254,6738.988096800001,-109.458,-55.556,268.4,1.0
411.4333,128.186391,37.95226,6734.333800800001,-109.287,-55.637,268.133,1.0
411.45,128.186353,37.952265,6729.672799200001,-109.114,-55.717,267.865,1.0
411.4666,128.186315,37.952271,6725.0047872000005,-108.937,-55.796,267.597,1.0
411.4833,128.186276,37.952276,6720.3303744,-108.758,-55.875,267.327,1.0
411.5,128.186238,37.952281,6715.649256000001,-108.578,-55.954,267.056,1.0
411.5166,128.1862,37.952286,6710.961736800001,-108.395,-56.032,266.784,1.0
411.5333,128.186162,37.952291,6706.267512,-108.21,-56.109,266.512,1.0
411.55,128.186124,37.952296,6701.5665816,-108.024,-56.185,266.238,1.0
411.5666,128.186086,37.9523,6696.859250400001,-107.836,-56.261,265.962,1.0
411.5833,128.186048,37.952305,6692.145213600001,-107.646,-56.337,265.686,1.0
411.5999,128.18601,37.952309,6687.4250808,-107.454,-56.411,265.409,1.0
411.6166,128.185972,37.952313,6682.698242400001,-107.261,-56.485,265.13,1.0
411.6333,128.185935,37.952317,6677.9650032,-107.066,-56.558,264.85,1.0
411.65,128.185897,37.952321,6673.2253632,-106.868,-56.63,264.569,1.0
411.6666,128.185859,37.952325,6668.4796272,-106.669,-56.701,264.286,1.0
411.6833,128.185822,37.952329,6663.7271856,-106.468,-56.772,264.003,1.0
411.7,128.185784,37.952332,6658.968648,-106.263,-56.841,263.718,1.0
411.7166,128.185746,37.952336,6654.2037096,-106.055,-56.908,263.431,1.0
411.7333,128.185709,37.952339,6649.4326752,-105.843,-56.974,263.142,1.0
411.75,128.185672,37.952342,6644.6555448,-105.627,-57.038,262.853,1.0
411.7666,128.185634,37.952345,6639.8720136,-105.408,-57.102,262.562,1.0
411.7833,128.185597,37.952348,6635.0823864,-105.184,-57.165,262.27,1.0
411.8,128.18556,37.95235,6630.2866632000005,-104.969,-57.231,261.979,1.0
411.8166,128.185522,37.952353,6625.4851488,-104.764,-57.299,261.688,1.0
411.8333,128.185485,37.952355,6620.6772336,-104.568,-57.369,261.397,1.0
411.8499,128.185448,37.952358,6615.8635272,-104.381,-57.438,261.104,1.0
411.8666,128.185411,37.95236,6611.043724800001,-104.202,-57.507,260.811,1.0
411.8833,128.185374,37.952362,6606.2178264,-104.029,-57.575,260.515,1.0
411.9,128.185337,37.952363,6601.386136800001,-103.864,-57.642,260.218,1.0
411.9166,128.1853,37.952365,6596.548351200001,-103.703,-57.708,259.919,1.0
411.9333,128.185263,37.952367,6591.704774400001,-103.546,-57.773,259.619,1.0
411.95,128.185227,37.952368,6586.855406400001,-103.392,-57.838,259.317,1.0
411.9666,128.18519,37.952369,6581.999942400001,-103.239,-57.902,259.014,1.0
411.9833,128.185153,37.95237,6577.138992,-103.087,-57.966,258.709,1.0
412.0,128.185117,37.952371,6572.2719456,-102.936,-58.029,258.404,1.0
412.0166,128.18508,37.952372,6567.3994128,-102.785,-58.092,258.097,1.0
412.0333,128.185044,37.952373,6562.520784000001,-102.634,-58.154,257.789,1.0
412.05,128.185007,37.952373,6557.636668800001,-102.482,-58.215,257.479,1.0
412.0666,128.184971,37.952374,6552.7467624,-102.33,-58.277,257.169,1.0
412.0833,128.184935,37.952374,6547.851064800001,-102.177,-58.337,256.858,1.0
412.0999,128.184899,37.952374,6542.9498808,-102.022,-58.398,256.546,1.0
412.1166,128.184862,37.952374,6538.043210400001,-101.867,-58.457,256.232,1.0
412.1333,128.184826,37.952374,6533.1307488,-101.71,-58.517,255.918,1.0
412.15,128.18479,37.952374,6528.212496,-101.551,-58.575,255.602,1.0
412.1666,128.184754,37.952373,6523.2890615999995,-101.392,-58.634,255.286,1.0
412.1833,128.184718,37.952373,6518.3598360000005,-101.231,-58.692,254.969,1.0
412.2,128.184683,37.952372,6513.425124,-101.068,-58.749,254.651,1.0
412.2166,128.184647,37.952371,6508.4852304,-100.903,-58.806,254.331,1.0
412.2333,128.184611,37.95237,6503.539545600001,-100.737,-58.862,254.011,1.0
412.25,128.184576,37.952369,6498.588374400001,-100.57,-58.918,253.69,1.0
412.2666,128.18454,37.952368,6493.6320216,-100.4,-58.974,253.368,1.0
412.2833,128.184505,37.952366,6488.6701824,-100.23,-59.029,253.045,1.0
412.3,128.184469,37.952365,6483.7031615999995,-100.056,-59.083,252.722,1.0
412.3166,128.184434,37.952363,6478.7306544,-99.881,-59.136,252.397,1.0
412.3333,128.184399,37.952361,6473.752660800001,-99.702,-59.189,252.071,1.0
412.3499,128.184364,37.952359,6468.7694856,-99.522,-59.242,251.744,1.0
412.3666,128.184329,37.952357,6463.7811288,-99.339,-59.294,251.417,1.0
412.3833,128.184294,37.952355,6458.7875904,-99.155,-59.345,251.088,1.0
412.4,128.184259,37.952353,6453.788870400001,-98.967,-59.396,250.759,1.0
412.4166,128.184224,37.95235,6448.784968800001,-98.777,-59.446,250.428,1.0
412.4333,128.184189,37.952347,6443.7758856,-98.585,-59.496,250.097,1.0
412.45,128.184154,37.952344,6438.7616208,-98.39,-59.545,249.765,1.0
412.4666,128.18412,37.952342,6433.742479200001,-98.194,-59.593,249.432,1.0
412.4833,128.184085,37.952338,6428.717851200001,-97.995,-59.641,249.098,1.0
412.5,128.184051,37.952335,6423.688651200001,-97.794,-59.688,248.763,1.0
412.5166,128.184016,37.952332,6418.654269600001,-97.59,-59.734,248.427,1.0
412.5333,128.183982,37.952328,6413.6150112000005,-97.384,-59.78,248.091,1.0
412.55,128.183948,37.952325,6408.5705712,-97.176,-59.825,247.753,1.0
412.5666,128.183914,37.952321,6403.5215592,-96.966,-59.869,247.415,1.0
412.5833,128.18388,37.952317,6398.4673656,-96.754,-59.913,247.076,1.0
412.5999,128.183846,37.952313,6393.408600000001,-96.539,-59.956,246.735,1.0
412.6166,128.183812,37.952309,6388.3446527999995,-96.323,-59.998,246.394,1.0
412.6333,128.183778,37.952304,6383.2761336,-96.105,-60.04,246.053,1.0
412.65,128.183745,37.9523,6378.2030424,-95.885,-60.081,245.71,1.0
412.6666,128.183711,37.952295,6373.125074400001,-95.663,-60.121,245.367,1.0
412.6833,128.183677,37.95229,6368.0425344,-95.44,-60.161,245.022,1.0
412.7,128.183644,37.952285,6362.9551176,-95.215,-60.2,244.677,1.0
412.7166,128.183611,37.95228,6357.863128800001,-94.987,-60.237,244.331,1.0
412.7333,128.183577,37.952275,6352.766568,-94.758,-60.275,243.984,1.0
412.75,128.183544,37.95227,6347.66574,-94.527,-60.311,243.637,1.0
412.7666,128.183511,37.952264,6342.5600352,-94.293,-60.347,243.288,1.0
412.7833,128.183478,37.952259,6337.4500632,-94.059,-60.382,242.939,1.0
412.8,128.183445,37.952253,6332.335519200001,-93.821,-60.416,242.589,1.0
412.8166,128.183412,37.952247,6327.2164032,-93.582,-60.449,242.239,1.0
412.8333,128.18338,37.952241,6322.093020000001,-93.34,-60.481,241.887,1.0
412.8499,128.183347,37.952235,6316.9653696000005,-93.095,-60.512,241.535,1.0
412.8666,128.183315,37.952228,6311.833452000001,-92.849,-60.543,241.182,1.0
412.8833,128.183282,37.952222,6306.6972672,-92.601,-60.573,240.829,1.0
412.9,128.18325,37.952215,6301.5568152000005,-92.351,-60.602,240.475,1.0
412.9166,128.183218,37.952209,6296.412096,-92.099,-60.63,240.12,1.0
412.9333,128.183185,37.952202,6291.2631096000005,-91.845,-60.657,239.765,1.0
412.95,128.183153,37.952195,6286.110160800001,-91.589,-60.684,239.408,1.0
412.9666,128.183122,37.952188,6280.9532496,-91.331,-60.709,239.052,1.0
412.9833,128.18309,37.95218,6275.7920712,-91.072,-60.734,238.694,1.0
413.0,128.183058,37.952173,6270.6269304,-90.812,-60.758,238.337,1.0
413.0166,128.183026,37.952165,6265.4578272,-90.55,-60.781,237.978,1.0
413.0333,128.182995,37.952157,6260.2847616,-90.286,-60.803,237.619,1.0
413.05,128.182963,37.95215,6255.107733600001,-90.021,-60.824,237.26,1.0
413.0666,128.182932,37.952142,6249.927048,-89.755,-60.844,236.9,1.0
413.0833,128.182901,37.952134,6244.7424,-89.488,-60.864,236.539,1.0
413.0999,128.182869,37.952125,6239.5537896,-89.22,-60.882,236.178,1.0
413.1166,128.182838,37.952117,6234.3618264,-88.95,-60.9,235.816,1.0
413.1333,128.182808,37.952108,6229.165900800001,-88.68,-60.916,235.454,1.0
413.15,128.182777,37.9521,6223.9663176,-88.408,-60.932,235.092,1.0
413.1666,128.182746,37.952091,6218.7630768,-88.135,-60.947,234.729,1.0
413.1833,128.182715,37.952082,6213.556483200001,-87.862,-60.961,234.365,1.0
413.2,128.182685,37.952073,6208.346232000001,-87.587,-60.974,234.002,1.0
413.2166,128.182654,37.952063,6203.1323232,-87.312,-60.986,233.638,1.0
413.2333,128.182624,37.952054,6197.9153664,-87.035,-60.997,233.273,1.0
413.25,128.182594,37.952044,6192.694752000001,-86.758,-61.007,232.908,1.0
413.2666,128.182564,37.952035,6187.47048,-86.48,-61.016,232.543,1.0
413.2833,128.182534,37.952025,6182.243160000001,-86.201,-61.025,232.178,1.0
413.3,128.182504,37.952015,6177.012792,-85.922,-61.032,231.812,1.0
413.3166,128.182474,37.952005,6171.7787664,-85.641,-61.039,231.446,1.0
413.3333,128.182444,37.951995,6166.5416928,-85.36,-61.044,231.08,1.0
413.3499,128.182415,37.951984,6161.3015712,-85.078,-61.049,230.713,1.0
413.3666,128.182385,37.951974,6156.0580968,-84.795,-61.052,230.347,1.0
413.3833,128.182356,37.951963,6150.8118792000005,-84.512,-61.055,229.98,1.0
413.4,128.182327,37.951953,6145.5623088,-84.228,-61.057,229.613,1.0
413.4166,128.182298,37.951942,6140.3096904,-83.943,-61.057,229.246,1.0
413.4333,128.182269,37.951931,6135.054328800001,-83.657,-61.057,228.879,1.0
413.45,128.18224,37.951919,6129.796224000001,-83.371,-61.056,228.512,1.0
413.4666,128.182211,37.951908,6124.5350712,-83.084,-61.054,228.144,1.0
413.4833,128.182182,37.951897,6119.2711752,-82.797,-61.051,227.777,1.0
413.5,128.182154,37.951885,6114.0042312000005,-82.509,-61.047,227.41,1.0
413.5166,128.182125,37.951873,6108.7348488,-82.221,-61.041,227.042,1.0
413.5333,128.182097,37.951861,6103.4627232,-81.932,-61.035,226.675,1.0
413.55,128.182069,37.951849,6098.1878544,-81.642,-61.028,226.308,1.0
413.5666,128.182041,37.951837,6092.910547200001,-81.352,-61.02,225.94,1.0
413.5833,128.182013,37.951825,6087.6308016,-81.062,-61.011,225.573,1.0
413.5999,128.181985,37.951812,6082.3483128,-80.772,-61.002,225.206,1.0
413.6166,128.181957,37.9518,6077.0633856,-80.481,-60.991,224.839,1.0
413.6333,128.181929,37.951787,6071.776324800001,-80.19,-60.979,224.473,1.0
413.65,128.181902,37.951774,6066.4865208,-79.899,-60.966,224.106,1.0
413.6666,128.181875,37.951761,6061.194583200001,-79.607,-60.952,223.74,1.0
413.6833,128.181847,37.951748,6055.900512,-79.316,-60.937,223.373,1.0
413.7,128.18182,37.951735,6050.604002399999,-79.024,-60.922,223.008,1.0
413.7166,128.181793,37.951721,6045.305359200001,-78.732,-60.905,222.642,1.0
413.7333,128.181766,37.951708,6040.004887200001,-78.44,-60.887,222.276,1.0
413.75,128.181739,37.951694,6034.7019768,-78.147,-60.869,221.911,1.0
413.7666,128.181713,37.95168,6029.3972376,-77.855,-60.849,221.547,1.0
413.7833,128.181686,37.951666,6024.0903648,-77.563,-60.828,221.182,1.0
413.8,128.18166,37.951652,6018.7816632,-77.271,-60.807,220.818,1.0
413.8166,128.181633,37.951638,6013.4711328,-76.979,-60.784,220.455,1.0
413.8333,128.181607,37.951624,6008.1584688,-76.687,-60.76,220.091,1.0
413.8499,128.181581,37.951609,6002.8442808,-76.396,-60.736,219.729,1.0
