Time,Longitude,Latitude,Altitude,Roll (deg),Pitch (deg),Yaw (deg),Health
0.0,128.181895,37.923645,6999.6231864,3.0,-3.003,6.999,1.0
0.0166,128.181902,37.92369,6999.375079200001,3.0,-3.012,6.999,1.0
0.0333,128.181909,37.923734,6999.1272768,2.986,-3.027,7.0,1.0
0.05,128.181915,37.923779,6998.8782552,2.966,-3.042,7.003,1.0
0.0666,128.181922,37.923823,6998.628624000001,2.938,-3.056,7.009,1.0
0.0833,128.181929,37.923868,6998.378383200001,2.905,-3.071,7.015,1.0
0.1,128.181936,37.923912,6998.127228,2.869,-3.085,7.022,1.0
0.1166,128.181943,37.923957,6997.8751584,2.83,-3.1,7.029,1.0
0.1333,128.18195,37.924001,6997.622479200001,2.789,-3.114,7.037,1.0
0.15,128.181957,37.924046,6997.3688856,2.746,-3.129,7.045,1.0
0.1666,128.181964,37.92409,6997.114377600001,2.703,-3.143,7.052,1.0
0.1833,128.181971,37.924135,6996.8589552,2.659,-3.157,7.06,1.0
0.2,128.181978,37.924179,6996.6026184,2.613,-3.171,7.068,1.0
0.2166,128.181985,37.924224,6996.345672,2.568,-3.185,7.075,1.0
0.2333,128.181992,37.924268,6996.087811200001,2.521,-3.198,7.083,1.0
0.25,128.181999,37.924313,6995.829036,2.473,-3.212,7.09,1.0
0.2666,128.182006,37.924357,6995.5693464000005,2.425,-3.225,7.098,1.0
0.2833,128.182013,37.924402,6995.3087424000005,2.377,-3.239,7.105,1.0
0.3,128.18202,37.924447,6995.047224000001,2.328,-3.252,7.112,1.0
0.3166,128.182027,37.924491,6994.784791200001,2.278,-3.265,7.12,1.0
0.3333,128.182034,37.924536,6994.521444,2.227,-3.278,7.127,1.0
0.35,128.18204,37.92458,6994.257182400001,2.176,-3.291,7.134,1.0
0.3666,128.182047,37.924625,6993.992006400001,2.124,-3.304,7.141,1.0
0.3833,128.182054,37.924669,6993.725915999999,2.072,-3.316,7.148,1.0
0.4,128.182061,37.924714,6993.458911200001,2.02,-3.329,7.155,1.0
0.4166,128.182068,37.924758,6993.190992000001,1.966,-3.342,7.162,1.0
0.4333,128.182075,37.924803,6992.9218536,1.912,-3.354,7.169,1.0
0.45,128.182082,37.924847,6992.652105600001,1.858,-3.367,7.175,1.0
0.4666,128.182089,37.924892,6992.3814432,1.803,-3.379,7.182,1.0
0.4833,128.182096,37.924936,6992.1095616,1.748,-3.392,7.189,1.0
0.5,128.182103,37.924981,6991.837070400001,1.692,-3.404,7.195,1.0
0.5166,128.18211,37.925025,6991.563360000001,1.635,-3.416,7.202,1.0
0.5333,128.182117,37.92507,6991.2887352,1.578,-3.429,7.208,1.0
0.55,128.182124,37.925115,6991.013196000001,1.521,-3.441,7.215,1.0
0.5666,128.182131,37.925159,6990.7364376000005,1.463,-3.453,7.221,1.0
0.5833,128.182138,37.925204,6990.4590696000005,1.404,-3.465,7.227,1.0
0.6,128.182145,37.925248,6990.1804824,1.345,-3.477,7.234,1.0
0.6166,128.182152,37.925293,6989.9009808,1.286,-3.489,7.24,1.0
0.6333,128.182159,37.925337,6989.6205648000005,1.226,-3.501,7.246,1.0
0.65,128.182166,37.925382,6989.339234399999,1.166,-3.513,7.252,1.0
0.6666,128.182173,37.925426,6989.0566848,1.105,-3.525,7.258,1.0
0.6833,128.18218,37.925471,6988.7735256,1.043,-3.537,7.264,1.0
0.7,128.182187,37.925515,6988.488842400001,0.982,-3.549,7.27,1.0
0.7166,128.182194,37.92556,6988.2035496,0.919,-3.561,7.276,1.0
0.7333,128.182201,37.925604,6987.917342400001,0.857,-3.573,7.282,1.0
0.75,128.182208,37.925649,6987.629916,0.794,-3.585,7.288,1.0
0.7666,128.182215,37.925693,6987.3415752,0.73,-3.597,7.294,1.0
0.7833,128.182222,37.925738,6987.052015200001,0.666,-3.608,7.3,1.0
0.8,128.182229,37.925783,6986.7615408,0.602,-3.62,7.306,1.0
0.8166,128.182236,37.925827,6986.470152000001,0.537,-3.632,7.311,1.0
0.8333,128.182243,37.925872,6986.1778488,0.472,-3.644,7.317,1.0
0.85,128.18225,37.925916,6985.8843264,0.406,-3.655,7.322,1.0
0.8666,128.182257,37.925961,6985.5898896,0.34,-3.667,7.328,1.0
0.8833,128.182264,37.926005,6985.2945384,0.273,-3.679,7.333,1.0
0.9,128.182271,37.92605,6984.997968000001,0.206,-3.691,7.339,1.0
0.9166,128.182278,37.926094,6984.7004832,0.139,-3.702,7.344,1.0
0.9333,128.182285,37.926139,6984.402084000001,0.071,-3.714,7.35,1.0
0.95,128.182292,37.926183,6984.102465600001,0.003,-3.726,7.355,1.0
0.9666,128.182299,37.926228,6983.801932800001,-0.064,-3.737,7.36,1.0
0.9833,128.182306,37.926273,6983.5004856000005,-0.133,-3.749,7.366,1.0
1.0,128.182313,37.926317,6983.197819200001,-0.203,-3.761,7.371,1.0
1.0166,128.18232,37.926362,6982.894238400001,-0.272,-3.772,7.376,1.0
1.0333,128.182327,37.926406,6982.589438400001,-0.342,-3.784,7.381,1.0
1.05,128.182334,37.926451,6982.284028800001,-0.413,-3.796,7.386,1.0
1.0666,128.182341,37.926495,6981.9770952,-0.484,-3.807,7.391,1.0
1.0833,128.182348,37.92654,6981.6692472,-0.555,-3.819,7.397,1.0
1.1,128.182355,37.926584,6981.3604847999995,-0.627,-3.831,7.402,1.0
1.1166,128.182362,37.926629,6981.050808,-0.699,-3.842,7.407,1.0
1.1333,128.182369,37.926673,6980.739912,-0.771,-3.854,7.411,1.0
1.15,128.182376,37.926718,6980.4281016,-0.844,-3.865,7.416,1.0
1.1666,128.182383,37.926763,6980.1150720000005,-0.917,-3.877,7.421,1.0
1.1833,128.18239,37.926807,6979.8008232,-0.991,-3.889,7.426,1.0
1.2,128.182397,37.926852,6979.48566,-1.063,-3.899,7.431,1.0
1.2166,128.182404,37.926896,6979.169582400001,-1.133,-3.907,7.435,1.0
1.2333,128.182411,37.926941,6978.8522856,-1.202,-3.915,7.44,1.0
1.25,128.182418,37.926985,6978.5340744000005,-1.271,-3.921,7.444,1.0
1.2666,128.182425,37.92703,6978.214644,-1.339,-3.927,7.449,1.0
1.2833,128.182432,37.927075,6977.8942992,-1.406,-3.933,7.453,1.0
1.3,128.182439,37.927119,6977.5727352,-1.473,-3.939,7.457,1.0
1.3166,128.182446,37.927164,6977.250256800001,-1.54,-3.945,7.461,1.0
1.3333,128.182453,37.927208,6976.926864,-1.606,-3.951,7.465,1.0
1.35,128.18246,37.927253,6976.6025568000005,-1.673,-3.957,7.469,1.0
1.3666,128.182467,37.927297,6976.2770304,-1.739,-3.964,7.473,1.0
1.3833,128.182474,37.927342,6975.9505896,-1.806,-3.97,7.477,1.0
1.4,128.182481,37.927387,6975.6229296,-1.873,-3.977,7.481,1.0
1.4166,128.182488,37.927431,6975.2946600000005,-1.94,-3.983,7.484,1.0
1.4333,128.182495,37.927476,6974.9651711999995,-2.008,-3.99,7.488,1.0
1.45,128.182502,37.92752,6974.634768,-2.075,-3.997,7.492,1.0
1.4666,128.182509,37.927565,6974.303450400001,-2.143,-4.004,7.495,1.0
1.4833,128.182516,37.927609,6973.9712184,-2.211,-4.011,7.499,1.0
1.5,128.182523,37.927654,6973.6377672,-2.28,-4.019,7.503,1.0
1.5166,128.18253,37.927699,6973.303706400001,-2.348,-4.026,7.506,1.0
1.5333,128.182537,37.927743,6972.9684264,-2.417,-4.034,7.51,1.0
1.55,128.182545,37.927788,6972.632232000001,-2.487,-4.041,7.513,1.0
1.5666,128.182552,37.927832,6972.2951232000005,-2.557,-4.049,7.517,1.0
1.5833,128.182559,37.927877,6971.9571000000005,-2.627,-4.057,7.52,1.0
1.6,128.182566,37.927922,6971.6178576,-2.697,-4.065,7.524,1.0
1.6166,128.182573,37.927966,6971.278005600001,-2.768,-4.073,7.527,1.0
1.6333,128.18258,37.928011,6970.9369344,-2.839,-4.081,7.531,1.0
1.65,128.182587,37.928055,6970.5952536,-2.91,-4.089,7.534,1.0
1.6666,128.182594,37.9281,6970.2523536,-2.982,-4.097,7.537,1.0
1.6833,128.182601,37.928145,6969.9085392,-3.054,-4.105,7.541,1.0
1.7,128.182608,37.928189,6969.564115200001,-3.126,-4.114,7.544,1.0
1.7166,128.182615,37.928234,6969.2184720000005,-3.199,-4.122,7.547,1.0
1.7333,128.182622,37.928278,6968.871914400001,-3.272,-4.131,7.55,1.0
1.75,128.182629,37.928323,6968.5241376,-3.346,-4.139,7.554,1.0
1.7666,128.182636,37.928368,6968.1757512,-3.419,-4.148,7.557,1.0
1.7833,128.182643,37.928412,6967.826450400001,-3.494,-4.156,7.56,1.0
1.8,128.18265,37.928457,6967.4762352,-3.568,-4.165,7.563,1.0
1.8166,128.182657,37.928502,6967.1248008,-3.643,-4.174,7.566,1.0
1.8333,128.182664,37.928546,6966.772756800001,-3.718,-4.183,7.569,1.0
1.85,128.182671,37.928591,6966.4197984,-3.793,-4.191,7.572,1.0
1.8666,128.182678,37.928635,6966.0656208,-3.869,-4.2,7.576,1.0
1.8833,128.182685,37.92868,6965.710528800001,-3.945,-4.209,7.579,1.0
1.9,128.182692,37.928725,6965.354827200001,-4.021,-4.218,7.582,1.0
1.9166,128.182699,37.928769,6964.997906400001,-4.098,-4.227,7.585,1.0
1.9333,128.182707,37.928814,6964.6400712,-4.175,-4.236,7.588,1.0
1.95,128.182714,37.928859,6964.2813216,-4.253,-4.245,7.59,1.0
1.9666,128.182721,37.928903,6963.9219624,-4.33,-4.254,7.593,1.0
1.9833,128.182728,37.928948,6963.5613840000005,-4.409,-4.263,7.596,1.0
2.0,128.182735,37.928993,6963.199891200001,-4.487,-4.272,7.599,1.0
2.0166,128.182742,37.929037,6962.837484000001,-4.566,-4.281,7.602,1.0
2.0333,128.182749,37.929082,6962.4738576,-4.645,-4.291,7.605,1.0
2.05,128.182756,37.929127,6962.1096216,-4.724,-4.3,7.608,1.0
2.0666,128.182763,37.929171,6961.7444712,-4.804,-4.309,7.61,1.0
2.0833,128.18277,37.929216,6961.378406400001,-4.884,-4.318,7.613,1.0
2.1,128.182777,37.929261,6961.0111224,-4.964,-4.327,7.616,1.0
2.1166,128.182784,37.929305,6960.6432288000005,-5.045,-4.337,7.619,1.0
2.1333,128.182791,37.92935,6960.274116,-5.126,-4.346,7.621,1.0
2.15,128.182798,37.929395,6959.9043936,-5.208,-4.355,7.624,1.0
2.1666,128.182805,37.929439,6959.533452000001,-5.289,-4.364,7.627,1.0
2.1833,128.182812,37.929484,6959.161596000001,-5.372,-4.374,7.629,1.0
2.2,128.182819,37.929529,6958.7891304,-5.454,-4.383,7.632,1.0
2.2166,128.182826,37.929573,6958.415445600001,-5.537,-4.392,7.634,1.0
2.2333,128.182834,37.929618,6958.0408464,-5.62,-4.402,7.637,1.0
2.25,128.182841,37.929663,6957.6653328,-5.703,-4.411,7.639,1.0
2.2666,128.182848,37.929707,6957.288904800001,-5.787,-4.42,7.642,1.0
2.2833,128.182855,37.929752,6956.9115624,-5.871,-4.43,7.644,1.0
2.3,128.182862,37.929797,6956.533305600001,-5.956,-4.439,7.647,1.0
2.3166,128.182869,37.929841,6956.1538296,-6.04,-4.449,7.649,1.0
2.3333,128.182876,37.929886,6955.773744,-6.126,-4.458,7.652,1.0
2.35,128.182883,37.929931,6955.3924392,-6.211,-4.467,7.654,1.0
2.3666,128.18289,37.929975,6955.010524800001,-6.297,-4.477,7.656,1.0
2.3833,128.182897,37.93002,6954.627391200001,-6.383,-4.486,7.659,1.0
2.4,128.182904,37.930065,6954.2433432,-6.47,-4.496,7.661,1.0
2.4166,128.182911,37.93011,6953.8583808,-6.556,-4.505,7.663,1.0
2.4333,128.182918,37.930154,6953.472504,-6.644,-4.514,7.666,1.0
2.45,128.182925,37.930199,6953.0857128,-6.731,-4.524,7.668,1.0
2.4666,128.182932,37.930244,6952.6980072,-6.819,-4.533,7.67,1.0
2.4833,128.182939,37.930288,6952.309387200001,-6.907,-4.543,7.672,1.0
2.5,128.182946,37.930333,6951.9198528,-6.996,-4.552,7.675,1.0
2.5166,128.182953,37.930378,6951.5290992,-7.085,-4.561,7.677,1.0
2.5333,128.182961,37.930423,6951.137736000001,-7.174,-4.571,7.679,1.0
2.55,128.182968,37.930467,6950.7451536,-7.263,-4.58,7.681,1.0
2.5666,128.182975,37.930512,6950.3516568000005,-7.353,-4.59,7.683,1.0
2.5833,128.182982,37.930557,6949.9572456000005,-7.444,-4.599,7.685,1.0
2.6,128.182989,37.930602,6949.561920000001,-7.534,-4.608,7.687,1.0
2.6166,128.182996,37.930646,6949.16568,-7.625,-4.618,7.689,1.0
2.6333,128.183003,37.930691,6948.7682208,-7.716,-4.627,7.691,1.0
2.65,128.18301,37.930736,6948.370152,-7.808,-4.637,7.693,1.0
2.6666,128.183017,37.930781,6947.970864000001,-7.9,-4.646,7.695,1.0
2.6833,128.183024,37.930825,6947.5709664,-7.993,-4.656,7.697,1.0
2.7,128.183031,37.93087,6947.1698496,-8.085,-4.665,7.699,1.0
2.7166,128.183038,37.930915,6946.767818400001,-8.178,-4.674,7.701,1.0
2.7333,128.183045,37.93096,6946.364872800001,-8.272,-4.684,7.703,1.0
2.75,128.183052,37.931004,6945.9607080000005,-8.365,-4.693,7.705,1.0
2.7666,128.183059,37.931049,6945.555933600001,-8.46,-4.703,7.707,1.0
2.7833,128.183066,37.931094,6945.14994,-8.554,-4.712,7.709,1.0
2.8,128.183073,37.931139,6944.743032,-8.649,-4.722,7.71,1.0
2.8166,128.18308,37.931184,6944.335209600001,-8.744,-4.731,7.712,1.0
2.8333,128.183087,37.931228,6943.926472800001,-8.84,-4.74,7.714,1.0
2.85,128.183095,37.931273,6943.5168216,-8.935,-4.75,7.716,1.0
2.8666,128.183102,37.931318,6943.106256000001,-9.032,-4.759,7.717,1.0
2.8833,128.183109,37.931363,6942.6944712,-9.128,-4.769,7.719,1.0
2.9,128.183116,37.931407,6942.281772,-9.225,-4.778,7.721,1.0
2.9166,128.183123,37.931452,6941.8681584000005,-9.323,-4.787,7.722,1.0
2.9333,128.18313,37.931497,6941.4536304,-9.42,-4.797,7.724,1.0
2.95,128.183137,37.931542,6941.038188,-9.518,-4.806,7.726,1.0
2.9666,128.183144,37.931587,6940.6215264,-9.617,-4.816,7.727,1.0
2.9833,128.183151,37.931632,6940.2039504,-9.715,-4.825,7.729,1.0
3.0,128.183158,37.931676,6939.785764800001,-9.814,-4.835,7.73,1.0
3.0166,128.183165,37.931721,6939.3660552,-9.914,-4.844,7.732,1.0
3.0333,128.183172,37.931766,6938.945736000001,-10.014,-4.853,7.733,1.0
3.05,128.183179,37.931811,6938.5245024,-10.114,-4.863,7.735,1.0
3.0666,128.183186,37.931856,6938.1020496,-10.215,-4.872,7.736,1.0
3.0833,128.183193,37.931901,6937.6786824,-10.316,-4.882,7.738,1.0
3.1,128.1832,37.931945,6937.2544008,-10.417,-4.891,7.739,1.0
3.1166,128.183207,37.93199,6936.8289,-10.519,-4.9,7.74,1.0
3.1333,128.183214,37.932035,6936.4027896,-10.621,-4.91,7.742,1.0
3.15,128.183221,37.93208,6935.975460000001,-10.723,-4.919,7.743,1.0
3.1666,128.183228,37.932125,6935.547216,-10.826,-4.929,7.744,1.0
3.1833,128.183235,37.93217,6935.1177528,-10.929,-4.938,7.746,1.0
3.2,128.183242,37.932214,6934.68768,-11.033,-4.947,7.747,1.0
3.2166,128.183249,37.932259,6934.256388000001,-11.137,-4.957,7.748,1.0
3.2333,128.183256,37.932304,6933.8241816,-11.241,-4.966,7.75,1.0
3.25,128.183263,37.932349,6933.391060800001,-11.346,-4.976,7.751,1.0
3.2666,128.18327,37.932394,6932.9567208,-11.451,-4.985,7.752,1.0
3.2833,128.183278,37.932439,6932.5214664,-11.557,-4.994,7.753,1.0
3.3,128.183285,37.932484,6932.085297600001,-11.662,-5.004,7.754,1.0
3.3166,128.183292,37.932529,6931.6482144,-11.769,-5.013,7.755,1.0
3.3333,128.183299,37.932573,6931.209912,-11.875,-5.023,7.756,1.0
3.35,128.183306,37.932618,6930.7706952,-11.982,-5.032,7.758,1.0
3.3666,128.183313,37.932663,6930.330564000001,-12.09,-5.041,7.759,1.0
3.3833,128.18332,37.932708,6929.8895184,-12.198,-5.051,7.76,1.0
3.4,128.183327,37.932753,6929.4472536,-12.306,-5.06,7.761,1.0
3.4166,128.183334,37.932798,6929.004074400001,-12.414,-5.069,7.762,1.0
3.4333,128.183341,37.932843,6928.5599808,-12.523,-5.079,7.763,1.0
3.45,128.183348,37.932888,6928.114668,-12.633,-5.088,7.764,1.0
3.4666,128.183355,37.932933,6927.6684408,-12.742,-5.098,7.764,1.0
3.4833,128.183362,37.932978,6927.2212992,-12.852,-5.107,7.765,1.0
3.5,128.183369,37.933023,6926.772938400001,-12.962,-5.117,7.766,1.0
3.5166,128.183376,37.933068,6926.3236632,-13.072,-5.126,7.767,1.0
3.5333,128.183383,37.933113,6925.873473600001,-13.183,-5.136,7.768,1.0
3.55,128.18339,37.933157,6925.422064800001,-13.294,-5.145,7.769,1.0
3.5666,128.183397,37.933202,6924.969741600001,-13.405,-5.155,7.77,1.0
3.5833,128.183404,37.933247,6924.516504,-13.516,-5.164,7.771,1.0
3.6,128.183411,37.933292,6924.062047200001,-13.628,-5.174,7.771,1.0
3.6166,128.183418,37.933337,6923.606676,-13.74,-5.183,7.772,1.0
3.6333,128.183425,37.933382,6923.1503904,-13.852,-5.193,7.773,1.0
3.65,128.183432,37.933427,6922.6928856,-13.964,-5.203,7.774,1.0
3.6666,128.183439,37.933472,6922.234161599999,-14.076,-5.212,7.775,1.0
3.6833,128.183446,37.933517,6921.7748280000005,-14.189,-5.222,7.775,1.0
3.7,128.183453,37.933562,6921.314275199999,-14.302,-5.232,7.776,1.0
3.7166,128.18346,37.933607,6920.8525032,-14.415,-5.241,7.777,1.0
3.7333,128.183467,37.933652,6920.3898168,-14.529,-5.251,7.777,1.0
3.75,128.183474,37.933697,6919.926216,-14.642,-5.261,7.778,1.0
3.7666,128.183481,37.933742,6919.461396000001,-14.756,-5.271,7.779,1.0
3.7833,128.183488,37.933787,6918.9956616,-14.87,-5.28,7.779,1.0
3.8,128.183495,37.933832,6918.528708,-14.985,-5.29,7.78,1.0
3.8166,128.183502,37.933877,6918.06084,-15.099,-5.3,7.781,1.0
3.8333,128.183509,37.933922,6917.5917528,-15.214,-5.31,7.781,1.0
3.85,128.183516,37.933967,6917.1217512,-15.329,-5.32,7.782,1.0
3.8666,128.183523,37.934012,6916.6508352,-15.444,-5.329,7.782,1.0
3.8833,128.18353,37.934057,6916.1787,-15.56,-5.339,7.783,1.0
3.9,128.183536,37.934102,6915.7053456,-15.676,-5.349,7.783,1.0
3.9166,128.183543,37.934147,6915.231076800001,-15.792,-5.359,7.784,1.0
3.9333,128.18355,37.934192,6914.7558936,-15.908,-5.369,7.784,1.0
3.95,128.183557,37.934237,6914.279491200001,-16.024,-5.379,7.784,1.0
3.9666,128.183564,37.934282,6913.801869600001,-16.141,-5.389,7.785,1.0
3.9833,128.183571,37.934327,6913.323333600001,-16.258,-5.398,7.785,1.0
4.0,128.183578,37.934373,6912.843883200001,-16.375,-5.408,7.786,1.0
4.0166,128.183585,37.934418,6912.362908800001,-16.493,-5.418,7.786,1.0
4.0333,128.183592,37.934463,6911.881324800001,-16.611,-5.428,7.786,1.0
4.05,128.183599,37.934508,6911.3982168,-16.729,-5.438,7.786,1.0
4.0666,128.183606,37.934553,6910.9144992,-16.847,-5.448,7.787,1.0
4.0833,128.183613,37.934598,6910.4292576,-16.966,-5.458,7.787,1.0
4.1,128.18362,37.934643,6909.943101600001,-17.085,-5.468,7.787,1.0
4.1166,128.183627,37.934688,6909.4560312,-17.204,-5.478,7.787,1.0
4.1333,128.183634,37.934733,6908.9677416,-17.323,-5.488,7.788,1.0
4.15,128.183641,37.934778,6908.478232800001,-17.443,-5.498,7.788,1.0
4.1666,128.183648,37.934823,6907.9878096,-17.563,-5.508,7.788,1.0
4.1833,128.183655,37.934868,6907.4961672,-17.683,-5.518,7.788,1.0
4.2,128.183662,37.934914,6907.0033056,-17.804,-5.528,7.788,1.0
4.2166,128.183669,37.934959,6906.5095296,-17.925,-5.538,7.788,1.0
4.2333,128.183675,37.935004,6906.0145344,-18.046,-5.548,7.788,1.0
4.25,128.183682,37.935049,6905.518624800001,-18.168,-5.558,7.788,1.0
4.2666,128.183689,37.935094,6905.021496,-18.29,-5.568,7.788,1.0
4.2833,128.183696,37.935139,6904.523148,-18.412,-5.578,7.788,1.0
4.3,128.183703,37.935184,6904.0238856000005,-18.534,-5.588,7.788,1.0
4.3166,128.18371,37.93523,6903.5234040000005,-18.657,-5.598,7.788,1.0
4.3333,128.183717,37.935275,6903.0217032,-18.78,-5.608,7.788,1.0
4.35,128.183724,37.93532,6902.518783200001,-18.904,-5.618,7.788,1.0
4.3666,128.183731,37.935365,6902.0149488,-19.028,-5.628,7.788,1.0
4.3833,128.183738,37.93541,6901.5098952,-19.152,-5.638,7.788,1.0
4.4,128.183745,37.935455,6901.0039272,-19.276,-5.648,7.788,1.0
4.4166,128.183751,37.935501,6900.4967400000005,-19.401,-5.658,7.787,1.0
4.4333,128.183758,37.935546,6899.988333600001,-19.526,-5.668,7.787,1.0
4.45,128.183765,37.935591,6899.478708,-19.651,-5.678,7.787,1.0
4.4666,128.183772,37.935636,6898.9678632000005,-19.777,-5.688,7.787,1.0
4.4833,128.183779,37.935681,6898.456104,-19.903,-5.698,7.786,1.0
4.5,128.183786,37.935727,6897.9431256,-20.029,-5.709,7.786,1.0
4.5166,128.183793,37.935772,6897.428928,-20.156,-5.719,7.786,1.0
4.5333,128.1838,37.935817,6896.913816,-20.282,-5.729,7.785,1.0
4.55,128.183807,37.935862,6896.39718,-20.41,-5.739,7.785,1.0
4.5666,128.183813,37.935907,6895.8796296,-20.537,-5.749,7.784,1.0
4.5833,128.18382,37.935953,6895.360860000001,-20.665,-5.759,7.784,1.0
4.6,128.183827,37.935998,6894.841176,-20.793,-5.769,7.783,1.0
4.6166,128.183834,37.936043,6894.319968000001,-20.921,-5.779,7.783,1.0
4.6333,128.183841,37.936088,6893.7978456,-21.049,-5.788,7.782,1.0
4.65,128.183848,37.936134,6893.274504,-21.178,-5.798,7.782,1.0
4.6666,128.183855,37.936179,6892.7499431999995,-21.307,-5.808,7.781,1.0
4.6833,128.183861,37.936224,6892.2241632000005,-21.437,-5.818,7.781,1.0
4.7,128.183868,37.936269,6891.697164,-21.566,-5.828,7.78,1.0
4.7166,128.183875,37.936315,6891.1689456,-21.696,-5.838,7.779,1.0
4.7333,128.183882,37.93636,6890.6398128,-21.826,-5.848,7.778,1.0
4.75,128.183889,37.936405,6890.109156,-21.957,-5.858,7.778,1.0
4.7666,128.183896,37.936451,6889.5775848,-22.088,-5.868,7.777,1.0
4.7833,128.183903,37.936496,6889.0447944,-22.218,-5.878,7.776,1.0
4.8,128.183909,37.936541,6888.5107848,-22.35,-5.887,7.775,1.0
4.8166,128.183916,37.936586,6887.975556,-22.481,-5.897,7.774,1.0
4.8333,128.183923,37.936632,6887.4391080000005,-22.613,-5.907,7.773,1.0
4.85,128.18393,37.936677,6886.9017456,-22.745,-5.917,7.772,1.0
4.8666,128.183937,37.936722,6886.3628592000005,-22.877,-5.927,7.772,1.0
4.8833,128.183944,37.936768,6885.8227536,-23.009,-5.937,7.771,1.0
4.9,128.18395,37.936813,6885.281733600001,-23.142,-5.946,7.77,1.0
4.9166,128.183957,37.936858,6884.7391896,-23.275,-5.956,7.768,1.0
4.9333,128.183964,37.936904,6884.1957312,-23.408,-5.966,7.767,1.0
4.95,128.183971,37.936949,6883.6507488,-23.542,-5.976,7.766,1.0
4.9666,128.183978,37.936994,6883.104852,-23.676,-5.986,7.765,1.0
4.9833,128.183984,37.93704,6882.5574312,-23.81,-5.995,7.764,1.0
5.0,128.183991,37.937085,6882.009096000001,-23.944,-6.005,7.763,1.0
5.0166,128.183998,37.937131,6881.4595416,-24.079,-6.015,7.762,1.0
5.0333,128.184005,37.937176,6880.9084632,-24.214,-6.025,7.76,1.0
5.05,128.184012,37.937221,6880.356470400001,-24.349,-6.035,7.759,1.0
5.0666,128.184018,37.937267,6879.8032584,-24.484,-6.044,7.758,1.0
5.0833,128.184025,37.937312,6879.2485224,-24.62,-6.054,7.756,1.0
5.1,128.184032,37.937358,6878.6928720000005,-24.756,-6.064,7.755,1.0
5.1166,128.184039,37.937403,6878.135697600001,-24.893,-6.073,7.753,1.0
5.1333,128.184045,37.937448,6877.5776088,-25.029,-6.083,7.752,1.0
5.15,128.184052,37.937494,6877.0179960000005,-25.166,-6.093,7.75,1.0
5.1666,128.184059,37.937539,6876.4574688,-25.304,-6.103,7.749,1.0
5.1833,128.184066,37.937585,6875.895417600001,-25.441,-6.112,7.747,1.0
5.2,128.184072,37.93763,6875.332452000001,-25.579,-6.122,7.746,1.0
5.2166,128.184079,37.937676,6874.7679624,-25.717,-6.132,7.744,1.0
5.2333,128.184086,37.937721,6874.2022536,-25.856,-6.141,7.742,1.0
5.25,128.184093,37.937766,6873.6353256,-25.995,-6.151,7.741,1.0
5.2666,128.184099,37.937812,6873.0674832,-26.134,-6.16,7.739,1.0
5.2833,128.184106,37.937857,6872.4981168,-26.274,-6.17,7.737,1.0
5.3,128.184113,37.937903,6871.9272264,-26.414,-6.18,7.735,1.0
5.3166,128.18412,37.937948,6871.3554216,-26.554,-6.189,7.733,1.0
5.3333,128.184126,37.937994,6870.782397600001,-26.695,-6.199,7.732,1.0
5.35,128.184133,37.938039,6870.2081544,-26.836,-6.208,7.73,1.0
5.3666,128.18414,37.938085,6869.6323872,-26.977,-6.218,7.728,1.0
5.3833,128.184147,37.93813,6869.055705600001,-27.119,-6.228,7.726,1.0
5.4,128.184153,37.938176,6868.4775,-27.262,-6.237,7.724,1.0
5.4166,128.18416,37.938221,6867.8980752,-27.404,-6.247,7.721,1.0
5.4333,128.184167,37.938267,6867.3174312,-27.548,-6.256,7.719,1.0
5.45,128.184173,37.938312,6866.735568,-27.691,-6.266,7.717,1.0
5.4666,128.18418,37.938358,6866.152485600001,-27.835,-6.275,7.715,1.0
5.4833,128.184187,37.938403,6865.568184000001,-27.979,-6.284,7.713,1.0
5.5,128.184193,37.938449,6864.9823584000005,-28.124,-6.294,7.71,1.0
5.5166,128.1842,37.938494,6864.3953136,-28.269,-6.303,7.708,1.0
5.5333,128.184207,37.93854,6863.8070496,-28.414,-6.313,7.706,1.0
5.55,128.184213,37.938586,6863.2175664,-28.56,-6.322,7.703,1.0
5.5666,128.18422,37.938631,6862.626864000001,-28.707,-6.331,7.701,1.0
5.5833,128.184227,37.938677,6862.034942400001,-28.854,-6.341,7.698,1.0
5.6,128.184233,37.938722,6861.441496800001,-29.001,-6.35,7.696,1.0
5.6166,128.18424,37.938768,6860.8471368,-29.148,-6.359,7.693,1.0
5.6333,128.184247,37.938813,6860.2512528,-29.296,-6.369,7.69,1.0
5.65,128.184253,37.938859,6859.6538448,-29.445,-6.378,7.688,1.0
5.6666,128.18426,37.938905,6859.0555224,-29.594,-6.387,7.685,1.0
5.6833,128.184267,37.93895,6858.4559808,-29.743,-6.396,7.682,1.0
5.7,128.184273,37.938996,6857.8549152000005,-29.893,-6.406,7.679,1.0
5.7166,128.18428,37.939041,6857.2526304,-30.044,-6.415,7.677,1.0
5.7333,128.184287,37.939087,6856.649126400001,-30.194,-6.424,7.674,1.0
5.75,128.184293,37.939133,6856.0440984,-30.346,-6.433,7.671,1.0
5.7666,128.1843,37.939178,6855.4378512,-30.497,-6.442,7.668,1.0
5.7833,128.184306,37.939224,6854.8306896,-30.65,-6.451,7.665,1.0
5.8,128.184313,37.93927,6854.2216992,-30.802,-6.461,7.662,1.0
5.8166,128.18432,37.939315,6853.6117944,-30.956,-6.47,7.658,1.0
5.8333,128.184326,37.939361,6853.000365600001,-31.109,-6.479,7.655,1.0
5.85,128.184333,37.939407,6852.3877176000005,-31.263,-6.488,7.652,1.0
5.8666,128.184339,37.939452,6851.773850400001,-31.418,-6.497,7.649,1.0
5.8833,128.184346,37.939498,6851.158764000001,-31.573,-6.506,7.646,1.0
5.9,128.184353,37.939544,6850.5421536,-31.729,-6.515,7.642,1.0
5.9166,128.184359,37.939589,6849.9243240000005,-31.885,-6.524,7.639,1.0
5.9333,128.184366,37.939635,6849.305275199999,-32.042,-6.533,7.635,1.0
5.95,128.184372,37.939681,6848.6847024,-32.2,-6.542,7.632,1.0
5.9666,128.184379,37.939726,6848.062910400001,-32.357,-6.551,7.628,1.0
5.9833,128.184385,37.939772,6847.439899200001,-32.516,-6.56,7.625,1.0
6.0,128.184392,37.939818,6846.815668800001,-32.675,-6.569,7.621,1.0
6.0166,128.184399,37.939864,6846.189914400001,-32.834,-6.578,7.618,1.0
6.0333,128.184405,37.939909,6845.5629408,-32.995,-6.587,7.614,1.0
6.05,128.184412,37.939955,6844.9344432,-33.155,-6.596,7.61,1.0
6.0666,128.184418,37.940001,6844.3050312000005,-33.317,-6.605,7.606,1.0
6.0833,128.184425,37.940047,6843.6740952,-33.478,-6.614,7.602,1.0
6.1,128.184431,37.940092,6843.0416352,-33.641,-6.623,7.599,1.0
6.1166,128.184438,37.940138,6842.408260800001,-33.804,-6.632,7.595,1.0
6.1333,128.184444,37.940184,6841.7733624,-33.968,-6.641,7.591,1.0
6.15,128.184451,37.94023,6841.13694,-34.132,-6.65,7.587,1.0
6.1666,128.184457,37.940275,6840.4992984,-34.297,-6.659,7.583,1.0
6.1833,128.184464,37.940321,6839.8604376,-34.463,-6.668,7.578,1.0
6.2,128.18447,37.940367,6839.2203576,-34.629,-6.677,7.574,1.0
6.2166,128.184477,37.940413,6838.5787536,-34.796,-6.686,7.57,1.0
6.2333,128.184483,37.940458,6837.9359304,-34.963,-6.694,7.566,1.0
6.25,128.18449,37.940504,6837.291583200001,-35.131,-6.703,7.561,1.0
6.2666,128.184496,37.94055,6836.6460168,-35.3,-6.712,7.557,1.0
6.2833,128.184503,37.940596,6835.9989264000005,-35.47,-6.721,7.553,1.0
6.3,128.184509,37.940642,6835.3509216,-35.64,-6.73,7.548,1.0
6.3166,128.184515,37.940688,6834.701088000001,-35.81,-6.739,7.544,1.0
6.3333,128.184522,37.940733,6834.05034,-35.982,-6.748,7.539,1.0
6.35,128.184528,37.940779,6833.398068,-36.154,-6.757,7.535,1.0
6.3666,128.184535,37.940825,6832.744272,-36.327,-6.765,7.53,1.0
6.3833,128.184541,37.940871,6832.089256800001,-36.5,-6.774,7.525,1.0
6.4,128.184548,37.940917,6831.4330224000005,-36.675,-6.783,7.521,1.0
6.4166,128.184554,37.940963,6830.775264000001,-36.85,-6.792,7.516,1.0
6.4333,128.184561,37.941008,6830.116286400001,-37.026,-6.801,7.511,1.0
6.45,128.184567,37.941054,6829.4557848,-37.202,-6.81,7.506,1.0
6.4666,128.184573,37.9411,6828.794064000001,-37.379,-6.819,7.501,1.0
6.4833,128.18458,37.941146,6828.131124,-37.557,-6.827,7.496,1.0
6.5,128.184586,37.941192,6827.4663552,-37.736,-6.836,7.491,1.0
6.5166,128.184592,37.941238,6826.800672,-37.916,-6.845,7.486,1.0
6.5333,128.184599,37.941284,6826.1334648,-38.096,-6.854,7.481,1.0
6.55,128.184605,37.94133,6825.464733600001,-38.278,-6.863,7.476,1.0
6.5666,128.184612,37.941376,6824.794783200001,-38.46,-6.872,7.471,1.0
6.5833,128.184618,37.941422,6824.123613600001,-38.643,-6.88,7.466,1.0
6.6,128.184624,37.941467,6823.450920000001,-38.826,-6.889,7.46,1.0
6.6166,128.184631,37.941513,6822.7767023999995,-39.011,-6.898,7.455,1.0
6.6333,128.184637,37.941559,6822.101265600001,-39.196,-6.907,7.449,1.0
6.65,128.184643,37.941605,6821.424304800001,-39.382,-6.916,7.444,1.0
6.6666,128.18465,37.941651,6820.746124800001,-39.569,-6.925,7.438,1.0
6.6833,128.184656,37.941697,6820.0664208,-39.757,-6.933,7.433,1.0
6.7,128.184662,37.941743,6819.385497600001,-39.946,-6.942,7.427,1.0
6.7166,128.184669,37.941789,6818.7030504,-40.136,-6.951,7.422,1.0
6.7333,128.184675,37.941835,6818.019079200001,-40.326,-6.96,7.416,1.0
6.75,128.184681,37.941881,6817.3338888,-40.518,-6.969,7.41,1.0
6.7666,128.184687,37.941927,6816.647479200001,-40.71,-6.978,7.405,1.0
6.7833,128.184694,37.941973,6815.959240800001,-40.903,-6.987,7.399,1.0
6.8,128.1847,37.942019,6815.270088000001,-41.097,-6.995,7.393,1.0
6.8166,128.184706,37.942065,6814.5791064000005,-41.292,-7.004,7.387,1.0
6.8333,128.184713,37.942111,6813.8869056,-41.488,-7.013,7.381,1.0
6.85,128.184719,37.942157,6813.1931808,-41.684,-7.022,7.375,1.0
6.8666,128.184725,37.942203,6812.4982368,-41.882,-7.031,7.369,1.0
6.8833,128.184731,37.942249,6811.801768800001,-42.08,-7.04,7.363,1.0
6.9,128.184738,37.942295,6811.103776800001,-42.279,-7.049,7.357,1.0
6.9166,128.184744,37.942341,6810.404565600001,-42.48,-7.058,7.35,1.0
6.9333,128.18475,37.942387,6809.7038304,-42.68,-7.066,7.344,1.0
6.95,128.184756,37.942433,6809.0015712,-42.882,-7.075,7.338,1.0
6.9666,128.184762,37.942479,6808.297788000001,-43.085,-7.084,7.331,1.0
6.9833,128.184769,37.942525,6807.5927856,-43.288,-7.093,7.325,1.0
7.0,128.184775,37.942571,6806.8862592000005,-43.493,-7.102,7.318,1.0
7.0166,128.184781,37.942617,6806.178513600001,-43.698,-7.111,7.312,1.0
7.0333,128.184787,37.942664,6805.4689392,-43.904,-7.12,7.305,1.0
7.05,128.184793,37.94271,6804.758145600001,-44.111,-7.129,7.299,1.0
7.0666,128.1848,37.942756,6804.045828,-44.319,-7.138,7.292,1.0
7.0833,128.184806,37.942802,6803.3319864000005,-44.528,-7.147,7.285,1.0
7.1,128.184812,37.942848,6802.6169256,-44.737,-7.155,7.278,1.0
7.1166,128.184818,37.942894,6801.9003408,-44.948,-7.164,7.271,1.0
7.1333,128.184824,37.94294,6801.1819272,-45.159,-7.173,7.264,1.0
7.15,128.18483,37.942986,6800.4622944,-45.37,-7.182,7.257,1.0
7.1666,128.184836,37.943032,6799.741442400001,-45.583,-7.19,7.25,1.0
7.1833,128.184843,37.943078,6799.0187616,-45.796,-7.199,7.242,1.0
7.2,128.184849,37.943125,6798.294861599999,-46.011,-7.208,7.235,1.0
7.2166,128.184855,37.943171,6797.5691328,-46.225,-7.216,7.227,1.0
7.2333,128.184861,37.943217,6796.8421848,-46.441,-7.225,7.219,1.0
7.25,128.184867,37.943263,6796.1137128,-46.658,-7.233,7.212,1.0
7.2666,128.184873,37.943309,6795.3837168,-46.875,-7.242,7.204,1.0
7.2833,128.184879,37.943355,6794.652196800001,-47.093,-7.25,7.196,1.0
7.3,128.184885,37.943401,6793.9194576,-47.312,-7.259,7.188,1.0
7.3166,128.184891,37.943448,6793.1848896,-47.531,-7.267,7.179,1.0
7.3333,128.184897,37.943494,6792.448797600001,-47.751,-7.276,7.171,1.0
7.35,128.184903,37.94354,6791.7114864000005,-47.972,-7.284,7.163,1.0
7.3666,128.184909,37.943586,6790.972651200001,-48.194,-7.293,7.155,1.0
7.3833,128.184915,37.943632,6790.231987200001,-48.416,-7.301,7.146,1.0
7.4,128.184921,37.943679,6789.490104,-48.64,-7.31,7.138,1.0
7.4166,128.184927,37.943725,6788.746392000001,-48.864,-7.318,7.129,1.0
7.4333,128.184933,37.943771,6788.001460800001,-49.088,-7.327,7.121,1.0
7.45,128.184939,37.943817,6787.255005600001,-49.314,-7.335,7.112,1.0
7.4666,128.184945,37.943863,6786.5070264000005,-49.54,-7.344,7.104,1.0
7.4833,128.184951,37.94391,6785.7572184,-49.767,-7.353,7.095,1.0
7.5,128.184957,37.943956,6785.0061912,-49.994,-7.361,7.086,1.0
7.5166,128.184963,37.944002,6784.2533352,-50.223,-7.37,7.077,1.0
7.5333,128.184969,37.944048,6783.4992600000005,-50.452,-7.379,7.068,1.0
7.55,128.184975,37.944095,6782.743356000001,-50.682,-7.387,7.06,1.0
7.5666,128.184981,37.944141,6781.986232800001,-50.913,-7.396,7.051,1.0
7.5833,128.184987,37.944187,6781.2272808,-51.144,-7.405,7.042,1.0
7.6,128.184993,37.944233,6780.4668048,-51.376,-7.414,7.033,1.0
7.6166,128.184999,37.94428,6779.704804800001,-51.609,-7.423,7.023,1.0
7.6333,128.185005,37.944326,6778.9412808,-51.843,-7.431,7.014,1.0
7.65,128.185011,37.944372,6778.1762328,-52.077,-7.44,7.005,1.0
7.6666,128.185017,37.944418,6777.409660800001,-52.312,-7.449,6.996,1.0
7.6833,128.185023,37.944465,6776.64126,-52.548,-7.458,6.987,1.0
7.7,128.185029,37.944511,6775.87164,-52.785,-7.467,6.977,1.0
7.7166,128.185034,37.944557,6775.1001912,-53.023,-7.476,6.968,1.0
7.7333,128.18504,37.944604,6774.327218400001,-53.261,-7.485,6.958,1.0
7.75,128.185046,37.94465,6773.5527216,-53.5,-7.494,6.949,1.0
7.7666,128.185052,37.944696,6772.776396,-53.739,-7.503,6.939,1.0
7.7833,128.185058,37.944743,6771.998851200001,-53.98,-7.512,6.929,1.0
7.8,128.185064,37.944789,6771.219477600001,-54.221,-7.522,6.92,1.0
7.8166,128.185069,37.944835,6770.4382752,-54.463,-7.531,6.91,1.0
7.8333,128.185075,37.944882,6769.6558536,-54.706,-7.54,6.9,1.0
7.85,128.185081,37.944928,6768.8716032,-54.95,-7.549,6.89,1.0
7.8666,128.185087,37.944974,6768.085828800001,-55.194,-7.558,6.88,1.0
7.8833,128.185093,37.945021,6767.2985304,-55.439,-7.567,6.87,1.0
7.9,128.185098,37.945067,6766.5094032,-55.685,-7.576,6.859,1.0
7.9166,128.185104,37.945113,6765.718752000001,-55.932,-7.586,6.849,1.0
7.9333,128.18511,37.94516,6764.9265768000005,-56.179,-7.595,6.839,1.0
7.95,128.185116,37.945206,6764.1325728,-56.427,-7.604,6.828,1.0
7.9666,128.185122,37.945253,6763.3370448000005,-56.676,-7.613,6.817,1.0
7.9833,128.185127,37.945299,6762.539688000001,-56.925,-7.622,6.806,1.0
8.0,128.185133,37.945345,6761.7408072,-57.176,-7.631,6.795,1.0
8.0166,128.185139,37.945392,6760.9404024,-57.427,-7.64,6.784,1.0
8.0333,128.185144,37.945438,6760.1381688,-57.678,-7.649,6.773,1.0
8.05,128.18515,37.945485,6759.3344112,-57.931,-7.658,6.762,1.0
8.0666,128.185156,37.945531,6758.528824800001,-58.184,-7.668,6.75,1.0
8.0833,128.185162,37.945577,6757.721714400001,-58.438,-7.677,6.738,1.0
8.1,128.185167,37.945624,6756.91308,-58.693,-7.686,6.726,1.0
8.1166,128.185173,37.94567,6756.1026168,-58.948,-7.695,6.714,1.0
8.1333,128.185179,37.945717,6755.290324800001,-59.204,-7.704,6.702,1.0
8.15,128.185184,37.945763,6754.4765088,-59.461,-7.712,6.69,1.0
8.1666,128.18519,37.94581,6753.6611688,-59.718,-7.721,6.677,1.0
8.1833,128.185196,37.945856,6752.8436952,-59.976,-7.73,6.665,1.0
8.2,128.185201,37.945903,6752.0250024,-60.235,-7.74,6.652,1.0
8.2166,128.185207,37.945949,6751.2044808,-60.494,-7.749,6.64,1.0
8.2333,128.185212,37.945995,6750.3821304,-60.754,-7.758,6.627,1.0
8.25,128.185218,37.946042,6749.558256,-61.015,-7.767,6.614,1.0
8.2666,128.185224,37.946088,6748.7325528,-61.276,-7.777,6.601,1.0
8.2833,128.185229,37.946135,6747.9050208,-61.539,-7.786,6.589,1.0
8.3,128.185235,37.946181,6747.0759648,-61.804,-7.796,6.576,1.0
8.3166,128.18524,37.946228,6746.24508,-62.069,-7.805,6.563,1.0
8.3333,128.185246,37.946274,6745.4126712,-62.335,-7.815,6.551,1.0
8.35,128.185251,37.946321,6744.578433600001,-62.603,-7.825,6.539,1.0
8.3666,128.185257,37.946367,6743.7423672,-62.872,-7.836,6.527,1.0
8.3833,128.185262,37.946414,6742.9047768,-63.142,-7.846,6.516,1.0
8.4,128.185268,37.946461,6742.0653576,-63.412,-7.858,6.505,1.0
8.4166,128.185273,37.946507,6741.224109600001,-63.684,-7.869,6.495,1.0
8.4333,128.185279,37.946554,6740.381032800001,-63.956,-7.881,6.486,1.0
8.45,128.185284,37.9466,6739.536432000001,-64.229,-7.893,6.478,1.0
8.4666,128.18529,37.946647,6738.689697600001,-64.503,-7.906,6.471,1.0
8.4833,128.185295,37.946693,6737.8414391999995,-64.776,-7.919,6.464,1.0
8.5,128.185301,37.94674,6736.991352000001,-65.049,-7.933,6.458,1.0
8.5166,128.185306,37.946786,6736.1391312000005,-65.321,-7.946,6.452,1.0
8.5333,128.185312,37.946833,6735.285386400001,-65.592,-7.96,6.447,1.0
8.55,128.185317,37.94688,6734.429508,-65.861,-7.974,6.442,1.0
8.5666,128.185323,37.946926,6733.5718008,-66.128,-7.988,6.437,1.0
8.5833,128.185328,37.946973,6732.7122648,-66.394,-8.002,6.432,1.0
8.6,128.185334,37.947019,6731.8509,-66.657,-8.016,6.428,1.0
8.6166,128.185339,37.947066,6730.987706400001,-66.918,-8.03,6.423,1.0
8.6333,128.185344,37.947113,6730.122379200001,-67.177,-8.043,6.418,1.0
8.65,128.18535,37.947159,6729.255223200001,-67.433,-8.057,6.413,1.0
8.6666,128.185355,37.947206,6728.3859336000005,-67.687,-8.071,6.408,1.0
8.6833,128.185361,37.947252,6727.515120000001,-67.939,-8.085,6.403,1.0
8.7,128.185366,37.947299,6726.641868000001,-68.188,-8.099,6.398,1.0
8.7166,128.185371,37.947346,6725.767092000001,-68.435,-8.113,6.393,1.0
8.7333,128.185377,37.947392,6724.8901824,-68.68,-8.127,6.388,1.0
8.75,128.185382,37.947439,6724.011444,-68.923,-8.141,6.383,1.0
8.7666,128.185387,37.947486,6723.130572,-69.164,-8.155,6.377,1.0
8.7833,128.185393,37.947532,6722.2475664,-69.403,-8.169,6.372,1.0
8.8,128.185398,37.947579,6721.3627320000005,-69.64,-8.183,6.366,1.0
8.8166,128.185403,37.947626,6720.476068800001,-69.875,-8.196,6.36,1.0
8.8333,128.185409,37.947672,6719.587272,-70.108,-8.21,6.354,1.0
8.85,128.185414,37.947719,6718.696646400001,-70.339,-8.224,6.348,1.0
8.8666,128.185419,37.947766,6717.803887200001,-70.568,-8.238,6.342,1.0
8.8833,128.185425,37.947812,6716.9089944,-70.796,-8.251,6.335,1.0
8.9,128.18543,37.947859,6716.012272800001,-71.022,-8.265,6.328,1.0
8.9166,128.185435,37.947906,6715.1134176000005,-71.246,-8.279,6.322,1.0
8.9333,128.185441,37.947953,6714.2124288,-71.468,-8.293,6.315,1.0
8.95,128.185446,37.947999,6713.309611200001,-71.689,-8.307,6.308,1.0
8.9666,128.185451,37.948046,6712.404964800001,-71.909,-8.32,6.301,1.0
8.9833,128.185457,37.948093,6711.49788,-72.127,-8.334,6.293,1.0
9.0,128.185462,37.948139,6710.5889664,-72.344,-8.348,6.286,1.0
9.0166,128.185467,37.948186,6709.6779192,-72.559,-8.362,6.279,1.0
9.0333,128.185472,37.948233,6708.7650432,-72.774,-8.376,6.271,1.0
9.05,128.185478,37.94828,6707.850033600001,-72.987,-8.39,6.264,1.0
9.0666,128.185483,37.948326,6706.9328904,-73.199,-8.404,6.256,1.0
9.0833,128.185488,37.948373,6706.0139184,-73.411,-8.418,6.249,1.0
9.1,128.185494,37.94842,6705.0928128000005,-73.621,-8.432,6.241,1.0
9.1166,128.185499,37.948467,6704.1695736,-73.831,-8.446,6.234,1.0
9.1333,128.185504,37.948514,6703.244200800001,-74.04,-8.46,6.226,1.0
9.15,128.185509,37.94856,6702.3169992,-74.248,-8.474,6.219,1.0
9.1666,128.185515,37.948607,6701.387664000001,-74.456,-8.488,6.211,1.0
9.1833,128.18552,37.948654,6700.4561952,-74.663,-8.503,6.204,1.0
9.2,128.185525,37.948701,6699.522897600001,-74.869,-8.517,6.196,1.0
9.2166,128.18553,37.948747,6698.5874664,-75.075,-8.531,6.188,1.0
9.2333,128.185535,37.948794,6697.649901600001,-75.28,-8.546,6.181,1.0
9.25,128.185541,37.948841,6696.7102032,-75.485,-8.56,6.173,1.0
9.2666,128.185546,37.948888,6695.7683712,-75.689,-8.575,6.165,1.0
9.2833,128.185551,37.948935,6694.824710400001,-75.893,-8.589,6.158,1.0
9.3,128.185556,37.948982,6693.878916,-76.096,-8.604,6.15,1.0
9.3166,128.185561,37.949028,6692.930988000001,-76.299,-8.619,6.142,1.0
9.3333,128.185567,37.949075,6691.9809264000005,-76.501,-8.633,6.135,1.0
9.35,128.185572,37.949122,6691.029036,-76.703,-8.648,6.127,1.0
9.3666,128.185577,37.949169,6690.0747071999995,-76.904,-8.663,6.119,1.0
9.3833,128.185582,37.949216,6689.1185496,-77.105,-8.677,6.111,1.0
9.4,128.185587,37.949263,6688.1602584,-77.306,-8.692,6.103,1.0
9.4166,128.185593,37.94931,6687.199833600001,-77.506,-8.707,6.095,1.0
9.4333,128.185598,37.949356,6686.23758,-77.706,-8.722,6.087,1.0
9.45,128.185603,37.949403,6685.272888,-77.906,-8.737,6.078,1.0
9.4666,128.185608,37.94945,6684.3063672,-78.105,-8.751,6.07,1.0
9.4833,128.185613,37.949497,6683.3377128,-78.304,-8.766,6.062,1.0
9.5,128.185618,37.949544,6682.366924800001,-78.503,-8.781,6.053,1.0
9.5166,128.185624,37.949591,6681.3940032,-78.701,-8.796,6.045,1.0
9.5333,128.185629,37.949638,6680.4192528,-78.9,-8.811,6.036,1.0
9.55,128.185634,37.949685,6679.442064000001,-79.098,-8.826,6.028,1.0
9.5666,128.185639,37.949732,6678.4630464,-79.296,-8.841,6.019,1.0
9.5833,128.185644,37.949779,6677.481590400001,-79.494,-8.856,6.01,1.0
9.6,128.185649,37.949826,6676.498305600001,-79.692,-8.872,6.002,1.0
9.6166,128.185654,37.949872,6675.5128872000005,-79.89,-8.887,5.993,1.0
9.6333,128.18566,37.949919,6674.5253352,-80.088,-8.902,5.984,1.0
9.65,128.185665,37.949966,6673.5359544,-80.286,-8.917,5.975,1.0
9.6666,128.18567,37.950013,6672.5441352,-80.483,-8.933,5.966,1.0
9.6833,128.185675,37.95006,6671.5504872,-80.681,-8.948,5.957,1.0
9.7,128.18568,37.950107,6670.554400800001,-80.879,-8.963,5.948,1.0
9.7166,128.185685,37.950154,6669.5564856,-81.077,-8.979,5.939,1.0
9.7333,128.18569,37.950201,6668.5564368000005,-81.274,-8.994,5.93,1.0
9.75,128.185695,37.950248,6667.5542544,-81.472,-9.009,5.92,1.0
9.7666,128.1857,37.950295,6666.5499384,-81.67,-9.025,5.911,1.0
9.7833,128.185705,37.950342,6665.5434888,-81.867,-9.041,5.902,1.0
9.8,128.18571,37.950389,6664.5349056000005,-82.065,-9.056,5.892,1.0
9.8166,128.185716,37.950436,6663.5244936,-82.263,-9.072,5.883,1.0
9.8333,128.185721,37.950483,6662.5116431999995,-82.461,-9.087,5.874,1.0
9.85,128.185726,37.95053,6661.4966592,-82.658,-9.103,5.864,1.0
9.8666,128.185731,37.950577,6660.4798464000005,-82.856,-9.119,5.855,1.0
9.8833,128.185736,37.950624,6659.4609,-83.054,-9.135,5.845,1.0
9.9,128.185741,37.950671,6658.439515200001,-83.252,-9.15,5.836,1.0
9.9166,128.185746,37.950718,6657.416301600001,-83.45,-9.166,5.826,1.0
9.9333,128.185751,37.950765,6656.390954400001,-83.648,-9.182,5.817,1.0
9.95,128.185756,37.950812,6655.3634736,-83.846,-9.198,5.807,1.0
9.9666,128.185761,37.950859,6654.3338592,-84.044,-9.214,5.797,1.0
9.9833,128.185766,37.950906,6653.302111200001,-84.242,-9.23,5.788,1.0
10.0,128.185771,37.950953,6652.268229599999,-84.441,-9.246,5.778,1.0
10.0166,128.185776,37.951001,6651.232519200001,-84.639,-9.262,5.768,1.0
10.0333,128.185781,37.951048,6650.1943704000005,-84.837,-9.278,5.758,1.0
10.05,128.185786,37.951095,6649.154088000001,-85.036,-9.294,5.749,1.0
10.0666,128.185791,37.951142,6648.111672,-85.234,-9.31,5.739,1.0
10.0833,128.185796,37.951189,6647.067427200001,-85.433,-9.327,5.729,1.0
10.1,128.185801,37.951236,6646.020744,-85.631,-9.343,5.719,1.0
10.1166,128.185806,37.951283,6644.972232,-85.83,-9.359,5.709,1.0
10.1333,128.185811,37.95133,6643.9212816,-86.028,-9.376,5.699,1.0
10.15,128.185816,37.951377,6642.8685024,-86.227,-9.392,5.69,1.0
10.1666,128.185821,37.951424,6641.8135896,-86.426,-9.408,5.68,1.0
10.1833,128.185826,37.951471,6640.756238400001,-86.625,-9.425,5.67,1.0
10.2,128.185831,37.951519,6639.6970584,-86.824,-9.441,5.66,1.0
10.2166,128.185836,37.951566,6638.6357448,-87.022,-9.458,5.65,1.0
10.2333,128.185841,37.951613,6637.571992800001,-87.221,-9.474,5.64,1.0
10.25,128.185846,37.95166,6636.506412,-87.42,-9.491,5.63,1.0
10.2666,128.185851,37.951707,6635.4386976000005,-87.619,-9.508,5.62,1.0
10.2833,128.185856,37.951754,6634.368544800001,-87.818,-9.524,5.609,1.0
10.3,128.185861,37.951801,6633.2965632000005,-88.018,-9.541,5.599,1.0
10.3166,128.185866,37.951849,6632.2224479999995,-88.217,-9.558,5.589,1.0
10.3333,128.185871,37.951896,6631.1461992,-88.416,-9.575,5.579,1.0
10.35,128.185876,37.951943,6630.0678168,-88.615,-9.592,5.569,1.0
10.3666,128.185881,37.95199,6628.9869960000005,-88.814,-9.608,5.559,1.0
10.3833,128.185886,37.952037,6627.904346400001,-89.013,-9.625,5.548,1.0
10.4,128.185891,37.952084,6626.819563200001,-89.212,-9.642,5.538,1.0
10.4166,128.185896,37.952132,6625.732646400001,-89.412,-9.659,5.528,1.0
10.4333,128.185901,37.952179,6624.643596000001,-89.611,-9.676,5.518,1.0
10.45,128.185905,37.952226,6623.5521072,-89.81,-9.694,5.507,1.0
10.4666,128.18591,37.952273,6622.4587896,-90.009,-9.711,5.497,1.0
10.4833,128.185915,37.95232,6621.3633384,-90.209,-9.728,5.486,1.0
10.5,128.18592,37.952368,6620.2657536,-90.408,-9.745,5.476,1.0
10.5166,128.185925,37.952415,6619.1657304,-90.607,-9.762,5.466,1.0
10.5333,128.18593,37.952462,6618.0638784,-90.806,-9.78,5.455,1.0
10.55,128.185935,37.952509,6616.9598928000005,-91.006,-9.797,5.445,1.0
10.5666,128.18594,37.952556,6615.853468800001,-91.205,-9.814,5.434,1.0
10.5833,128.185945,37.952604,6614.745216,-91.404,-9.832,5.424,1.0
10.6,128.18595,37.952651,6613.6348296,-91.603,-9.849,5.413,1.0
10.6166,128.185955,37.952698,6612.5220048,-91.803,-9.867,5.403,1.0
10.6333,128.185959,37.952745,6611.4073512,-92.002,-9.884,5.392,1.0
10.65,128.185964,37.952793,6610.2902592,-92.201,-9.902,5.382,1.0
10.6666,128.185969,37.95284,6609.1713384,-92.4,-9.919,5.371,1.0
10.6833,128.185974,37.952887,6608.049979200001,-92.599,-9.937,5.361,1.0
10.7,128.185979,37.952935,6606.926486400001,-92.799,-9.955,5.35,1.0
10.7166,128.185984,37.952982,6605.801164800001,-92.998,-9.972,5.34,1.0
10.7333,128.185989,37.953029,6604.673404800001,-93.197,-9.99,5.329,1.0
10.75,128.185993,37.953076,6603.5435112000005,-93.396,-10.008,5.318,1.0
10.7666,128.185998,37.953124,6602.4117888,-93.595,-10.026,5.308,1.0
10.7833,128.186003,37.953171,6601.277628000001,-93.794,-10.044,5.297,1.0
10.8,128.186008,37.953218,6600.1413336000005,-93.993,-10.062,5.286,1.0
10.8166,128.186013,37.953266,6599.0029056,-94.192,-10.08,5.276,1.0
10.8333,128.186018,37.953313,6597.862344,-94.391,-10.098,5.265,1.0
10.85,128.186022,37.95336,6596.7196488,-94.59,-10.116,5.254,1.0
10.8666,128.186027,37.953408,6595.574515200001,-94.789,-10.134,5.244,1.0
10.8833,128.186032,37.953455,6594.4275528,-94.988,-10.152,5.233,1.0
10.9,128.186037,37.953502,6593.278456800001,-95.187,-10.17,5.222,1.0
10.9166,128.186042,37.95355,6592.127227200001,-95.386,-10.188,5.212,1.0
10.9333,128.186047,37.953597,6590.973559200001,-95.585,-10.207,5.201,1.0
10.95,128.186051,37.953644,6589.8180624,-95.783,-10.225,5.19,1.0
10.9666,128.186056,37.953692,6588.660127200001,-95.982,-10.243,5.18,1.0
10.9833,128.186061,37.953739,6587.5000584,-96.181,-10.262,5.169,1.0
11.0,128.186066,37.953786,6586.338160800001,-96.379,-10.28,5.158,1.0
11.0166,128.186071,37.953834,6585.173824800001,-96.578,-10.298,5.148,1.0
11.0333,128.186075,37.953881,6584.0073552,-96.777,-10.317,5.137,1.0
11.05,128.18608,37.953928,6582.838752000001,-96.975,-10.335,5.126,1.0
11.0666,128.186085,37.953976,6581.668015200001,-97.174,-10.354,5.115,1.0
11.0833,128.18609,37.954023,6580.49484,-97.372,-10.373,5.105,1.0
11.1,128.186094,37.954071,6579.319836000001,-97.571,-10.391,5.094,1.0
11.1166,128.186099,37.954118,6578.1426984,-97.769,-10.41,5.083,1.0
11.1333,128.186104,37.954165,6576.9631224,-97.968,-10.429,5.073,1.0
11.15,128.186109,37.954213,6575.7817176,-98.166,-10.447,5.062,1.0
11.1666,128.186113,37.95426,6574.5978744,-98.364,-10.466,5.051,1.0
11.1833,128.186118,37.954308,6573.411897600001,-98.563,-10.485,5.04,1.0
11.2,128.186123,37.954355,6572.2237872000005,-98.761,-10.504,5.03,1.0
11.2166,128.186128,37.954402,6571.0335432,-98.959,-10.523,5.019,1.0
11.2333,128.186132,37.95445,6569.841165600001,-99.158,-10.542,5.008,1.0
11.25,128.186137,37.954497,6568.6466544,-99.356,-10.561,4.997,1.0
11.2666,128.186142,37.954545,6567.4500096,-99.554,-10.58,4.987,1.0
11.2833,128.186147,37.954592,6566.2509264,-99.753,-10.599,4.976,1.0
11.3,128.186151,37.95464,6565.050014400001,-99.951,-10.618,4.965,1.0
11.3166,128.186156,37.954687,6563.846664000001,-100.149,-10.637,4.954,1.0
11.3333,128.186161,37.954735,6562.6414848,-100.347,-10.656,4.944,1.0
11.35,128.186166,37.954782,6561.4338672,-100.546,-10.676,4.933,1.0
11.3666,128.18617,37.95483,6560.224115999999,-100.744,-10.695,4.922,1.0
11.3833,128.186175,37.954877,6559.0119264,-100.942,-10.714,4.911,1.0
11.4,128.18618,37.954924,6557.7979080000005,-101.141,-10.733,4.9,1.0
11.4166,128.186184,37.954972,6556.5817560000005,-101.339,-10.753,4.89,1.0
11.4333,128.186189,37.955019,6555.363165600001,-101.537,-10.772,4.879,1.0
11.45,128.186194,37.955067,6554.142746400001,-101.735,-10.792,4.868,1.0
11.4666,128.186198,37.955114,6552.9198888,-101.934,-10.811,4.857,1.0
11.4833,128.186203,37.955162,6551.694897600001,-102.132,-10.831,4.846,1.0
11.5,128.186208,37.955209,6550.467772800001,-102.33,-10.85,4.836,1.0
11.5166,128.186212,37.955257,6549.238514400001,-102.528,-10.87,4.825,1.0
11.5333,128.186217,37.955305,6548.0068176,-102.726,-10.89,4.814,1.0
11.55,128.186222,37.955352,6546.773292000001,-102.924,-10.909,4.803,1.0
11.5666,128.186226,37.9554,6545.537328,-103.123,-10.929,4.792,1.0
11.5833,128.186231,37.955447,6544.2995352,-103.321,-10.949,4.782,1.0
11.6,128.186236,37.955495,6543.059304,-103.519,-10.969,4.771,1.0
11.6166,128.18624,37.955542,6541.8169392,-103.717,-10.989,4.76,1.0
11.6333,128.186245,37.95559,6540.572136000001,-103.915,-11.008,4.749,1.0
11.65,128.18625,37.955637,6539.325504,-104.112,-11.028,4.738,1.0
11.6666,128.186254,37.955685,6538.076433600001,-104.31,-11.048,4.728,1.0
11.6833,128.186259,37.955732,6536.8255344,-104.508,-11.068,4.717,1.0
11.7,128.186263,37.95578,6535.572196800001,-104.706,-11.088,4.706,1.0
11.7166,128.186268,37.955828,6534.3167256,-104.904,-11.108,4.695,1.0
11.7333,128.186273,37.955875,6533.0591208,-105.101,-11.128,4.684,1.0
11.75,128.186277,37.955923,6531.799077600001,-105.299,-11.149,4.674,1.0
11.7666,128.186282,37.95597,6530.537205600001,-105.497,-11.169,4.663,1.0
11.7833,128.186287,37.956018,6529.272895200001,-105.694,-11.189,4.652,1.0
11.8,128.186291,37.956065,6528.006756000001,-105.892,-11.209,4.641,1.0
11.8166,128.186296,37.956113,6526.738178400001,-106.089,-11.23,4.631,1.0
11.8333,128.1863,37.956161,6525.4671624,-106.286,-11.25,4.62,1.0
11.85,128.186305,37.956208,6524.1943176,-106.484,-11.27,4.609,1.0
11.8666,128.18631,37.956256,6522.9193392,-106.681,-11.291,4.598,1.0
11.8833,128.186314,37.956303,6521.6419224,-106.878,-11.311,4.587,1.0
11.9,128.186319,37.956351,6520.3623720000005,-107.075,-11.332,4.577,1.0
11.9166,128.186323,37.956399,6519.080688000001,-107.273,-11.352,4.566,1.0
11.9333,128.186328,37.956446,6517.7968704,-107.47,-11.373,4.555,1.0
11.95,128.186332,37.956494,6516.5106144,-107.667,-11.393,4.544,1.0
11.9666,128.186337,37.956542,6515.2225296,-107.864,-11.414,4.534,1.0
11.9833,128.186341,37.956589,6513.932006400001,-108.06,-11.434,4.523,1.0
12.0,128.186346,37.956637,6512.6393496,-108.257,-11.455,4.512,1.0
12.0166,128.186351,37.956685,6511.344559200001,-108.454,-11.476,4.502,1.0
12.0333,128.186355,37.956732,6510.0476352,-108.651,-11.497,4.491,1.0
12.05,128.18636,37.95678,6508.7482728,-108.847,-11.517,4.48,1.0
12.0666,128.186364,37.956828,6507.4467768,-109.044,-11.538,4.469,1.0
12.0833,128.186369,37.956875,6506.1431472,-109.24,-11.559,4.459,1.0
12.1,128.186373,37.956923,6504.837384000001,-109.436,-11.58,4.448,1.0
12.1166,128.186378,37.956971,6503.5294872,-109.633,-11.601,4.437,1.0
12.1333,128.186382,37.957018,6502.219152000001,-109.829,-11.622,4.427,1.0
12.15,128.186387,37.957066,6500.906988000001,-110.025,-11.643,4.416,1.0
12.1666,128.186391,37.957114,6499.5923856,-110.221,-11.664,4.405,1.0
12.1833,128.186396,37.957161,6498.2756496,-110.417,-11.685,4.395,1.0
12.2,128.1864,37.957209,6496.9564752,-110.613,-11.706,4.384,1.0
12.2166,128.186405,37.957257,6495.635472,-110.809,-11.727,4.373,1.0
12.2333,128.186409,37.957304,6494.3120304,-111.004,-11.748,4.363,1.0
12.25,128.186414,37.957352,6492.986455200001,-111.2,-11.77,4.352,1.0
12.2666,128.186418,37.9574,6491.6587464,-111.396,-11.791,4.342,1.0
12.2833,128.186423,37.957448,6490.3285992,-111.591,-11.812,4.331,1.0
12.3,128.186427,37.957495,6488.996623200001,-111.786,-11.834,4.32,1.0
12.3166,128.186432,37.957543,6487.6622088,-111.982,-11.855,4.31,1.0
12.3333,128.186436,37.957591,6486.325660800001,-112.177,-11.876,4.299,1.0
12.35,128.186441,37.957639,6484.986674400001,-112.372,-11.898,4.289,1.0
12.3666,128.186445,37.957686,6483.6458592,-112.567,-11.919,4.278,1.0
12.3833,128.18645,37.957734,6482.302605600001,-112.762,-11.941,4.267,1.0
12.4,128.186454,37.957782,6480.957218400001,-112.957,-11.962,4.257,1.0
12.4166,128.186458,37.95783,6479.609697600001,-113.151,-11.984,4.246,1.0
12.4333,128.186463,37.957877,6478.259738400001,-113.346,-12.005,4.236,1.0
12.45,128.186467,37.957925,6476.9076456,-113.54,-12.027,4.225,1.0
12.4666,128.186472,37.957973,6475.5534192000005,-113.735,-12.048,4.215,1.0
12.4833,128.186476,37.958021,6474.197059200001,-113.929,-12.07,4.204,1.0
12.5,128.186481,37.958068,6472.838565600001,-114.123,-12.092,4.194,1.0
12.5166,128.186485,37.958116,6471.4776336,-114.317,-12.114,4.183,1.0
12.5333,128.18649,37.958164,6470.114568,-114.511,-12.135,4.173,1.0
12.55,128.186494,37.958212,6468.7493688,-114.705,-12.157,4.163,1.0
12.5666,128.186498,37.95826,6467.382036,-114.899,-12.179,4.152,1.0
12.5833,128.186503,37.958307,6466.012264800001,-115.093,-12.201,4.142,1.0
12.6,128.186507,37.958355,6464.64036,-115.287,-12.223,4.131,1.0
12.6166,128.186512,37.958403,6463.2663216,-115.48,-12.245,4.121,1.0
12.6333,128.186516,37.958451,6461.8898448,-115.674,-12.267,4.11,1.0
12.65,128.18652,37.958499,6460.5115392,-115.867,-12.289,4.1,1.0
12.6666,128.186525,37.958547,6459.130795200001,-116.06,-12.311,4.09,1.0
12.6833,128.186529,37.958594,6457.7476128,-116.254,-12.333,4.079,1.0
12.7,128.186533,37.958642,6456.362601600001,-116.447,-12.355,4.069,1.0
12.7166,128.186538,37.95869,6454.975152000001,-116.64,-12.377,4.058,1.0
12.7333,128.186542,37.958738,6453.5855688,-116.833,-12.399,4.048,1.0
12.75,128.186547,37.958786,6452.193852000001,-117.026,-12.422,4.038,1.0
12.7666,128.186551,37.958834,6450.799696800001,-117.219,-12.444,4.027,1.0
12.7833,128.186555,37.958881,6449.403408,-117.411,-12.466,4.017,1.0
12.8,128.18656,37.958929,6448.0049856000005,-117.604,-12.489,4.007,1.0
12.8166,128.186564,37.958977,6446.6044296,-117.796,-12.511,3.996,1.0
12.8333,128.186568,37.959025,6445.2014352,-117.989,-12.533,3.986,1.0
12.85,128.186573,37.959073,6443.7963072,-118.181,-12.556,3.976,1.0
12.8666,128.186577,37.959121,6442.3890456,-118.373,-12.578,3.965,1.0
12.8833,128.186581,37.959169,6440.979345600001,-118.566,-12.601,3.955,1.0
12.9,128.186586,37.959217,6439.567512,-118.758,-12.623,3.945,1.0
12.9166,128.18659,37.959264,6438.1535448,-118.949,-12.646,3.935,1.0
12.9333,128.186594,37.959312,6436.737444,-119.141,-12.668,3.924,1.0
12.95,128.186599,37.95936,6435.3189048,-119.333,-12.691,3.914,1.0
12.9666,128.186603,37.959408,6433.8982320000005,-119.525,-12.713,3.904,1.0
12.9833,128.186607,37.959456,6432.4751208,-119.716,-12.736,3.894,1.0
13.0,128.186612,37.959504,6431.0501808,-119.907,-12.759,3.883,1.0
13.0166,128.186616,37.959552,6429.6228024,-120.099,-12.782,3.873,1.0
13.0333,128.18662,37.9596,6428.1929856,-120.29,-12.804,3.863,1.0
13.0499,128.186624,37.959648,6426.76134,-120.481,-12.827,3.853,1.0
13.0666,128.186629,37.959696,6425.3272560000005,-120.672,-12.85,3.843,1.0
13.0833,128.186633,37.959743,6423.890733600001,-120.863,-12.873,3.833,1.0
13.1,128.186637,37.959791,6422.452382400001,-121.053,-12.896,3.822,1.0
13.1166,128.186641,37.959839,6421.0115928000005,-121.244,-12.919,3.812,1.0
13.1333,128.186646,37.959887,6419.5686696,-121.434,-12.942,3.802,1.0
13.15,128.18665,37.959935,6418.123308,-121.625,-12.965,3.792,1.0
13.1666,128.186654,37.959983,6416.6758128,-121.815,-12.988,3.782,1.0
13.1833,128.186659,37.960031,6415.226184000001,-122.005,-13.011,3.772,1.0
13.2,128.186663,37.960079,6413.7741168,-122.195,-13.034,3.762,1.0
13.2166,128.186667,37.960127,6412.3199159999995,-122.385,-13.057,3.752,1.0
13.2333,128.186671,37.960175,6410.8635816000005,-122.575,-13.08,3.742,1.0
13.25,128.186675,37.960223,6409.4048088,-122.765,-13.103,3.732,1.0
13.2666,128.18668,37.960271,6407.943902399999,-122.954,-13.126,3.722,1.0
13.2833,128.186684,37.960319,6406.4808624,-123.144,-13.15,3.712,1.0
13.3,128.186688,37.960367,6405.015384000001,-123.333,-13.173,3.702,1.0
13.3166,128.186692,37.960415,6403.547772,-123.522,-13.196,3.692,1.0
13.3333,128.186697,37.960463,6402.0777216,-123.711,-13.22,3.682,1.0
13.35,128.186701,37.960511,6400.6058424,-123.9,-13.243,3.672,1.0
13.3666,128.186705,37.960559,6399.131220000001,-124.089,-13.266,3.662,1.0
13.3833,128.186709,37.960607,6397.6547688,-124.278,-13.29,3.652,1.0
13.4,128.186713,37.960655,6396.175879200001,-124.466,-13.313,3.642,1.0
13.4166,128.186718,37.960703,6394.694856000001,-124.654,-13.337,3.632,1.0
13.4333,128.186722,37.960751,6393.2113944,-124.843,-13.36,3.622,1.0
13.45,128.186726,37.960799,6391.7257992,-125.031,-13.383,3.612,1.0
13.4666,128.18673,37.960847,6390.237765600001,-125.218,-13.407,3.603,1.0
13.4833,128.186734,37.960895,6388.7475984,-125.406,-13.431,3.593,1.0
13.5,128.186738,37.960943,6387.255297600001,-125.594,-13.454,3.583,1.0
13.5166,128.186743,37.960991,6385.7605584,-125.781,-13.478,3.573,1.0
13.5333,128.186747,37.961039,6384.2636856,-125.969,-13.501,3.563,1.0
13.55,128.186751,37.961087,6382.7646792000005,-126.156,-13.525,3.554,1.0
13.5666,128.186755,37.961135,6381.263234399999,-126.343,-13.549,3.544,1.0
13.5833,128.186759,37.961183,6379.759656000001,-126.529,-13.572,3.534,1.0
13.6,128.186763,37.961231,6378.2536392,-126.716,-13.596,3.525,1.0
13.6166,128.186767,37.961279,6376.7454888,-126.903,-13.62,3.515,1.0
13.6333,128.186772,37.961327,6375.2349,-127.089,-13.644,3.505,1.0
13.65,128.186776,37.961375,6373.722177600001,-127.275,-13.667,3.496,1.0
13.6666,128.18678,37.961423,6372.2073216,-127.461,-13.691,3.486,1.0
13.6833,128.186784,37.961472,6370.6900272,-127.647,-13.715,3.477,1.0
13.7,128.186788,37.96152,6369.1705992,-127.832,-13.739,3.467,1.0
13.7166,128.186792,37.961568,6367.6487328,-128.018,-13.763,3.457,1.0
13.7333,128.186796,37.961616,6366.124732800001,-128.203,-13.787,3.448,1.0
13.75,128.1868,37.961664,6364.5982944,-128.388,-13.811,3.438,1.0
13.7666,128.186804,37.961712,6363.0697224000005,-128.573,-13.835,3.429,1.0
13.7833,128.186808,37.96176,6361.5390168,-128.758,-13.859,3.419,1.0
13.8,128.186813,37.961808,6360.0058728,-128.943,-13.883,3.41,1.0
13.8166,128.186817,37.961856,6358.4705952,-129.127,-13.907,3.4,1.0
13.8333,128.186821,37.961904,6356.932879200001,-129.311,-13.931,3.391,1.0
13.85,128.186825,37.961952,6355.3930296,-129.495,-13.955,3.382,1.0
13.8666,128.186829,37.962,6353.8507416,-129.679,-13.979,3.372,1.0
13.8833,128.186833,37.962049,6352.306015200001,-129.863,-14.003,3.363,1.0
13.9,128.186837,37.962097,6350.75946,-130.046,-14.028,3.353,1.0
13.9166,128.186841,37.962145,6349.2104664,-130.23,-14.052,3.344,1.0
13.9333,128.186845,37.962193,6347.6590344,-130.413,-14.076,3.335,1.0
13.95,128.186849,37.962241,6346.1054688,-130.596,-14.1,3.325,1.0
13.9666,128.186853,37.962289,6344.5494648,-130.779,-14.125,3.316,1.0
13.9833,128.186857,37.962337,6342.9913272,-130.961,-14.149,3.307,1.0
14.0,128.186861,37.962385,6341.4307512000005,-131.143,-14.173,3.298,1.0
14.0166,128.186865,37.962434,6339.868041600001,-131.326,-14.198,3.288,1.0
14.0333,128.186869,37.962482,6338.3028936,-131.507,-14.222,3.279,1.0
14.05,128.186873,37.96253,6336.7356119999995,-131.689,-14.246,3.27,1.0
14.0666,128.186877,37.962578,6335.166196800001,-131.871,-14.271,3.261,1.0
14.0833,128.186881,37.962626,6333.5940384000005,-132.052,-14.295,3.252,1.0
14.1,128.186885,37.962674,6332.020051200001,-132.233,-14.32,3.243,1.0
14.1166,128.186889,37.962722,6330.4433208,-132.414,-14.344,3.233,1.0
14.1333,128.186893,37.962771,6328.8647616,-132.595,-14.369,3.224,1.0
14.15,128.186897,37.962819,6327.2834592,-132.775,-14.393,3.215,1.0
14.1666,128.186901,37.962867,6325.7000232,-132.955,-14.418,3.206,1.0
14.1833,128.186905,37.962915,6324.1144536,-133.135,-14.442,3.197,1.0
14.2,128.186909,37.962963,6322.5264456,-133.315,-14.467,3.188,1.0
14.2166,128.186913,37.963012,6320.936304,-133.495,-14.492,3.179,1.0
14.2333,128.186917,37.96306,6319.343724,-133.674,-14.516,3.17,1.0
14.25,128.186921,37.963108,6317.748705600001,-133.853,-14.541,3.161,1.0
14.2666,128.186925,37.963156,6316.1515536,-134.032,-14.565,3.153,1.0
14.2833,128.186929,37.963204,6314.5519632000005,-134.211,-14.59,3.144,1.0
14.3,128.186933,37.963252,6312.9502391999995,-134.389,-14.615,3.135,1.0
14.3166,128.186937,37.963301,6311.3460768,-134.567,-14.64,3.126,1.0
14.3333,128.18694,37.963349,6309.7397808000005,-134.745,-14.664,3.117,1.0
14.35,128.186944,37.963397,6308.131046400001,-134.923,-14.689,3.108,1.0
14.3666,128.186948,37.963445,6306.5198736,-135.101,-14.714,3.1,1.0
14.3833,128.186952,37.963493,6304.9065672,-135.278,-14.739,3.091,1.0
14.4,128.186956,37.963542,6303.2908224,-135.455,-14.763,3.082,1.0
14.4166,128.18696,37.96359,6301.672944,-135.632,-14.788,3.073,1.0
14.4333,128.186964,37.963638,6300.052627200001,-135.808,-14.813,3.065,1.0
14.45,128.186968,37.963686,6298.429872,-135.985,-14.838,3.056,1.0
14.4666,128.186972,37.963735,6296.804983200001,-136.161,-14.863,3.047,1.0
14.4833,128.186975,37.963783,6295.177656000001,-136.337,-14.888,3.039,1.0
14.5,128.186979,37.963831,6293.5481952,-136.513,-14.913,3.03,1.0
14.5166,128.186983,37.963879,6291.916296,-136.688,-14.938,3.022,1.0
14.5333,128.186987,37.963928,6290.2819584,-136.863,-14.963,3.013,1.0
14.55,128.186991,37.963976,6288.6454872,-137.038,-14.987,3.004,1.0
14.5666,128.186995,37.964024,6287.0065776,-137.213,-15.012,2.996,1.0
14.5833,128.186999,37.964072,6285.3652296,-137.388,-15.037,2.987,1.0
14.6,128.187002,37.964121,6283.721748,-137.562,-15.062,2.979,1.0
14.6166,128.187006,37.964169,6282.075828000001,-137.736,-15.088,2.971,1.0
14.6333,128.18701,37.964217,6280.427774400001,-137.91,-15.113,2.962,1.0
14.65,128.187014,37.964265,6278.7772824,-138.083,-15.138,2.954,1.0
14.6666,128.187018,37.964314,6277.124352000001,-138.257,-15.163,2.945,1.0
14.6833,128.187022,37.964362,6275.4689832,-138.43,-15.188,2.937,1.0
14.7,128.187025,37.96441,6273.8114808,-138.603,-15.213,2.929,1.0
14.7166,128.187029,37.964458,6272.15154,-138.775,-15.238,2.92,1.0
14.7333,128.187033,37.964507,6270.489465600001,-138.948,-15.263,2.912,1.0
14.75,128.187037,37.964555,6268.824648,-139.12,-15.288,2.904,1.0
14.7666,128.187041,37.964603,6267.158001600001,-139.292,-15.314,2.896,1.0
14.7833,128.187044,37.964652,6265.488612,-139.464,-15.339,2.887,1.0
14.8,128.187048,37.9647,6263.8170887999995,-139.635,-15.364,2.879,1.0
14.8166,128.187052,37.964748,6262.1431272,-139.806,-15.389,2.871,1.0
