Time,Longitude,Latitude,Altitude,Roll (deg),Pitch (deg),Yaw (deg),Health
0.0,128.181873,37.923645,7000.6695648,1.999,2.996,355.999,1.0
0.0166,128.181869,37.92369,7000.9454088,1.999,2.987,355.999,1.0
0.0333,128.181865,37.923735,7001.2200336000005,1.999,2.971,356.001,1.0
0.05,128.181861,37.92378,7001.4946584,1.986,2.953,356.005,1.0
0.0666,128.181857,37.923824,7001.768368800001,1.963,2.934,356.01,1.0
0.0833,128.181853,37.923869,7002.041164800001,1.933,2.916,356.016,1.0
0.1,128.181849,37.923914,7002.313656,1.896,2.897,356.022,1.0
0.1166,128.181845,37.923959,7002.584928,1.855,2.879,356.029,1.0
0.1333,128.181841,37.924003,7002.8555904,1.809,2.86,356.035,1.0
0.15,128.181837,37.924048,7003.125338400001,1.76,2.842,356.042,1.0
0.1666,128.181833,37.924093,7003.3944768,1.708,2.825,356.049,1.0
0.1833,128.181829,37.924138,7003.6627008000005,1.655,2.807,356.056,1.0
0.2,128.181825,37.924182,7003.9297056000005,1.599,2.79,356.063,1.0
0.2166,128.181821,37.924227,7004.196100800001,1.541,2.773,356.07,1.0
0.2333,128.181817,37.924272,7004.4615816000005,1.482,2.756,356.077,1.0
0.25,128.181813,37.924317,7004.726148,1.422,2.74,356.083,1.0
0.2666,128.181809,37.924361,7004.9894952,1.36,2.723,356.09,1.0
0.2833,128.181806,37.924406,7005.2522328000005,1.298,2.707,356.097,1.0
0.3,128.181802,37.924451,7005.513751200001,1.234,2.691,356.104,1.0
0.3166,128.181798,37.924496,7005.7743552,1.17,2.675,356.111,1.0
0.3333,128.181794,37.92454,7006.034044800001,1.105,2.66,356.118,1.0
0.35,128.18179,37.924585,7006.292820000001,1.039,2.644,356.124,1.0
0.3666,128.181786,37.92463,7006.550376,0.973,2.629,356.131,1.0
0.3833,128.181782,37.924675,7006.8070176,0.905,2.614,356.138,1.0
0.4,128.181778,37.924719,7007.0627448000005,0.838,2.599,356.144,1.0
0.4166,128.181774,37.924764,7007.3175576,0.769,2.584,356.151,1.0
0.4333,128.18177,37.924809,7007.571151200001,0.7,2.57,356.157,1.0
0.45,128.181766,37.924853,7007.8238304,0.631,2.555,356.164,1.0
0.4666,128.181762,37.924898,7008.0752904,0.561,2.541,356.17,1.0
0.4833,128.181758,37.924943,7008.325836,0.49,2.526,356.177,1.0
0.5,128.181754,37.924988,7008.5754672,0.419,2.512,356.183,1.0
0.5166,128.18175,37.925032,7008.823879200001,0.347,2.498,356.189,1.0
0.5333,128.181746,37.925077,7009.071072,0.275,2.484,356.195,1.0
0.55,128.181742,37.925122,7009.3176552,0.202,2.47,356.201,1.0
0.5666,128.181738,37.925167,7009.562714400001,0.129,2.456,356.208,1.0
0.5833,128.181735,37.925211,7009.8068592,0.056,2.442,356.214,1.0
0.6,128.181731,37.925256,7010.0500896,-0.017,2.428,356.22,1.0
0.6166,128.181727,37.925301,7010.2921008,-0.092,2.414,356.226,1.0
0.6333,128.181723,37.925346,7010.533197600001,-0.167,2.401,356.232,1.0
0.65,128.181719,37.92539,7010.7730752,-0.242,2.387,356.237,1.0
0.6666,128.181715,37.925435,7011.011733600001,-0.318,2.373,356.243,1.0
0.6833,128.181711,37.92548,7011.2494776,-0.394,2.36,356.249,1.0
0.7,128.181707,37.925524,7011.4863072,-0.471,2.346,356.255,1.0
0.7166,128.181703,37.925569,7011.7216128,-0.548,2.333,356.261,1.0
0.7333,128.181699,37.925614,7011.9563088,-0.626,2.32,356.266,1.0
0.75,128.181695,37.925659,7012.1894808,-0.704,2.306,356.272,1.0
0.7666,128.181691,37.925703,7012.421738400001,-0.783,2.293,356.277,1.0
0.7833,128.181687,37.925748,7012.6527768000005,-0.861,2.28,356.283,1.0
0.8,128.181683,37.925793,7012.8829008,-0.941,2.267,356.288,1.0
0.8166,128.181679,37.925838,7013.1118056000005,-1.02,2.253,356.294,1.0
0.8333,128.181676,37.925882,7013.3394912,-1.101,2.24,356.299,1.0
0.85,128.181672,37.925927,7013.5662624,-1.181,2.227,356.305,1.0
0.8666,128.181668,37.925972,7013.7918144000005,-1.262,2.214,356.31,1.0
0.8833,128.181664,37.926017,7014.016147200001,-1.343,2.201,356.315,1.0
0.9,128.18166,37.926061,7014.239565600001,-1.425,2.188,356.321,1.0
0.9166,128.181656,37.926106,7014.4617648,-1.507,2.175,356.326,1.0
0.9333,128.181652,37.926151,7014.6827448,-1.59,2.162,356.331,1.0
0.95,128.181648,37.926195,7014.902505600001,-1.673,2.149,356.336,1.0
0.9666,128.181644,37.92624,7015.121352000001,-1.756,2.136,356.341,1.0
0.9833,128.18164,37.926285,7015.338979200001,-1.84,2.123,356.346,1.0
1.0,128.181636,37.92633,7015.555692000001,-1.924,2.11,356.351,1.0
1.0166,128.181632,37.926374,7015.7708808,-2.008,2.098,356.356,1.0
1.0333,128.181628,37.926419,7015.985155200001,-2.093,2.085,356.361,1.0
1.05,128.181624,37.926464,7016.198210400001,-2.178,2.072,356.366,1.0
1.0666,128.181621,37.926509,7016.410351200001,-2.264,2.059,356.371,1.0
1.0833,128.181617,37.926553,7016.620968,-2.35,2.046,356.376,1.0
1.1,128.181613,37.926598,7016.830670400001,-2.436,2.034,356.381,1.0
1.1166,128.181609,37.926643,7017.0391536,-2.523,2.021,356.385,1.0
1.1333,128.181605,37.926688,7017.2467224,-2.61,2.008,356.39,1.0
1.15,128.181601,37.926732,7017.4527672,-2.698,1.995,356.395,1.0
1.1666,128.181597,37.926777,7017.657897600001,-2.785,1.983,356.4,1.0
1.1833,128.181593,37.926822,7017.8618088,-2.873,1.97,356.404,1.0
1.2,128.181589,37.926867,7018.0645008,-2.962,1.957,356.409,1.0
1.2166,128.181585,37.926911,7018.2659736000005,-3.051,1.945,356.413,1.0
1.2333,128.181581,37.926956,7018.466532,-3.14,1.932,356.418,1.0
1.25,128.181577,37.927001,7018.6658712,-3.23,1.919,356.422,1.0
1.2666,128.181573,37.927045,7018.863991200001,-3.32,1.907,356.427,1.0
1.2833,128.18157,37.92709,7019.060892,-3.41,1.894,356.431,1.0
1.3,128.181566,37.927135,7019.256573600001,-3.501,1.881,356.436,1.0
1.3166,128.181562,37.92718,7019.4513408,-3.592,1.869,356.44,1.0
1.3333,128.181558,37.927224,7019.6448887999995,-3.683,1.856,356.445,1.0
1.35,128.181554,37.927269,7019.8369128,-3.775,1.843,356.449,1.0
1.3666,128.18155,37.927314,7020.0280224,-3.867,1.831,356.453,1.0
1.3833,128.181546,37.927359,7020.218217600001,-3.959,1.818,356.457,1.0
1.4,128.181542,37.927403,7020.4068888,-4.052,1.806,356.462,1.0
1.4166,128.181538,37.927448,7020.5943408,-4.145,1.793,356.466,1.0
1.4333,128.181534,37.927493,7020.780878400001,-4.238,1.78,356.47,1.0
1.45,128.18153,37.927538,7020.966196800001,-4.332,1.768,356.474,1.0
1.4666,128.181526,37.927582,7021.150296000001,-4.426,1.755,356.478,1.0
1.4833,128.181523,37.927627,7021.333176,-4.52,1.743,356.482,1.0
1.5,128.181519,37.927672,7021.5148368,-4.615,1.73,356.487,1.0
1.5166,128.181515,37.927717,7021.6952784000005,-4.71,1.718,356.491,1.0
1.5333,128.181511,37.927762,7021.8748056,-4.805,1.705,356.495,1.0
1.55,128.181507,37.927806,7022.0528088,-4.901,1.692,356.499,1.0
1.5666,128.181503,37.927851,7022.229897600001,-4.997,1.68,356.503,1.0
1.5833,128.181499,37.927896,7022.4057672,-5.093,1.667,356.506,1.0
1.6,128.181495,37.927941,7022.5804176,-5.19,1.655,356.51,1.0
1.6166,128.181491,37.927985,7022.7538488,-5.287,1.642,356.514,1.0
1.6333,128.181487,37.92803,7022.9260608,-5.384,1.63,356.518,1.0
1.65,128.181483,37.928075,7023.0970536,-5.482,1.617,356.522,1.0
1.6666,128.181479,37.92812,7023.2668272,-5.58,1.604,356.526,1.0
1.6833,128.181475,37.928164,7023.4356864,-5.678,1.592,356.529,1.0
1.7,128.181472,37.928209,7023.6030216,-5.777,1.579,356.533,1.0
1.7166,128.181468,37.928254,7023.769442400001,-5.876,1.567,356.537,1.0
1.7333,128.181464,37.928299,7023.934644,-5.975,1.554,356.541,1.0
1.75,128.18146,37.928343,7024.0983216,-6.075,1.542,356.544,1.0
1.7666,128.181456,37.928388,7024.2610848,-6.175,1.529,356.548,1.0
1.7833,128.181452,37.928433,7024.422628800001,-6.275,1.517,356.552,1.0
1.8,128.181448,37.928478,7024.5829536,-6.376,1.504,356.555,1.0
1.8166,128.181444,37.928523,7024.742059200001,-6.476,1.492,356.559,1.0
1.8333,128.18144,37.928567,7024.8999456,-6.578,1.479,356.562,1.0
1.85,128.181436,37.928612,7025.0566128,-6.679,1.467,356.566,1.0
1.8666,128.181432,37.928657,7025.2120608000005,-6.781,1.454,356.569,1.0
1.8833,128.181428,37.928702,7025.3662896,-6.883,1.442,356.573,1.0
1.9,128.181424,37.928746,7025.5183848,-6.963,1.43,356.577,1.0
1.9166,128.18142,37.928791,7025.668346400001,-7.022,1.418,356.584,1.0
1.9333,128.181417,37.928836,7025.816479200001,-7.062,1.407,356.59,1.0
1.95,128.181413,37.928881,7025.963088,-7.085,1.396,356.597,1.0
1.9666,128.181409,37.928926,7026.1081728,-7.092,1.385,356.604,1.0
1.9833,128.181405,37.92897,7026.251428800001,-7.087,1.374,356.61,1.0
2.0,128.181401,37.929015,7026.393160800001,-7.071,1.362,356.615,1.0
2.0166,128.181397,37.92906,7026.5333688,-7.046,1.351,356.621,1.0
2.0333,128.181393,37.929105,7026.6720528,-7.015,1.339,356.625,1.0
2.05,128.181389,37.92915,7026.809517600001,-6.977,1.327,356.63,1.0
2.0666,128.181385,37.929195,7026.9454584000005,-6.934,1.315,356.634,1.0
2.0833,128.181381,37.929239,7027.0798752,-6.888,1.303,356.638,1.0
2.1,128.181377,37.929284,7027.2130728,-6.839,1.291,356.641,1.0
2.1166,128.181373,37.929329,7027.344746400001,-6.787,1.278,356.644,1.0
2.1333,128.181369,37.929374,7027.4752008000005,-6.734,1.265,356.648,1.0
2.15,128.181365,37.929419,7027.6044360000005,-6.678,1.252,356.651,1.0
2.1666,128.181362,37.929463,7027.7321472,-6.622,1.239,356.654,1.0
2.1833,128.181358,37.929508,7027.8586392,-6.565,1.225,356.656,1.0
2.2,128.181354,37.929553,7027.9836072,-6.507,1.212,356.659,1.0
2.2166,128.18135,37.929598,7028.107356,-6.449,1.199,356.662,1.0
2.2333,128.181346,37.929643,7028.2298856,-6.39,1.185,356.664,1.0
2.25,128.181342,37.929688,7028.350891200001,-6.331,1.171,356.667,1.0
2.2666,128.181338,37.929732,7028.4706776,-6.272,1.157,356.669,1.0
2.2833,128.181334,37.929777,7028.5892448,-6.212,1.143,356.671,1.0
2.3,128.18133,37.929822,7028.706288,-6.153,1.129,356.674,1.0
2.3166,128.181326,37.929867,7028.8224168,-6.093,1.115,356.676,1.0
2.3333,128.181322,37.929912,7028.9370216,-6.034,1.101,356.678,1.0
2.35,128.181318,37.929957,7029.0501024,-5.975,1.087,356.68,1.0
2.3666,128.181314,37.930002,7029.162268800001,-5.915,1.072,356.682,1.0
2.3833,128.18131,37.930046,7029.272911200001,-5.856,1.058,356.685,1.0
2.4,128.181306,37.930091,7029.3823344,-5.797,1.044,356.687,1.0
2.4166,128.181303,37.930136,7029.4902336000005,-5.737,1.029,356.689,1.0
2.4333,128.181299,37.930181,7029.5972184,-5.678,1.015,356.691,1.0
2.45,128.181295,37.930226,7029.702679200001,-5.619,1.0,356.692,1.0
2.4666,128.181291,37.930271,7029.806616,-5.56,0.985,356.694,1.0
2.4833,128.181287,37.930316,7029.9096384,-5.502,0.97,356.696,1.0
2.5,128.181283,37.93036,7030.011136800001,-5.443,0.956,356.698,1.0
2.5166,128.181279,37.930405,7030.111416,-5.384,0.941,356.7,1.0
2.5333,128.181275,37.93045,7030.210476,-5.326,0.926,356.701,1.0
2.55,128.181271,37.930495,7030.3083168,-5.267,0.911,356.703,1.0
2.5666,128.181267,37.93054,7030.404633600001,-5.209,0.896,356.705,1.0
2.5833,128.181263,37.930585,7030.4997312000005,-5.15,0.881,356.707,1.0
2.6,128.181259,37.93063,7030.5936096000005,-5.092,0.866,356.708,1.0
2.6166,128.181255,37.930675,7030.685964,-5.034,0.851,356.71,1.0
2.6333,128.181251,37.93072,7030.777404,-4.976,0.836,356.711,1.0
2.65,128.181247,37.930764,7030.867320000001,-4.918,0.821,356.713,1.0
2.6666,128.181244,37.930809,7030.9560168,-4.86,0.805,356.714,1.0
2.6833,128.18124,37.930854,7031.0431896,-4.802,0.79,356.716,1.0
2.7,128.181236,37.930899,7031.1291432,-4.744,0.775,356.717,1.0
2.7166,128.181232,37.930944,7031.2138776,-4.686,0.76,356.719,1.0
2.7333,128.181228,37.930989,7031.297392800001,-4.628,0.744,356.72,1.0
2.75,128.181224,37.931034,7031.3796888,-4.57,0.729,356.722,1.0
2.7666,128.18122,37.931079,7031.460460800001,-4.512,0.713,356.723,1.0
2.7833,128.181216,37.931124,7031.540013600001,-4.454,0.698,356.724,1.0
2.8,128.181212,37.931169,7031.618347200001,-4.397,0.683,356.726,1.0
2.8166,128.181208,37.931214,7031.695156800001,-4.339,0.667,356.727,1.0
2.8333,128.181204,37.931259,7031.770747200001,-4.281,0.651,356.728,1.0
2.85,128.1812,37.931304,7031.8451184000005,-4.223,0.636,356.729,1.0
2.8666,128.181196,37.931348,7031.918270400001,-4.166,0.62,356.731,1.0
2.8833,128.181192,37.931393,7031.9898984,-4.108,0.605,356.732,1.0
2.9,128.181188,37.931438,7032.060612,-4.05,0.589,356.733,1.0
2.9166,128.181185,37.931483,7032.129801600001,-3.992,0.573,356.734,1.0
2.9333,128.181181,37.931528,7032.1974672,-3.935,0.558,356.735,1.0
2.95,128.181177,37.931573,7032.264218400001,-3.877,0.542,356.736,1.0
2.9666,128.181173,37.931618,7032.3294456,-3.819,0.526,356.737,1.0
2.9833,128.181169,37.931663,7032.3934536,-3.761,0.511,356.739,1.0
3.0,128.181165,37.931708,7032.455937600001,-3.704,0.495,356.74,1.0
3.0166,128.181161,37.931753,7032.517202399999,-3.646,0.479,356.741,1.0
3.0333,128.181157,37.931798,7032.5775528,-3.588,0.463,356.742,1.0
3.05,128.181153,37.931843,7032.6360744,-3.53,0.447,356.743,1.0
3.0666,128.181149,37.931888,7032.693681600001,-3.472,0.432,356.744,1.0
3.0833,128.181145,37.931933,7032.749764800001,-3.414,0.416,356.745,1.0
3.1,128.181141,37.931978,7032.8046288000005,-3.356,0.4,356.746,1.0
3.1166,128.181137,37.932023,7032.858273600001,-3.298,0.384,356.747,1.0
3.1333,128.181134,37.932068,7032.9103944,-3.24,0.368,356.747,1.0
3.15,128.18113,37.932113,7032.961296,-3.182,0.352,356.748,1.0
3.1666,128.181126,37.932158,7033.010978400001,-3.124,0.336,356.749,1.0
3.1833,128.181122,37.932203,7033.0591368000005,-3.065,0.32,356.75,1.0
3.2,128.181118,37.932248,7033.1063808,-3.007,0.304,356.751,1.0
3.2166,128.181114,37.932293,7033.152100800001,-2.949,0.288,356.752,1.0
3.2333,128.18111,37.932338,7033.196296800001,-2.89,0.272,356.753,1.0
3.25,128.181106,37.932383,7033.239578400001,-2.831,0.256,356.754,1.0
3.2666,128.181102,37.932428,7033.281336,-2.773,0.24,356.754,1.0
3.2833,128.181098,37.932473,7033.3218744000005,-2.714,0.224,356.755,1.0
3.3,128.181094,37.932518,7033.3608888,-2.655,0.208,356.756,1.0
3.3166,128.18109,37.932563,7033.398684000001,-2.596,0.192,356.757,1.0
3.3333,128.181087,37.932608,7033.43526,-2.538,0.176,356.757,1.0
3.35,128.181083,37.932653,7033.4706168,-2.478,0.16,356.758,1.0
3.3666,128.181079,37.932698,7033.5044496,-2.419,0.144,356.759,1.0
3.3833,128.181075,37.932743,7033.5370632,-2.36,0.127,356.76,1.0
3.4,128.181071,37.932788,7033.5684576,-2.301,0.111,356.76,1.0
3.4166,128.181067,37.932833,7033.598328000001,-2.241,0.095,356.761,1.0
3.4333,128.181063,37.932878,7033.626979200001,-2.182,0.079,356.762,1.0
3.45,128.181059,37.932923,7033.654411200001,-2.122,0.063,356.763,1.0
3.4666,128.181055,37.932968,7033.6806240000005,-2.062,0.047,356.763,1.0
3.4833,128.181051,37.933014,7033.7053128,-2.002,0.03,356.764,1.0
3.5,128.181048,37.933059,7033.7287824000005,-1.942,0.014,356.765,1.0
3.5166,128.181044,37.933104,7033.750728000001,-1.882,-0.001,356.765,1.0
3.5333,128.18104,37.933149,7033.7714544,-1.822,-0.017,356.766,1.0
3.55,128.181036,37.933194,7033.7909616,-1.761,-0.034,356.767,1.0
3.5666,128.181032,37.933239,7033.8092496,-1.7,-0.05,356.767,1.0
3.5833,128.181028,37.933284,7033.8260136,-1.639,-0.066,356.768,1.0
3.6,128.181024,37.933329,7033.8415584,-1.578,-0.083,356.769,1.0
3.6166,128.18102,37.933374,7033.8558840000005,-1.517,-0.099,356.769,1.0
3.6333,128.181016,37.933419,7033.8686856,-1.456,-0.116,356.77,1.0
3.65,128.181012,37.933464,7033.880268,-1.394,-0.132,356.77,1.0
3.6666,128.181009,37.933509,7033.8903264,-1.332,-0.148,356.771,1.0
3.6833,128.181005,37.933555,7033.899165600001,-1.271,-0.165,356.772,1.0
3.7,128.181001,37.9336,7033.9067856,-1.209,-0.181,356.772,1.0
3.7166,128.180997,37.933645,7033.9131864,-1.147,-0.198,356.773,1.0
3.7333,128.180993,37.93369,7033.918063200001,-1.085,-0.214,356.773,1.0
3.75,128.180989,37.933735,7033.9217208,-1.022,-0.231,356.774,1.0
3.7666,128.180985,37.93378,7033.9238544,-0.96,-0.247,356.774,1.0
3.7833,128.180981,37.933825,7033.9250736,-0.898,-0.264,356.775,1.0
3.8,128.180977,37.93387,7033.9247688000005,-0.835,-0.281,356.775,1.0
3.8166,128.180974,37.933916,7033.92294,-0.772,-0.297,356.776,1.0
3.8333,128.18097,37.933961,7033.919892000001,-0.71,-0.314,356.777,1.0
3.85,128.180966,37.934006,7033.915624800001,-0.647,-0.331,356.777,1.0
3.8666,128.180962,37.934051,7033.909833600001,-0.584,-0.347,356.778,1.0
3.8833,128.180958,37.934096,7033.9028232,-0.521,-0.364,356.778,1.0
3.9,128.180954,37.934141,7033.8945936,-0.458,-0.381,356.779,1.0
3.9166,128.18095,37.934187,7033.8851448000005,-0.396,-0.398,356.779,1.0
3.9333,128.180946,37.934232,7033.874172,-0.333,-0.414,356.78,1.0
3.95,128.180943,37.934277,7033.8616752,-0.27,-0.431,356.78,1.0
3.9666,128.180939,37.934322,7033.848264,-0.207,-0.448,356.781,1.0
3.9833,128.180935,37.934367,7033.8333288,-0.145,-0.465,356.781,1.0
4.0,128.180931,37.934412,7033.816869600001,-0.082,-0.482,356.782,1.0
4.0166,128.180927,37.934458,7033.799191200001,-0.019,-0.499,356.782,1.0
4.0333,128.180923,37.934503,7033.7802936,0.042,-0.516,356.782,1.0
4.05,128.180919,37.934548,7033.7601768,0.105,-0.533,356.783,1.0
4.0666,128.180916,37.934593,7033.738536,0.167,-0.55,356.783,1.0
4.0833,128.180912,37.934638,7033.715676,0.229,-0.567,356.784,1.0
4.1,128.180908,37.934684,7033.691292,0.292,-0.584,356.784,1.0
4.1166,128.180904,37.934729,7033.6656888,0.354,-0.602,356.785,1.0
4.1333,128.1809,37.934774,7033.6385616,0.416,-0.619,356.785,1.0
4.15,128.180896,37.934819,7033.6102152,0.478,-0.636,356.786,1.0
4.1666,128.180892,37.934865,7033.5806496000005,0.541,-0.653,356.786,1.0
4.1833,128.180889,37.93491,7033.5498648,0.603,-0.671,356.786,1.0
4.2,128.180885,37.934955,7033.517251200001,0.665,-0.688,356.787,1.0
4.2166,128.180881,37.935,7033.483723200001,0.727,-0.706,356.787,1.0
4.2333,128.180877,37.935046,7033.4486712,0.789,-0.723,356.788,1.0
4.25,128.180873,37.935091,7033.4124,0.851,-0.741,356.788,1.0
4.2666,128.180869,37.935136,7033.3746048,0.913,-0.758,356.789,1.0
4.2833,128.180866,37.935181,7033.3355904,0.975,-0.776,356.789,1.0
4.3,128.180862,37.935227,7033.295052,1.037,-0.793,356.79,1.0
4.3166,128.180858,37.935272,7033.2532944,1.099,-0.811,356.79,1.0
4.3333,128.180854,37.935317,7033.2100128,1.161,-0.829,356.79,1.0
4.35,128.18085,37.935362,7033.165512,1.223,-0.847,356.791,1.0
4.3666,128.180846,37.935408,7033.119487200001,1.286,-0.864,356.791,1.0
4.3833,128.180843,37.935453,7033.0722432,1.348,-0.882,356.792,1.0
4.4,128.180839,37.935498,7033.0237799999995,1.41,-0.9,356.792,1.0
4.4166,128.180835,37.935544,7032.9737928,1.472,-0.918,356.793,1.0
4.4333,128.180831,37.935589,7032.9222816,1.535,-0.936,356.793,1.0
4.45,128.180827,37.935634,7032.8695512,1.597,-0.954,356.793,1.0
4.4666,128.180823,37.93568,7032.815601600001,1.66,-0.971,356.794,1.0
4.4833,128.18082,37.935725,7032.760128000001,1.722,-0.989,356.794,1.0
4.5,128.180816,37.93577,7032.7031304,1.785,-1.007,356.795,1.0
4.5166,128.180812,37.935816,7032.6449136,1.848,-1.025,356.795,1.0
4.5333,128.180808,37.935861,7032.585172800001,1.91,-1.043,356.796,1.0
4.55,128.180804,37.935906,7032.5242128,1.973,-1.061,356.796,1.0
4.5666,128.180801,37.935952,7032.462033600001,2.036,-1.08,356.797,1.0
4.5833,128.180797,37.935997,7032.3980255999995,2.099,-1.098,356.797,1.0
4.6,128.180793,37.936042,7032.3327984,2.162,-1.116,356.797,1.0
4.6166,128.180789,37.936088,7032.266352000001,2.225,-1.134,356.798,1.0
4.6333,128.180785,37.936133,7032.1983816,2.288,-1.152,356.798,1.0
4.65,128.180782,37.936178,7032.1288872000005,2.351,-1.17,356.799,1.0
4.6666,128.180778,37.936224,7032.0581736,2.414,-1.189,356.799,1.0
4.6833,128.180774,37.936269,7031.9862408,2.478,-1.207,356.8,1.0
4.7,128.18077,37.936315,7031.912479200001,2.541,-1.225,356.8,1.0
4.7166,128.180766,37.93636,7031.8374984,2.604,-1.244,356.8,1.0
4.7333,128.180763,37.936405,7031.7612984,2.667,-1.262,356.801,1.0
4.75,128.180759,37.936451,7031.683574400001,2.731,-1.281,356.801,1.0
4.7666,128.180755,37.936496,7031.6043264,2.794,-1.299,356.802,1.0
4.7833,128.180751,37.936542,7031.523554400001,2.857,-1.317,356.802,1.0
4.8,128.180747,37.936587,7031.4415632,2.92,-1.336,356.802,1.0
4.8166,128.180744,37.936632,7031.3583528,2.984,-1.354,356.803,1.0
4.8333,128.18074,37.936678,7031.273313600001,3.047,-1.373,356.803,1.0
4.85,128.180736,37.936723,7031.187055200001,3.11,-1.391,356.804,1.0
4.8666,128.180732,37.936769,7031.099577600001,3.173,-1.41,356.804,1.0
4.8833,128.180728,37.936814,7031.0102712,3.236,-1.429,356.805,1.0
4.9,128.180725,37.93686,7030.9197456,3.3,-1.447,356.805,1.0
4.9166,128.180721,37.936905,7030.827696,3.363,-1.466,356.805,1.0
4.9333,128.180717,37.936951,7030.7344272,3.426,-1.484,356.806,1.0
4.95,128.180713,37.936996,7030.6396343999995,3.489,-1.503,356.806,1.0
4.9666,128.18071,37.937041,7030.543317600001,3.552,-1.522,356.807,1.0
4.9833,128.180706,37.937087,7030.4457816,3.615,-1.54,356.807,1.0
5.0,128.180702,37.937132,7030.3467216,3.678,-1.559,356.807,1.0
5.0166,128.180698,37.937178,7030.246137600001,3.741,-1.578,356.808,1.0
5.0333,128.180695,37.937223,7030.1440296,3.803,-1.596,356.808,1.0
5.05,128.180691,37.937269,7030.0407024,3.866,-1.615,356.809,1.0
5.0666,128.180687,37.937314,7029.935851200001,3.929,-1.634,356.809,1.0
5.0833,128.180683,37.93736,7029.829476,3.991,-1.652,356.809,1.0
5.1,128.18068,37.937405,7029.721576800001,4.054,-1.671,356.81,1.0
5.1166,128.180676,37.937451,7029.6124584,4.116,-1.69,356.81,1.0
5.1333,128.180672,37.937496,7029.501816,4.179,-1.709,356.811,1.0
5.15,128.180668,37.937542,7029.389649600001,4.241,-1.727,356.811,1.0
5.1666,128.180665,37.937587,7029.2759592,4.304,-1.746,356.812,1.0
5.1833,128.180661,37.937633,7029.1607448,4.366,-1.765,356.812,1.0
5.2,128.180657,37.937679,7029.044311200001,4.428,-1.784,356.812,1.0
5.2166,128.180653,37.937724,7028.9263536,4.49,-1.802,356.813,1.0
5.2333,128.18065,37.93777,7028.806872,4.553,-1.821,356.813,1.0
5.25,128.180646,37.937815,7028.6861712,4.615,-1.84,356.814,1.0
5.2666,128.180642,37.937861,7028.563641600001,4.677,-1.859,356.814,1.0
5.2833,128.180639,37.937906,7028.439892800001,4.739,-1.878,356.814,1.0
5.3,128.180635,37.937952,7028.314620000001,4.801,-1.896,356.815,1.0
5.3166,128.180631,37.937998,7028.187823200001,4.862,-1.915,356.815,1.0
5.3333,128.180627,37.938043,7028.0595023999995,4.924,-1.934,356.816,1.0
5.35,128.180624,37.938089,7027.9296576,4.986,-1.953,356.816,1.0
5.3666,128.18062,37.938134,7027.7985936,5.047,-1.972,356.817,1.0
5.3833,128.180616,37.93818,7027.6657008,5.109,-1.991,356.817,1.0
5.4,128.180613,37.938225,7027.5315888,5.17,-2.01,356.818,1.0
5.4166,128.180609,37.938271,7027.3959528,5.231,-2.029,356.818,1.0
5.4333,128.180605,37.938317,7027.258792800001,5.293,-2.048,356.818,1.0
5.45,128.180601,37.938362,7027.120108800001,5.354,-2.067,356.819,1.0
5.4666,128.180598,37.938408,7026.979900800001,5.415,-2.086,356.819,1.0
5.4833,128.180594,37.938454,7026.838168800001,5.476,-2.105,356.82,1.0
5.5,128.18059,37.938499,7026.6952176,5.537,-2.124,356.82,1.0
5.5166,128.180587,37.938545,7026.550437600001,5.598,-2.143,356.821,1.0
5.5333,128.180583,37.938591,7026.404438400001,5.658,-2.162,356.821,1.0
5.55,128.180579,37.938636,7026.256610400001,5.719,-2.181,356.822,1.0
5.5666,128.180576,37.938682,7026.1075632,5.78,-2.2,356.822,1.0
5.5833,128.180572,37.938728,7025.956992,5.84,-2.219,356.822,1.0
5.6,128.180568,37.938773,7025.8048968,5.901,-2.238,356.823,1.0
5.6166,128.180565,37.938819,7025.651277600001,5.962,-2.257,356.823,1.0
5.6333,128.180561,37.938865,7025.4961344,6.022,-2.276,356.824,1.0
5.65,128.180557,37.93891,7025.3391624,6.083,-2.295,356.824,1.0
5.6666,128.180554,37.938956,7025.1809712,6.144,-2.313,356.825,1.0
5.6833,128.18055,37.939002,7025.021256000001,6.204,-2.332,356.825,1.0
5.7,128.180546,37.939047,7024.8600168,6.265,-2.351,356.826,1.0
5.7166,128.180543,37.939093,7024.6972536,6.325,-2.37,356.827,1.0
5.7333,128.180539,37.939139,7024.5329664,6.386,-2.389,356.827,1.0
5.75,128.180535,37.939184,7024.3671552000005,6.447,-2.408,356.828,1.0
5.7666,128.180532,37.93923,7024.199820000001,6.508,-2.427,356.828,1.0
5.7833,128.180528,37.939276,7024.030960800001,6.568,-2.446,356.829,1.0
5.8,128.180524,37.939322,7023.8605776,6.629,-2.465,356.829,1.0
5.8166,128.180521,37.939367,7023.688670400001,6.69,-2.484,356.83,1.0
5.8333,128.180517,37.939413,7023.5152392,6.751,-2.503,356.83,1.0
5.85,128.180513,37.939459,7023.340284000001,6.812,-2.522,356.831,1.0
5.8666,128.18051,37.939505,7023.1638048,6.873,-2.541,356.831,1.0
5.8833,128.180506,37.93955,7022.985496800001,6.934,-2.56,356.832,1.0
5.9,128.180502,37.939596,7022.805969600001,6.995,-2.579,356.832,1.0
5.9166,128.180499,37.939642,7022.624918400001,7.056,-2.598,356.833,1.0
5.9333,128.180495,37.939688,7022.4420384000005,7.118,-2.616,356.834,1.0
5.95,128.180492,37.939734,7022.2579392,7.179,-2.635,356.834,1.0
5.9666,128.180488,37.939779,7022.072011200001,7.24,-2.654,356.835,1.0
5.9833,128.180484,37.939825,7021.884864000001,7.302,-2.673,356.835,1.0
6.0,128.180481,37.939871,7021.695888000001,7.363,-2.692,356.836,1.0
6.0166,128.180477,37.939917,7021.5053880000005,7.425,-2.711,356.836,1.0
6.0333,128.180474,37.939963,7021.313364000001,7.487,-2.73,356.837,1.0
6.05,128.18047,37.940008,7021.119815999999,7.549,-2.749,356.838,1.0
6.0666,128.180466,37.940054,7020.924744,7.611,-2.768,356.838,1.0
6.0833,128.180463,37.9401,7020.728148,7.673,-2.787,356.839,1.0
6.1,128.180459,37.940146,7020.5297232,7.735,-2.806,356.839,1.0
6.1166,128.180455,37.940192,7020.330079200001,7.797,-2.825,356.84,1.0
6.1333,128.180452,37.940237,7020.1286064000005,7.859,-2.844,356.841,1.0
6.15,128.180448,37.940283,7019.925609600001,7.922,-2.863,356.841,1.0
6.1666,128.180445,37.940329,7019.7210888,7.984,-2.881,356.842,1.0
6.1833,128.180441,37.940375,7019.515044,8.047,-2.9,356.843,1.0
6.2,128.180438,37.940421,7019.3074752,8.11,-2.919,356.843,1.0
6.2166,128.180434,37.940467,7019.0983824,8.173,-2.938,356.844,1.0
6.2333,128.18043,37.940513,7018.887460800001,8.236,-2.957,356.844,1.0
6.25,128.180427,37.940559,7018.6750152,8.299,-2.976,356.845,1.0
6.2666,128.180423,37.940604,7018.461350400001,8.362,-2.995,356.846,1.0
6.2833,128.18042,37.94065,7018.245856800001,8.425,-3.014,356.846,1.0
6.3,128.180416,37.940696,7018.028534399999,8.488,-3.033,356.847,1.0
6.3166,128.180413,37.940742,7017.809992800001,8.552,-3.052,356.848,1.0
6.3333,128.180409,37.940788,7017.5896224,8.615,-3.071,356.848,1.0
6.35,128.180405,37.940834,7017.368947200001,8.662,-3.088,356.848,1.0
6.3666,128.180402,37.94088,7017.1470528,8.694,-3.104,356.848,1.0
6.3833,128.180398,37.940926,7016.9239392,8.712,-3.119,356.847,1.0
6.4,128.180395,37.940972,7016.699301600001,8.717,-3.133,356.846,1.0
6.4166,128.180391,37.941018,7016.473749600001,8.712,-3.147,356.846,1.0
6.4333,128.180388,37.941064,7016.246673600001,8.697,-3.16,356.846,1.0
6.45,128.180384,37.941109,7016.018378400001,8.675,-3.174,356.846,1.0
6.4666,128.180381,37.941155,7015.7885592,8.648,-3.187,356.847,1.0
6.4833,128.180377,37.941201,7015.5575208,8.615,-3.201,356.847,1.0
6.5,128.180374,37.941247,7015.3252632,8.579,-3.214,356.849,1.0
6.5166,128.18037,37.941293,7015.0914816,8.539,-3.228,356.85,1.0
6.5333,128.180366,37.941339,7014.856176,8.497,-3.241,356.851,1.0
6.55,128.180363,37.941385,7014.619651200001,8.453,-3.255,356.853,1.0
6.5666,128.180359,37.941431,7014.3816024,8.408,-3.269,356.855,1.0
6.5833,128.180356,37.941477,7014.1420296,8.361,-3.283,356.857,1.0
6.6,128.180352,37.941523,7013.901237600001,8.314,-3.296,356.859,1.0
6.6166,128.180349,37.941569,7013.6589216,8.266,-3.31,356.861,1.0
6.6333,128.180345,37.941615,7013.4153864,8.217,-3.324,356.863,1.0
6.65,128.180342,37.941661,7013.1703272,8.168,-3.338,356.865,1.0
6.6666,128.180338,37.941707,7012.923744,8.119,-3.352,356.867,1.0
6.6833,128.180335,37.941753,7012.675636800001,8.07,-3.366,356.869,1.0
6.7,128.180331,37.941799,7012.426310400001,8.02,-3.381,356.871,1.0
6.7166,128.180328,37.941845,7012.1757648,7.97,-3.395,356.874,1.0
6.7333,128.180324,37.941891,7011.9233904,7.921,-3.409,356.876,1.0
6.75,128.180321,37.941937,7011.669796800001,7.871,-3.423,356.878,1.0
6.7666,128.180317,37.941983,7011.414984000001,7.822,-3.438,356.881,1.0
6.7833,128.180314,37.942029,7011.158342400001,7.772,-3.452,356.883,1.0
6.8,128.180311,37.942075,7010.9007864000005,7.723,-3.467,356.886,1.0
6.8166,128.180307,37.942121,7010.641401600001,7.673,-3.481,356.888,1.0
6.8333,128.180304,37.942167,7010.380797600001,7.624,-3.495,356.891,1.0
6.85,128.1803,37.942213,7010.118974400001,7.575,-3.51,356.893,1.0
6.8666,128.180297,37.94226,7009.855322400001,7.526,-3.524,356.896,1.0
6.8833,128.180293,37.942306,7009.5907560000005,7.476,-3.539,356.898,1.0
6.9,128.18029,37.942352,7009.324360800001,7.427,-3.553,356.901,1.0
6.9166,128.180286,37.942398,7009.0567464000005,7.378,-3.568,356.903,1.0
6.9333,128.180283,37.942444,7008.7879128,7.33,-3.583,356.906,1.0
6.95,128.180279,37.94249,7008.5175552,7.281,-3.597,356.909,1.0
6.9666,128.180276,37.942536,7008.2456736,7.232,-3.612,356.911,1.0
6.9833,128.180272,37.942582,7007.9725728,7.183,-3.626,356.914,1.0
7.0,128.180269,37.942628,7007.697948,7.135,-3.641,356.917,1.0
7.0166,128.180266,37.942674,7007.422104,7.086,-3.656,356.919,1.0
7.0333,128.180262,37.94272,7007.144736,7.037,-3.67,356.922,1.0
7.05,128.180259,37.942767,7006.8661488,6.989,-3.685,356.925,1.0
7.0666,128.180255,37.942813,7006.586037600001,6.94,-3.699,356.928,1.0
7.0833,128.180252,37.942859,7006.3044024,6.892,-3.714,356.93,1.0
7.1,128.180248,37.942905,7006.021548,6.843,-3.729,356.933,1.0
7.1166,128.180245,37.942951,7005.737474400001,6.795,-3.743,356.936,1.0
7.1333,128.180242,37.942997,7005.4518768,6.746,-3.758,356.939,1.0
7.15,128.180238,37.943043,7005.1647552,6.698,-3.772,356.942,1.0
7.1666,128.180235,37.94309,7004.876414400001,6.65,-3.787,356.945,1.0
7.1833,128.180231,37.943136,7004.586549600001,6.601,-3.801,356.948,1.0
7.2,128.180228,37.943182,7004.295465600001,6.553,-3.816,356.951,1.0
7.2166,128.180225,37.943228,7004.0031624,6.505,-3.83,356.954,1.0
7.2333,128.180221,37.943274,7003.7090304,6.456,-3.845,356.956,1.0
7.25,128.180218,37.94332,7003.413984000001,6.408,-3.859,356.959,1.0
7.2666,128.180214,37.943367,7003.1174136,6.36,-3.874,356.962,1.0
7.2833,128.180211,37.943413,7002.819319200001,6.311,-3.888,356.965,1.0
7.3,128.180208,37.943459,7002.5200056,6.263,-3.903,356.968,1.0
7.3166,128.180204,37.943505,7002.2191680000005,6.215,-3.917,356.971,1.0
7.3333,128.180201,37.943551,7001.917111200001,6.167,-3.932,356.974,1.0
7.35,128.180197,37.943598,7001.6135304,6.118,-3.946,356.978,1.0
7.3666,128.180194,37.943644,7001.3087304,6.07,-3.961,356.981,1.0
7.3833,128.180191,37.94369,7001.002406400001,6.022,-3.975,356.984,1.0
7.4,128.180187,37.943736,7000.6948632,5.973,-3.99,356.987,1.0
7.4166,128.180184,37.943782,7000.3857960000005,5.924,-4.004,356.99,1.0
7.4333,128.18018,37.943829,7000.0755096,5.876,-4.018,356.993,1.0
7.45,128.180177,37.943875,6999.764004000001,5.827,-4.033,356.996,1.0
7.4666,128.180174,37.943921,6999.450974400001,5.778,-4.047,356.999,1.0
7.4833,128.18017,37.943967,6999.1364207999995,5.729,-4.062,357.002,1.0
7.5,128.180167,37.944014,6998.820648,5.681,-4.076,357.005,1.0
7.5166,128.180164,37.94406,6998.503656000001,5.632,-4.09,357.008,1.0
7.5333,128.18016,37.944106,6998.1851400000005,5.583,-4.105,357.012,1.0
7.55,128.180157,37.944152,6997.865404800001,5.534,-4.119,357.015,1.0
7.5666,128.180154,37.944199,6997.544145600001,5.485,-4.133,357.018,1.0
7.5833,128.18015,37.944245,6997.2213624,5.436,-4.148,357.021,1.0
7.6,128.180147,37.944291,6996.897664800001,5.387,-4.162,357.024,1.0
7.6166,128.180143,37.944338,6996.572138400001,5.339,-4.176,357.027,1.0
7.6333,128.18014,37.944384,6996.245697600001,5.29,-4.19,357.031,1.0
7.65,128.180137,37.94443,6995.9177328000005,5.241,-4.204,357.034,1.0
7.6666,128.180133,37.944476,6995.588244,5.192,-4.218,357.037,1.0
7.6833,128.18013,37.944523,6995.257536,5.143,-4.231,357.04,1.0
7.7,128.180127,37.944569,6994.9256088,5.094,-4.245,357.044,1.0
7.7166,128.180123,37.944615,6994.5921576,5.046,-4.258,357.047,1.0
7.7333,128.18012,37.944662,6994.2574872000005,4.997,-4.271,357.05,1.0
7.75,128.180117,37.944708,6993.921292800001,4.948,-4.284,357.054,1.0
7.7666,128.180113,37.944754,6993.5838792,4.9,-4.297,357.057,1.0
7.7833,128.18011,37.944801,6993.245246400001,4.851,-4.31,357.06,1.0
7.8,128.180107,37.944847,6992.9050896,4.803,-4.323,357.064,1.0
7.8166,128.180103,37.944893,6992.563408800001,4.755,-4.335,357.067,1.0
7.8333,128.1801,37.94494,6992.2208136,4.708,-4.348,357.07,1.0
7.85,128.180097,37.944986,6991.8763896,4.661,-4.361,357.074,1.0
7.8666,128.180093,37.945032,6991.531051200001,4.615,-4.373,357.077,1.0
7.8833,128.18009,37.945079,6991.1841888,4.57,-4.386,357.081,1.0
7.9,128.180087,37.945125,6990.8358024,4.526,-4.399,357.084,1.0
7.9166,128.180084,37.945171,6990.4861968000005,4.483,-4.412,357.088,1.0
7.9333,128.18008,37.945218,6990.135372,4.441,-4.425,357.091,1.0
7.95,128.180077,37.945264,6989.783023200001,4.399,-4.439,357.095,1.0
7.9666,128.180074,37.945311,6989.4294552,4.358,-4.452,357.098,1.0
7.9833,128.18007,37.945357,6989.074668,4.318,-4.466,357.101,1.0
8.0,128.180067,37.945403,6988.718356800001,4.278,-4.48,357.105,1.0
8.0166,128.180064,37.94545,6988.3605216,4.239,-4.494,357.108,1.0
8.0333,128.18006,37.945496,6988.0017720000005,4.2,-4.508,357.112,1.0
8.05,128.180057,37.945543,6987.6414984,4.161,-4.523,357.115,1.0
8.0666,128.180054,37.945589,6987.279700800001,4.123,-4.537,357.118,1.0
8.0833,128.180051,37.945636,6986.916684000001,4.086,-4.552,357.121,1.0
8.1,128.180047,37.945682,6986.5524479999995,4.048,-4.567,357.125,1.0
8.1166,128.180044,37.945728,6986.186688000001,4.012,-4.582,357.128,1.0
8.1333,128.180041,37.945775,6985.819708800001,3.975,-4.597,357.131,1.0
8.15,128.180037,37.945821,6985.4512056,3.939,-4.613,357.134,1.0
8.1666,128.180034,37.945868,6985.081483200001,3.904,-4.629,357.138,1.0
8.1833,128.180031,37.945914,6984.7105416,3.868,-4.645,357.141,1.0
8.2,128.180028,37.945961,6984.338076,3.833,-4.661,357.144,1.0
8.2166,128.180024,37.946007,6983.9640864,3.799,-4.678,357.147,1.0
8.2333,128.180021,37.946054,6983.589182400001,3.764,-4.695,357.15,1.0
8.25,128.180018,37.9461,6983.212449600001,3.731,-4.712,357.153,1.0
8.2666,128.180014,37.946146,6982.834497600001,3.698,-4.73,357.157,1.0
8.2833,128.180011,37.946193,6982.4550216,3.665,-4.748,357.16,1.0
8.3,128.180008,37.946239,6982.0743264,3.634,-4.766,357.163,1.0
8.3166,128.180005,37.946286,6981.6921072,3.603,-4.784,357.166,1.0
8.3333,128.180001,37.946332,6981.3086688,3.574,-4.803,357.169,1.0
8.35,128.179998,37.946379,6980.923401600001,3.546,-4.821,357.172,1.0
8.3666,128.179995,37.946425,6980.5369152,3.52,-4.841,357.175,1.0
8.3833,128.179992,37.946472,6980.1489048,3.495,-4.86,357.179,1.0
8.4,128.179988,37.946518,6979.759370400001,3.472,-4.88,357.182,1.0
8.4166,128.179985,37.946565,6979.368312,3.452,-4.9,357.185,1.0
8.4333,128.179982,37.946611,6978.9760344,3.433,-4.92,357.188,1.0
8.45,128.179979,37.946658,6978.5819280000005,3.417,-4.941,357.191,1.0
8.4666,128.179975,37.946705,6978.186297600001,3.403,-4.961,357.195,1.0
8.4833,128.179972,37.946751,6977.7894479999995,3.391,-4.982,357.198,1.0
8.5,128.179969,37.946798,6977.390769600001,3.383,-5.004,357.201,1.0
8.5166,128.179966,37.946844,6976.9905672,3.377,-5.025,357.204,1.0
8.5333,128.179962,37.946891,6976.588536,3.373,-5.046,357.208,1.0
8.55,128.179959,37.946937,6976.1852856000005,3.373,-5.068,357.211,1.0
8.5666,128.179956,37.946984,6975.780206400001,3.375,-5.089,357.214,1.0
8.5833,128.179953,37.94703,6975.3736032,3.381,-5.111,357.217,1.0
8.6,128.179949,37.947077,6974.965476,3.389,-5.132,357.221,1.0
8.6166,128.179946,37.947124,6974.555520000001,3.401,-5.153,357.224,1.0
8.6333,128.179943,37.94717,6974.14404,3.416,-5.175,357.227,1.0
8.65,128.17994,37.947217,6973.7307312,3.434,-5.196,357.23,1.0
8.6666,128.179936,37.947263,6973.3162032,3.455,-5.217,357.234,1.0
8.6833,128.179933,37.94731,6972.899541600001,3.479,-5.238,357.237,1.0
8.7,128.17993,37.947357,6972.481356000001,3.506,-5.259,357.24,1.0
8.7166,128.179927,37.947403,6972.0616464,3.536,-5.28,357.243,1.0
8.7333,128.179924,37.94745,6971.6401080000005,3.568,-5.301,357.246,1.0
8.75,128.17992,37.947496,6971.2170456,3.604,-5.322,357.249,1.0
8.7666,128.179917,37.947543,6970.7921544,3.642,-5.343,357.252,1.0
8.7833,128.179914,37.94759,6970.3654344,3.684,-5.364,357.255,1.0
8.8,128.179911,37.947636,6969.9371904,3.727,-5.384,357.258,1.0
8.8166,128.179907,37.947683,6969.5071176,3.774,-5.405,357.261,1.0
8.8333,128.179904,37.94773,6969.0755208,3.823,-5.426,357.264,1.0
8.85,128.179901,37.947776,6968.6420952,3.875,-5.446,357.267,1.0
8.8666,128.179898,37.947823,6968.2068408000005,3.928,-5.467,357.27,1.0
8.8833,128.179895,37.94787,6967.7700624,3.984,-5.488,357.273,1.0
8.9,128.179891,37.947916,6967.3314552,4.042,-5.508,357.276,1.0
8.9166,128.179888,37.947963,6966.8910192,4.102,-5.528,357.279,1.0
8.9333,128.179885,37.94801,6966.4490592,4.164,-5.549,357.281,1.0
8.95,128.179882,37.948056,6966.005270400001,4.228,-5.569,357.284,1.0
8.9666,128.179879,37.948103,6965.5599576,4.293,-5.589,357.286,1.0
8.9833,128.179875,37.94815,6965.112816,4.36,-5.609,357.289,1.0
9.0,128.179872,37.948196,6964.6638456,4.429,-5.629,357.292,1.0
9.0166,128.179869,37.948243,6964.2130464,4.498,-5.649,357.294,1.0
9.0333,128.179866,37.94829,6963.7607232,4.57,-5.668,357.296,1.0
9.05,128.179863,37.948336,6963.3065712,4.642,-5.688,357.299,1.0
9.0666,128.179859,37.948383,6962.8508952,4.716,-5.708,357.301,1.0
9.0833,128.179856,37.94843,6962.3930856,4.791,-5.728,357.304,1.0
9.1,128.179853,37.948477,6961.933752000001,4.867,-5.748,357.306,1.0
9.1166,128.17985,37.948523,6961.4728944,4.944,-5.767,357.308,1.0
9.1333,128.179847,37.94857,6961.0099032,5.023,-5.787,357.31,1.0
9.15,128.179844,37.948617,6960.5453880000005,5.102,-5.807,357.312,1.0
9.1666,128.17984,37.948663,6960.079044,5.182,-5.826,357.315,1.0
9.1833,128.179837,37.94871,6959.611176,5.263,-5.846,357.317,1.0
9.2,128.179834,37.948757,6959.141174400001,5.346,-5.865,357.319,1.0
9.2166,128.179831,37.948804,6958.6696488,5.429,-5.885,357.321,1.0
9.2333,128.179828,37.948851,6958.1965992000005,5.513,-5.905,357.323,1.0
9.25,128.179825,37.948897,6957.721415999999,5.597,-5.924,357.325,1.0
9.2666,128.179821,37.948944,6957.2447088,5.683,-5.944,357.327,1.0
9.2833,128.179818,37.948991,6956.7661728,5.769,-5.963,357.328,1.0
9.3,128.179815,37.949038,6956.285808,5.856,-5.983,357.33,1.0
9.3166,128.179812,37.949084,6955.803919200001,5.944,-6.003,357.332,1.0
9.3333,128.179809,37.949131,6955.319896800001,6.032,-6.022,357.334,1.0
9.35,128.179806,37.949178,6954.8343504,6.121,-6.042,357.336,1.0
9.3666,128.179802,37.949225,6954.34728,6.21,-6.061,357.337,1.0
9.3833,128.179799,37.949272,6953.858076,6.301,-6.081,357.339,1.0
9.4,128.179796,37.949318,6953.367348,6.391,-6.101,357.341,1.0
9.4166,128.179793,37.949365,6952.874791200001,6.483,-6.12,357.342,1.0
9.4333,128.17979,37.949412,6952.380405600001,6.575,-6.14,357.344,1.0
9.45,128.179787,37.949459,6951.884191200001,6.667,-6.159,357.345,1.0
9.4666,128.179784,37.949506,6951.3864528,6.76,-6.179,357.347,1.0
9.4833,128.17978,37.949553,6950.8868856,6.853,-6.199,357.348,1.0
9.5,128.179777,37.949599,6950.3854896,6.947,-6.218,357.35,1.0
9.5166,128.179774,37.949646,6949.8822648000005,7.042,-6.238,357.351,1.0
9.5333,128.179771,37.949693,6949.377516,7.137,-6.258,357.352,1.0
9.55,128.179768,37.94974,6948.870938400001,7.232,-6.277,357.354,1.0
9.5666,128.179765,37.949787,6948.362532,7.328,-6.297,357.355,1.0
9.5833,128.179762,37.949834,6947.852296800001,7.424,-6.316,357.356,1.0
9.6,128.179759,37.949881,6947.3402328,7.52,-6.336,357.358,1.0
9.6166,128.179755,37.949927,6946.8266448,7.617,-6.355,357.359,1.0
9.6333,128.179752,37.949974,6946.310923200001,7.714,-6.375,357.36,1.0
9.65,128.179749,37.950021,6945.793677600001,7.812,-6.394,357.361,1.0
9.6666,128.179746,37.950068,6945.274908,7.91,-6.414,357.363,1.0
9.6833,128.179743,37.950115,6944.7540048,8.009,-6.433,357.364,1.0
9.7,128.17974,37.950162,6944.2315776000005,8.107,-6.452,357.365,1.0
9.7166,128.179737,37.950209,6943.7070168,8.206,-6.472,357.366,1.0
9.7333,128.179734,37.950256,6943.180932,8.306,-6.491,357.367,1.0
9.75,128.179731,37.950303,6942.6530184,8.406,-6.511,357.368,1.0
9.7666,128.179728,37.95035,6942.1235808,8.506,-6.53,357.369,1.0
9.7833,128.179724,37.950396,6941.592009600001,8.606,-6.549,357.37,1.0
9.8,128.179721,37.950443,6941.0589144000005,8.707,-6.569,357.371,1.0
9.8166,128.179718,37.95049,6940.5239904,8.808,-6.588,357.372,1.0
9.8333,128.179715,37.950537,6939.9872376,8.91,-6.607,357.373,1.0
9.85,128.179712,37.950584,6939.4486560000005,9.012,-6.626,357.374,1.0
9.8666,128.179709,37.950631,6938.9085504,9.114,-6.646,357.375,1.0
9.8833,128.179706,37.950678,6938.366311200001,9.216,-6.665,357.376,1.0
9.9,128.179703,37.950725,6937.822548,9.319,-6.684,357.377,1.0
9.9166,128.1797,37.950772,6937.276956000001,9.422,-6.703,357.378,1.0
9.9333,128.179697,37.950819,6936.7295352,9.526,-6.722,357.379,1.0
9.95,128.179694,37.950866,6936.1802856,9.629,-6.742,357.38,1.0
9.9666,128.179691,37.950913,6935.6295119999995,9.734,-6.761,357.38,1.0
9.9833,128.179688,37.95096,6935.0769096,9.838,-6.78,357.381,1.0
10.0,128.179685,37.951007,6934.5221736,9.943,-6.799,357.382,1.0
10.0166,128.179681,37.951054,6933.9659136,10.048,-6.818,357.383,1.0
10.0333,128.179678,37.951101,6933.4081295999995,10.153,-6.838,357.383,1.0
10.05,128.179675,37.951148,6932.848212,10.259,-6.857,357.384,1.0
10.0666,128.179672,37.951195,6932.286770400001,10.365,-6.876,357.385,1.0
10.0833,128.179669,37.951242,6931.7231952,10.471,-6.895,357.386,1.0
10.1,128.179666,37.951289,6931.158096,10.578,-6.915,357.386,1.0
10.1166,128.179663,37.951336,6930.591168,10.685,-6.934,357.387,1.0
10.1333,128.17966,37.951383,6930.0224112000005,10.792,-6.953,357.388,1.0
10.15,128.179657,37.95143,6929.4521304,10.9,-6.972,357.388,1.0
10.1666,128.179654,37.951477,6928.8797159999995,11.008,-6.992,357.389,1.0
10.1833,128.179651,37.951524,6928.3057776000005,11.116,-7.011,357.389,1.0
10.2,128.179648,37.951571,6927.729705600001,11.224,-7.03,357.39,1.0
10.2166,128.179645,37.951618,6927.152109600001,11.333,-7.049,357.39,1.0
10.2333,128.179642,37.951665,6926.5729896,11.442,-7.069,357.391,1.0
10.25,128.179639,37.951712,6925.991736,11.552,-7.088,357.391,1.0
10.2666,128.179636,37.95176,6925.4086536,11.661,-7.107,357.392,1.0
10.2833,128.179633,37.951807,6924.824047200001,11.771,-7.126,357.392,1.0
10.3,128.17963,37.951854,6924.2373072,11.882,-7.146,357.393,1.0
10.3166,128.179627,37.951901,6923.6490432,11.992,-7.165,357.393,1.0
10.3333,128.179624,37.951948,6923.058950400001,12.103,-7.184,357.394,1.0
10.35,128.179621,37.951995,6922.467028800001,12.215,-7.203,357.394,1.0
10.3666,128.179618,37.952042,6921.8732784,12.326,-7.223,357.395,1.0
10.3833,128.179615,37.952089,6921.278004,12.438,-7.242,357.395,1.0
10.4,128.179612,37.952136,6920.680596,12.55,-7.261,357.396,1.0
10.4166,128.179609,37.952183,6920.081664,12.663,-7.28,357.396,1.0
10.4333,128.179606,37.952231,6919.4809032,12.775,-7.3,357.396,1.0
10.45,128.179603,37.952278,6918.8783136,12.888,-7.319,357.397,1.0
10.4666,128.1796,37.952325,6918.2738952,13.002,-7.338,357.397,1.0
10.4833,128.179597,37.952372,6917.667648,13.115,-7.357,357.397,1.0
10.5,128.179594,37.952419,6917.059572,13.229,-7.377,357.398,1.0
10.5166,128.179591,37.952466,6916.4496672000005,13.343,-7.396,357.398,1.0
10.5333,128.179588,37.952513,6915.838238400001,13.458,-7.415,357.398,1.0
10.55,128.179586,37.952561,6915.224676,13.573,-7.434,357.399,1.0
10.5666,128.179583,37.952608,6914.6095896,13.688,-7.454,357.399,1.0
10.5833,128.17958,37.952655,6913.9926744,13.803,-7.473,357.399,1.0
10.6,128.179577,37.952702,6913.3739304,13.919,-7.492,357.399,1.0
10.6166,128.179574,37.952749,6912.7533576,14.035,-7.511,357.4,1.0
10.6333,128.179571,37.952796,6912.130956000001,14.152,-7.53,357.4,1.0
10.65,128.179568,37.952844,6911.5067256,14.268,-7.55,357.4,1.0
10.6666,128.179565,37.952891,6910.8806664,14.385,-7.569,357.4,1.0
10.6833,128.179562,37.952938,6910.253083200001,14.502,-7.588,357.4,1.0
10.7,128.179559,37.952985,6909.6233664,14.62,-7.607,357.401,1.0
10.7166,128.179556,37.953032,6908.9921256,14.738,-7.626,357.401,1.0
10.7333,128.179553,37.95308,6908.3587512,14.856,-7.645,357.401,1.0
10.75,128.17955,37.953127,6907.7238528,14.974,-7.665,357.401,1.0
10.7666,128.179548,37.953174,6907.0871256,15.093,-7.684,357.401,1.0
10.7833,128.179545,37.953221,6906.448569600001,15.212,-7.703,357.402,1.0
10.8,128.179542,37.953268,6905.8081848,15.332,-7.722,357.402,1.0
10.8166,128.179539,37.953316,6905.1659712,15.451,-7.741,357.402,1.0
10.8333,128.179536,37.953363,6904.521928800001,15.571,-7.76,357.402,1.0
10.85,128.179533,37.95341,6903.8760576,15.692,-7.779,357.402,1.0
10.8666,128.17953,37.953457,6903.2283576,15.812,-7.799,357.402,1.0
10.8833,128.179527,37.953505,6902.5788288,15.933,-7.818,357.402,1.0
10.9,128.179524,37.953552,6901.927776,16.054,-7.837,357.402,1.0
10.9166,128.179522,37.953599,6901.2745896,16.176,-7.856,357.402,1.0
10.9333,128.179519,37.953646,6900.619574400001,16.298,-7.875,357.403,1.0
10.95,128.179516,37.953694,6899.9630352,16.42,-7.894,357.403,1.0
10.9666,128.179513,37.953741,6899.3046672,16.542,-7.913,357.403,1.0
10.9833,128.17951,37.953788,6898.644165600001,16.665,-7.932,357.403,1.0
11.0,128.179507,37.953836,6897.98214,16.788,-7.951,357.403,1.0
11.0166,128.179504,37.953883,6897.3179808,16.911,-7.97,357.403,1.0
11.0333,128.179502,37.95393,6896.652297600001,17.035,-7.989,357.403,1.0
11.05,128.179499,37.953978,6895.984785600001,17.159,-8.008,357.403,1.0
11.0666,128.179496,37.954025,6895.3154448000005,17.283,-8.027,357.403,1.0
11.0833,128.179493,37.954072,6894.6442752,17.408,-8.046,357.403,1.0
11.1,128.17949,37.954119,6893.970972,17.533,-8.065,357.403,1.0
11.1166,128.179487,37.954167,6893.296144800001,17.658,-8.084,357.403,1.0
11.1333,128.179485,37.954214,6892.6194888,17.783,-8.103,357.403,1.0
11.15,128.179482,37.954261,6891.941004,17.909,-8.122,357.403,1.0
11.1666,128.179479,37.954309,6891.2606904,18.035,-8.141,357.403,1.0
11.1833,128.179476,37.954356,6890.5785479999995,18.162,-8.16,357.403,1.0
11.2,128.179473,37.954403,6889.8945768,18.288,-8.179,357.403,1.0
11.2166,128.179471,37.954451,6889.2087768,18.415,-8.198,357.403,1.0
11.2333,128.179468,37.954498,6888.521148,18.543,-8.217,357.403,1.0
11.25,128.179465,37.954546,6887.8316904,18.67,-8.236,357.403,1.0
11.2666,128.179462,37.954593,6887.140404,18.798,-8.255,357.403,1.0
11.2833,128.179459,37.95464,6886.4472888,18.927,-8.273,357.403,1.0
11.3,128.179457,37.954688,6885.7523448,19.055,-8.292,357.403,1.0
11.3166,128.179454,37.954735,6885.055572,19.184,-8.311,357.403,1.0
11.3333,128.179451,37.954782,6884.356970400001,19.314,-8.33,357.403,1.0
11.35,128.179448,37.95483,6883.65654,19.443,-8.349,357.403,1.0
11.3666,128.179446,37.954877,6882.9542808,19.573,-8.368,357.403,1.0
11.3833,128.179443,37.954925,6882.250192800001,19.703,-8.387,357.403,1.0
11.4,128.17944,37.954972,6881.5439712,19.834,-8.405,357.403,1.0
11.4166,128.179437,37.955019,6880.8362256,19.965,-8.424,357.403,1.0
11.4333,128.179435,37.955067,6880.1266512,20.096,-8.443,357.403,1.0
11.45,128.179432,37.955114,6879.415248,20.227,-8.462,357.403,1.0
11.4666,128.179429,37.955162,6878.702016,20.359,-8.48,357.403,1.0
11.4833,128.179426,37.955209,6877.9866504,20.491,-8.499,357.403,1.0
11.5,128.179424,37.955257,6877.269760800001,20.623,-8.518,357.403,1.0
11.5166,128.179421,37.955304,6876.5510424,20.756,-8.537,357.403,1.0
11.5333,128.179418,37.955351,6875.8301904,20.889,-8.555,357.403,1.0
11.55,128.179416,37.955399,6875.1078144,21.023,-8.574,357.403,1.0
11.5666,128.179413,37.955446,6874.383304800001,21.156,-8.593,357.403,1.0
11.5833,128.17941,37.955494,6873.6572712,21.29,-8.611,357.403,1.0
11.6,128.179408,37.955541,6872.929104,21.425,-8.63,357.402,1.0
11.6166,128.179405,37.955589,6872.199108,21.559,-8.649,357.402,1.0
11.6333,128.179402,37.955636,6871.467588,21.694,-8.667,357.402,1.0
11.65,128.179399,37.955684,6870.7339344,21.83,-8.686,357.402,1.0
11.6666,128.179397,37.955731,6869.998452000001,21.965,-8.704,357.402,1.0
11.6833,128.179394,37.955779,6869.2611408,22.101,-8.723,357.402,1.0
11.7,128.179391,37.955826,6868.522000800001,22.237,-8.741,357.402,1.0
11.7166,128.179389,37.955874,6867.781032000001,22.374,-8.76,357.402,1.0
11.7333,128.179386,37.955921,6867.0379296,22.511,-8.778,357.402,1.0
11.75,128.179383,37.955969,6866.2933032,22.648,-8.797,357.402,1.0
11.7666,128.179381,37.956016,6865.546848,22.786,-8.815,357.402,1.0
11.7833,128.179378,37.956064,6864.798259200001,22.924,-8.834,357.402,1.0
11.8,128.179375,37.956111,6864.0481464,23.062,-8.852,357.402,1.0
11.8166,128.179373,37.956159,6863.2959,23.2,-8.871,357.402,1.0
11.8333,128.17937,37.956206,6862.5418248000005,23.339,-8.889,357.402,1.0
11.85,128.179368,37.956254,6861.7859208,23.478,-8.908,357.402,1.0
11.8666,128.179365,37.956301,6861.028188000001,23.618,-8.926,357.402,1.0
11.8833,128.179362,37.956349,6860.2686264,23.758,-8.944,357.402,1.0
11.9,128.17936,37.956396,6859.507236,23.898,-8.963,357.402,1.0
11.9166,128.179357,37.956444,6858.7440168,24.038,-8.981,357.402,1.0
11.9333,128.179355,37.956491,6857.978664,24.179,-8.999,357.402,1.0
11.95,128.179352,37.956539,6857.211787200001,24.32,-9.018,357.402,1.0
11.9666,128.179349,37.956587,6856.4427768000005,24.461,-9.036,357.402,1.0
11.9833,128.179347,37.956634,6855.671937600001,24.603,-9.054,357.402,1.0
12.0,128.179344,37.956682,6854.8992696000005,24.745,-9.073,357.402,1.0
12.0166,128.179342,37.956729,6854.124772800001,24.888,-9.091,357.402,1.0
12.0333,128.179339,37.956777,6853.348447200001,25.03,-9.109,357.402,1.0
12.05,128.179336,37.956824,6852.570292800001,25.173,-9.127,357.402,1.0
12.0666,128.179334,37.956872,6851.7900048,25.317,-9.146,357.402,1.0
12.0833,128.179331,37.95692,6851.008192800001,25.46,-9.164,357.402,1.0
12.1,128.179329,37.956967,6850.224247200001,25.604,-9.182,357.402,1.0
12.1166,128.179326,37.957015,6849.4384728,25.749,-9.2,357.402,1.0
12.1333,128.179324,37.957062,6848.650869600001,25.893,-9.218,357.402,1.0
12.15,128.179321,37.95711,6847.8614376000005,26.038,-9.236,357.402,1.0
12.1666,128.179319,37.957158,6847.069872,26.184,-9.254,357.402,1.0
12.1833,128.179316,37.957205,6846.2767824,26.329,-9.273,357.402,1.0
12.2,128.179314,37.957253,6845.4815592,26.475,-9.291,357.402,1.0
12.2166,128.179311,37.957301,6844.6845072,26.621,-9.309,357.402,1.0
12.2333,128.179308,37.957348,6843.885626400001,26.768,-9.327,357.402,1.0
12.25,128.179306,37.957396,6843.0849168,26.915,-9.345,357.402,1.0
12.2666,128.179303,37.957444,6842.2820736,27.062,-9.363,357.402,1.0
12.2833,128.179301,37.957491,6841.477401600001,27.21,-9.381,357.402,1.0
12.3,128.179298,37.957539,6840.671205600001,27.358,-9.399,357.403,1.0
12.3166,128.179296,37.957587,6839.862876,27.506,-9.417,357.403,1.0
12.3333,128.179293,37.957634,6839.0524128,27.655,-9.435,357.403,1.0
12.35,128.179291,37.957682,6838.2404256,27.803,-9.453,357.403,1.0
12.3666,128.179289,37.95773,6837.4263048,27.954,-9.471,357.403,1.0
12.3833,128.179286,37.957777,6836.6103552,28.105,-9.488,357.403,1.0
12.4,128.179284,37.957825,6835.7925768000005,28.258,-9.506,357.404,1.0
12.4166,128.179281,37.957873,6834.9726648000005,28.412,-9.523,357.404,1.0
12.4333,128.179279,37.95792,6834.1509240000005,28.567,-9.541,357.405,1.0
12.45,128.179276,37.957968,6833.3273544,28.723,-9.558,357.405,1.0
12.4666,128.179274,37.958016,6832.501956000001,28.88,-9.576,357.406,1.0
12.4833,128.179271,37.958063,6831.674424000001,29.038,-9.593,357.406,1.0
12.5,128.179269,37.958111,6830.8450632,29.196,-9.61,357.406,1.0
12.5166,128.179266,37.958159,6830.013873600001,29.354,-9.628,357.407,1.0
12.5333,128.179264,37.958207,6829.1808552,29.513,-9.645,357.407,1.0
12.55,128.179262,37.958254,6828.3457032,29.673,-9.663,357.408,1.0
12.5666,128.179259,37.958302,6827.509027200001,29.833,-9.68,357.408,1.0
12.5833,128.179257,37.95835,6826.6702176,29.993,-9.697,357.408,1.0
12.6,128.179254,37.958397,6825.829274400001,30.154,-9.715,357.409,1.0
12.6166,128.179252,37.958445,6824.9868072,30.315,-9.732,357.409,1.0
12.6333,128.17925,37.958493,6824.142206400001,30.477,-9.75,357.409,1.0
12.65,128.179247,37.958541,6823.295776800001,30.639,-9.767,357.409,1.0
12.6666,128.179245,37.958588,6822.4475184,30.801,-9.785,357.41,1.0
12.6833,128.179242,37.958636,6821.5971264,30.964,-9.802,357.41,1.0
12.7,128.17924,37.958684,6820.7449056000005,31.127,-9.819,357.41,1.0
12.7166,128.179238,37.958732,6819.890856000001,31.291,-9.837,357.411,1.0
12.7333,128.179235,37.95878,6819.0349776,31.455,-9.854,357.411,1.0
12.75,128.179233,37.958827,6818.176965600001,31.619,-9.871,357.411,1.0
12.7666,128.179231,37.958875,6817.317124800001,31.783,-9.889,357.412,1.0
12.7833,128.179228,37.958923,6816.455455200001,31.948,-9.906,357.412,1.0
12.8,128.179226,37.958971,6815.591956800001,32.114,-9.924,357.412,1.0
12.8166,128.179224,37.959018,6814.726324800001,32.279,-9.941,357.413,1.0
12.8333,128.179221,37.959066,6813.858864000001,32.445,-9.958,357.413,1.0
12.85,128.179219,37.959114,6812.989269600001,32.612,-9.976,357.413,1.0
12.8666,128.179217,37.959162,6812.1181512,32.778,-9.993,357.414,1.0
12.8833,128.179214,37.95921,6811.2448992,32.945,-10.01,357.414,1.0
12.9,128.179212,37.959258,6810.369513600001,33.113,-10.027,357.414,1.0
12.9166,128.17921,37.959305,6809.492604,33.281,-10.045,357.415,1.0
12.9333,128.179208,37.959353,6808.6135608,33.449,-10.062,357.415,1.0
12.95,128.179205,37.959401,6807.7326888,33.617,-10.079,357.415,1.0
12.9666,128.179203,37.959449,6806.849683200001,33.786,-10.097,357.416,1.0
12.9833,128.179201,37.959497,6805.9648488,33.956,-10.114,357.416,1.0
13.0,128.179198,37.959545,6805.0781856,34.125,-10.131,357.417,1.0
13.0166,128.179196,37.959592,6804.1893887999995,34.295,-10.148,357.417,1.0
13.0333,128.179194,37.95964,6803.2987632,34.466,-10.165,357.417,1.0
13.0499,128.179192,37.959688,6802.4063088,34.636,-10.183,357.418,1.0
13.0666,128.179189,37.959736,6801.5117208,34.807,-10.2,357.418,1.0
13.0833,128.179187,37.959784,6800.615304,34.979,-10.217,357.419,1.0
13.1,128.179185,37.959832,6799.7170584000005,35.151,-10.234,357.419,1.0
13.1166,128.179183,37.95988,6798.816679200001,35.323,-10.251,357.42,1.0
13.1333,128.179181,37.959927,6797.9144712,35.496,-10.268,357.42,1.0
13.15,128.179178,37.959975,6797.0101296,35.669,-10.285,357.421,1.0
13.1666,128.179176,37.960023,6796.103959200001,35.842,-10.303,357.421,1.0
13.1833,128.179174,37.960071,6795.195960000001,36.016,-10.32,357.422,1.0
13.2,128.179172,37.960119,6794.2858272,36.19,-10.337,357.422,1.0
13.2166,128.17917,37.960167,6793.3738656000005,36.364,-10.354,357.423,1.0
13.2333,128.179167,37.960215,6792.4600752,36.539,-10.371,357.423,1.0
13.25,128.179165,37.960263,6791.544151200001,36.714,-10.388,357.424,1.0
13.2666,128.179163,37.960311,6790.6263984,36.89,-10.405,357.424,1.0
13.2833,128.179161,37.960359,6789.706512,37.066,-10.422,357.425,1.0
13.3,128.179159,37.960406,6788.784796800001,37.242,-10.439,357.425,1.0
13.3166,128.179157,37.960454,6787.860948,37.419,-10.456,357.426,1.0
13.3333,128.179154,37.960502,6786.935270400001,37.596,-10.473,357.427,1.0
13.35,128.179152,37.96055,6786.0074592,37.773,-10.49,357.427,1.0
13.3666,128.17915,37.960598,6785.077819200001,37.951,-10.506,357.428,1.0
13.3833,128.179148,37.960646,6784.1463504,38.129,-10.523,357.428,1.0
13.4,128.179146,37.960694,6783.212748,38.307,-10.54,357.429,1.0
13.4166,128.179144,37.960742,6782.2773168,38.486,-10.557,357.43,1.0
13.4333,128.179142,37.96079,6781.339752000001,38.666,-10.574,357.43,1.0
13.45,128.17914,37.960838,6780.4003584,38.845,-10.591,357.431,1.0
13.4666,128.179137,37.960886,6779.4588312000005,39.025,-10.608,357.432,1.0
13.4833,128.179135,37.960934,6778.515170400001,39.206,-10.624,357.433,1.0
13.5,128.179133,37.960982,6777.5699856,39.386,-10.641,357.433,1.0
13.5166,128.179131,37.96103,6776.6223624,39.567,-10.658,357.434,1.0
13.5333,128.179129,37.961078,6775.6732152,39.749,-10.675,357.435,1.0
13.55,128.179127,37.961126,6774.7216296,39.931,-10.692,357.436,1.0
13.5666,128.179125,37.961174,6773.7685200000005,40.113,-10.708,357.436,1.0
13.5833,128.179123,37.961222,6772.812972,40.296,-10.725,357.437,1.0
13.6,128.179121,37.96127,6771.855595200001,40.479,-10.742,357.438,1.0
13.6166,128.179119,37.961318,6770.8963896000005,40.662,-10.758,357.439,1.0
13.6333,128.179117,37.961366,6769.9350504,40.846,-10.775,357.44,1.0
13.65,128.179115,37.961414,6768.9718824,41.03,-10.792,357.441,1.0
13.6666,128.179113,37.961462,6768.0065808,41.214,-10.808,357.442,1.0
13.6833,128.179111,37.96151,6767.039145600001,41.399,-10.825,357.442,1.0
13.7,128.179109,37.961558,6766.0698816,41.584,-10.842,357.443,1.0
13.7166,128.179107,37.961606,6765.098484000001,41.77,-10.858,357.444,1.0
13.7333,128.179105,37.961654,6764.1252576,41.956,-10.875,357.445,1.0
13.75,128.179103,37.961702,6763.149897600001,42.142,-10.891,357.446,1.0
13.7666,128.179101,37.96175,6762.172708800001,42.329,-10.908,357.447,1.0
13.7833,128.179099,37.961798,6761.1933864,42.516,-10.925,357.448,1.0
13.8,128.179097,37.961846,6760.2119304,42.703,-10.941,357.449,1.0
13.8166,128.179095,37.961894,6759.2286456,42.891,-10.958,357.45,1.0
13.8333,128.179093,37.961942,6758.243227200001,43.079,-10.974,357.451,1.0
13.85,128.179091,37.96199,6757.2556752,43.267,-10.991,357.453,1.0
13.8666,128.179089,37.962038,6756.2662944,43.456,-11.007,357.454,1.0
13.8833,128.179087,37.962086,6755.2750848,43.646,-11.024,357.455,1.0
13.9,128.179085,37.962134,6754.281436800001,43.835,-11.04,357.456,1.0
13.9166,128.179083,37.962182,6753.28596,44.025,-11.056,357.457,1.0
13.9333,128.179081,37.962231,6752.2886544,44.215,-11.073,357.458,1.0
13.95,128.179079,37.962279,6751.2889104000005,44.406,-11.089,357.459,1.0
13.9666,128.179077,37.962327,6750.287337600001,44.597,-11.106,357.461,1.0
13.9833,128.179075,37.962375,6749.283936,44.789,-11.122,357.462,1.0
14.0,128.179074,37.962423,6748.278400800001,44.981,-11.138,357.463,1.0
14.0166,128.179072,37.962471,6747.270732,45.173,-11.155,357.464,1.0
14.0333,128.17907,37.962519,6746.2609296,45.365,-11.171,357.466,1.0
14.05,128.179068,37.962567,6745.2492984,45.558,-11.187,357.467,1.0
14.0666,128.179066,37.962615,6744.235533600001,45.751,-11.204,357.468,1.0
14.0833,128.179064,37.962663,6743.2196352,45.945,-11.22,357.47,1.0
14.1,128.179062,37.962711,6742.201908,46.139,-11.236,357.471,1.0
14.1166,128.179061,37.96276,6741.181742400001,46.334,-11.253,357.472,1.0
14.1333,128.179059,37.962808,6740.1600528,46.528,-11.269,357.474,1.0
14.15,128.179057,37.962856,6739.135924800001,46.723,-11.285,357.475,1.0
14.1666,128.179055,37.962904,6738.109968000001,46.919,-11.301,357.477,1.0
14.1833,128.179053,37.962952,6737.081877600001,47.115,-11.318,357.478,1.0
14.2,128.179051,37.963,6736.0516536000005,47.311,-11.334,357.48,1.0
14.2166,128.17905,37.963048,6735.019296,47.508,-11.35,357.481,1.0
14.2333,128.179048,37.963097,6733.9851096,47.704,-11.366,357.483,1.0
14.25,128.179046,37.963145,6732.9487896,47.902,-11.383,357.484,1.0
14.2666,128.179044,37.963193,6731.910336,48.099,-11.399,357.486,1.0
14.2833,128.179042,37.963241,6730.8697488,48.297,-11.415,357.488,1.0
14.3,128.179041,37.963289,6729.8273328000005,48.496,-11.431,357.489,1.0
14.3166,128.179039,37.963337,6728.7827832,48.695,-11.447,357.491,1.0
14.3333,128.179037,37.963385,6727.7361,48.894,-11.463,357.493,1.0
14.35,128.179035,37.963434,6726.687283200001,49.093,-11.48,357.494,1.0
14.3666,128.179034,37.963482,6725.636332800001,49.293,-11.496,357.496,1.0
14.3833,128.179032,37.96353,6724.5835536,49.493,-11.512,357.498,1.0
14.4,128.17903,37.963578,6723.5286408,49.694,-11.528,357.499,1.0
14.4166,128.179028,37.963626,6722.4712896,49.895,-11.544,357.501,1.0
14.4333,128.179027,37.963675,6721.412109600001,50.096,-11.56,357.503,1.0
14.45,128.179025,37.963723,6720.3511008000005,50.297,-11.576,357.505,1.0
14.4666,128.179023,37.963771,6719.2876536,50.499,-11.592,357.507,1.0
14.4833,128.179022,37.963819,6718.2223776,50.702,-11.608,357.509,1.0
14.5,128.17902,37.963867,6717.1546632,50.904,-11.624,357.51,1.0
14.5166,128.179018,37.963916,6716.085120000001,51.107,-11.64,357.512,1.0
14.5333,128.179016,37.963964,6715.0134431999995,51.311,-11.656,357.514,1.0
14.55,128.179015,37.964012,6713.9396328,51.515,-11.672,357.516,1.0
14.5666,128.179013,37.96406,6712.8636888,51.719,-11.688,357.518,1.0
14.5833,128.179011,37.964108,6711.785611200001,51.923,-11.704,357.52,1.0
14.6,128.17901,37.964157,6710.705704800001,52.128,-11.72,357.522,1.0
14.6166,128.179008,37.964205,6709.6233600000005,52.333,-11.736,357.524,1.0
14.6333,128.179007,37.964253,6708.5388816,52.539,-11.752,357.527,1.0
14.65,128.179005,37.964301,6707.452574400001,52.744,-11.768,357.529,1.0
14.6666,128.179003,37.96435,6706.364133600001,52.951,-11.784,357.531,1.0
14.6833,128.179002,37.964398,6705.2732544,53.157,-11.8,357.533,1.0
14.7,128.179,37.964446,6704.180546400001,53.364,-11.816,357.535,1.0
14.7166,128.178998,37.964494,6703.085704800001,53.571,-11.832,357.537,1.0
14.7333,128.178997,37.964542,6701.9887296,53.779,-11.848,357.54,1.0
14.75,128.178995,37.964591,6700.889316,53.987,-11.864,357.542,1.0
14.7666,128.178994,37.964639,6699.788073600001,54.195,-11.88,357.544,1.0
