Time,Longitude,Latitude,Altitude,Roll (deg),Pitch (deg),Yaw (deg),Health
0.0,128.181881,37.923646,6999.6231864,0.0,-3.003,0.0,1.0
0.0166,128.181881,37.923691,6999.375384000001,0.0,-3.012,0.0,1.0
0.0333,128.181881,37.923735,6999.1278864000005,-0.014,-3.027,0.001,1.0
0.05,128.181881,37.92378,6998.879169600001,-0.036,-3.041,0.005,1.0
0.0666,128.181881,37.923825,6998.629843199999,-0.067,-3.055,0.011,1.0
0.0833,128.181881,37.92387,6998.379602399999,-0.103,-3.069,0.018,1.0
0.1,128.181881,37.923915,6998.1287520000005,-0.143,-3.084,0.026,1.0
0.1166,128.181881,37.92396,6997.8769872,-0.186,-3.098,0.034,1.0
0.1333,128.181881,37.924005,6997.624308,-0.231,-3.112,0.042,1.0
0.15,128.181881,37.924049,6997.371019200001,-0.278,-3.126,0.05,1.0
0.1666,128.181881,37.924094,6997.116816,-0.326,-3.14,0.058,1.0
0.1833,128.181881,37.924139,6996.8616984,-0.375,-3.154,0.066,1.0
0.2,128.181881,37.924184,6996.6059712,-0.425,-3.167,0.075,1.0
0.2166,128.181881,37.924229,6996.349024800001,-0.476,-3.181,0.083,1.0
0.2333,128.181881,37.924274,6996.0914688,-0.528,-3.194,0.091,1.0
0.25,128.181881,37.924319,6995.8329984,-0.581,-3.208,0.098,1.0
0.2666,128.181881,37.924364,6995.5736136000005,-0.635,-3.221,0.106,1.0
0.2833,128.181881,37.924408,6995.3133144,-0.689,-3.234,0.114,1.0
0.3,128.181881,37.924453,6995.0521008000005,-0.744,-3.247,0.122,1.0
0.3166,128.181881,37.924498,6994.7899728,-0.8,-3.26,0.129,1.0
0.3333,128.181881,37.924543,6994.5269304,-0.857,-3.273,0.137,1.0
0.35,128.181881,37.924588,6994.262973600001,-0.914,-3.285,0.144,1.0
0.3666,128.181881,37.924633,6993.9981024,-0.972,-3.298,0.152,1.0
0.3833,128.181881,37.924678,6993.7323168,-1.031,-3.31,0.159,1.0
0.4,128.181881,37.924722,6993.4656168,-1.09,-3.323,0.166,1.0
0.4166,128.181881,37.924767,6993.1976976000005,-1.15,-3.335,0.173,1.0
0.4333,128.181881,37.924812,6992.9291688,-1.211,-3.348,0.18,1.0
0.45,128.181881,37.924857,6992.6597256,-1.273,-3.36,0.187,1.0
0.4666,128.181881,37.924902,6992.3890632,-1.335,-3.372,0.194,1.0
0.4833,128.181881,37.924947,6992.1174864,-1.398,-3.384,0.201,1.0
0.5,128.181881,37.924992,6991.8453,-1.461,-3.396,0.208,1.0
0.5166,128.181881,37.925036,6991.5718944,-1.525,-3.408,0.214,1.0
0.5333,128.181881,37.925081,6991.297269600001,-1.59,-3.42,0.221,1.0
0.55,128.181881,37.925126,6991.0220352,-1.655,-3.432,0.228,1.0
0.5666,128.181881,37.925171,6990.7455816,-1.721,-3.444,0.234,1.0
0.5833,128.181881,37.925216,6990.4685184,-1.787,-3.456,0.24,1.0
0.6,128.181881,37.925261,6990.190236,-1.854,-3.468,0.247,1.0
0.6166,128.181881,37.925306,6989.9107343999995,-1.922,-3.48,0.253,1.0
0.6333,128.181881,37.925351,6989.630623200001,-1.99,-3.491,0.259,1.0
0.65,128.181881,37.925395,6989.3492928000005,-2.059,-3.503,0.266,1.0
0.6666,128.181881,37.92544,6989.067048,-2.128,-3.515,0.272,1.0
0.6833,128.181881,37.925485,6988.7838888,-2.198,-3.527,0.278,1.0
0.7,128.181881,37.92553,6988.499510400001,-2.269,-3.538,0.284,1.0
0.7166,128.181881,37.925575,6988.2142176,-2.339,-3.55,0.29,1.0
0.7333,128.181881,37.92562,6987.928010400001,-2.411,-3.562,0.296,1.0
0.75,128.181881,37.925665,6987.640584000001,-2.483,-3.573,0.301,1.0
0.7666,128.181881,37.92571,6987.3522432,-2.556,-3.585,0.307,1.0
0.7833,128.181881,37.925754,6987.062988000001,-2.629,-3.596,0.313,1.0
0.8,128.181881,37.925799,6986.772818400001,-2.702,-3.608,0.319,1.0
0.8166,128.181881,37.925844,6986.4814295999995,-2.777,-3.619,0.324,1.0
0.8333,128.181881,37.925889,6986.1891264000005,-2.851,-3.631,0.33,1.0
0.85,128.181881,37.925934,6985.895604,-2.926,-3.642,0.335,1.0
0.8666,128.181881,37.925979,6985.6011672,-3.002,-3.654,0.341,1.0
0.8833,128.181881,37.926024,6985.305816,-3.078,-3.665,0.346,1.0
0.9,128.181881,37.926069,6985.0092456,-3.155,-3.677,0.352,1.0
0.9166,128.181881,37.926113,6984.711760800001,-3.232,-3.688,0.357,1.0
0.9333,128.181881,37.926158,6984.413056800001,-3.31,-3.7,0.362,1.0
0.95,128.181881,37.926203,6984.113438400001,-3.388,-3.711,0.367,1.0
0.9666,128.181881,37.926248,6983.812905600001,-3.467,-3.723,0.372,1.0
0.9833,128.181881,37.926293,6983.5111536,-3.546,-3.734,0.378,1.0
1.0,128.181881,37.926338,6983.2084872000005,-3.625,-3.746,0.383,1.0
1.0166,128.181881,37.926383,6982.904601600001,-3.705,-3.757,0.388,1.0
1.0333,128.181881,37.926428,6982.5998016,-3.786,-3.769,0.393,1.0
1.05,128.181881,37.926473,6982.294087200001,-3.867,-3.78,0.398,1.0
1.0666,128.181881,37.926517,6981.9871536,-3.948,-3.791,0.402,1.0
1.0833,128.181881,37.926562,6981.679000800001,-4.03,-3.803,0.407,1.0
1.1,128.181881,37.926607,6981.369933600001,-4.113,-3.814,0.412,1.0
1.1166,128.181881,37.926652,6981.0599520000005,-4.196,-3.826,0.417,1.0
1.1333,128.181881,37.926697,6980.748751200001,-4.279,-3.837,0.422,1.0
1.15,128.181881,37.926742,6980.436636,-4.363,-3.848,0.426,1.0
1.1666,128.181881,37.926787,6980.123301600001,-4.447,-3.86,0.431,1.0
1.1833,128.181881,37.926832,6979.8090528,-4.532,-3.871,0.435,1.0
1.2,128.181881,37.926877,6979.4935848,-4.617,-3.883,0.44,1.0
1.2166,128.181881,37.926922,6979.1772024,-4.703,-3.894,0.444,1.0
1.2333,128.181881,37.926966,6978.8596008,-4.789,-3.906,0.449,1.0
1.25,128.181881,37.927011,6978.54078,-4.875,-3.917,0.453,1.0
1.2666,128.181881,37.927056,6978.2213496,-4.962,-3.928,0.458,1.0
1.2833,128.181881,37.927101,6977.9003952,-5.049,-3.94,0.462,1.0
1.3,128.181881,37.927146,6977.578526400001,-5.137,-3.951,0.466,1.0
1.3166,128.181881,37.927191,6977.255743199999,-5.225,-3.963,0.471,1.0
1.3333,128.181881,37.927236,6976.931740800001,-5.314,-3.974,0.475,1.0
1.35,128.181881,37.927281,6976.606519200001,-5.403,-3.985,0.479,1.0
1.3666,128.181881,37.927326,6976.280383200001,-5.492,-3.997,0.483,1.0
1.3833,128.181881,37.927371,6975.953028000001,-5.582,-4.008,0.487,1.0
1.4,128.181881,37.927415,6975.6247584,-5.673,-4.02,0.491,1.0
1.4166,128.181881,37.92746,6975.295269600001,-5.763,-4.031,0.496,1.0
1.4333,128.181881,37.927505,6974.9648664,-5.855,-4.042,0.5,1.0
1.45,128.181881,37.92755,6974.633244,-5.946,-4.054,0.504,1.0
1.4666,128.181881,37.927595,6974.3004024,-6.038,-4.065,0.507,1.0
1.4833,128.181881,37.92764,6973.9666464,-6.13,-4.077,0.511,1.0
1.5,128.181881,37.927685,6973.6316712,-6.223,-4.088,0.515,1.0
1.5166,128.181881,37.92773,6973.295781600001,-6.316,-4.099,0.519,1.0
1.5333,128.181881,37.927775,6972.9586728,-6.41,-4.111,0.523,1.0
1.55,128.181881,37.92782,6972.620344800001,-6.504,-4.122,0.527,1.0
1.5666,128.181881,37.927865,6972.2811024,-6.598,-4.133,0.53,1.0
1.5833,128.181881,37.92791,6971.9406408,-6.693,-4.145,0.534,1.0
1.6,128.181881,37.927955,6971.599264800001,-6.788,-4.156,0.538,1.0
1.6166,128.181881,37.927999,6971.2566696,-6.884,-4.168,0.541,1.0
1.6333,128.181881,37.928044,6970.9128552,-6.98,-4.179,0.545,1.0
1.65,128.181881,37.928089,6970.5681264,-7.076,-4.19,0.549,1.0
1.6666,128.181881,37.928134,6970.2221784,-7.173,-4.202,0.552,1.0
1.6833,128.181881,37.928179,6969.875011200001,-7.27,-4.213,0.556,1.0
1.7,128.181881,37.928224,6969.5269296,-7.367,-4.225,0.559,1.0
1.7166,128.181881,37.928269,6969.177628800001,-7.465,-4.236,0.563,1.0
1.7333,128.181881,37.928314,6968.8271088,-7.564,-4.247,0.566,1.0
1.75,128.181881,37.928359,6968.475674400001,-7.662,-4.259,0.569,1.0
1.7666,128.181881,37.928404,6968.1230208,-7.761,-4.27,0.573,1.0
1.7833,128.181881,37.928449,6967.769148,-7.861,-4.282,0.576,1.0
1.8,128.181881,37.928494,6967.4143608,-7.961,-4.293,0.579,1.0
1.8166,128.181881,37.928539,6967.0583544,-8.061,-4.304,0.583,1.0
1.8333,128.181881,37.928584,6966.7011288,-8.161,-4.316,0.586,1.0
1.85,128.181881,37.928629,6966.342684000001,-8.262,-4.327,0.589,1.0
1.8666,128.181881,37.928674,6965.9833248,-8.364,-4.338,0.592,1.0
1.8833,128.181881,37.928719,6965.6227464,-8.465,-4.35,0.596,1.0
1.9,128.181881,37.928764,6965.2612536,-8.567,-4.361,0.599,1.0
1.9166,128.181881,37.928809,6964.898236800001,-8.67,-4.373,0.602,1.0
1.9333,128.181881,37.928853,6964.534305600001,-8.773,-4.384,0.605,1.0
1.95,128.181881,37.928898,6964.169460000001,-8.876,-4.395,0.608,1.0
1.9666,128.181881,37.928943,6963.803090400001,-8.98,-4.407,0.611,1.0
1.9833,128.181881,37.928988,6963.435806400001,-9.084,-4.418,0.614,1.0
2.0,128.181881,37.929033,6963.0673032,-9.188,-4.429,0.617,1.0
2.0166,128.181881,37.929078,6962.6975808,-9.293,-4.441,0.62,1.0
2.0333,128.181881,37.929123,6962.326944,-9.398,-4.452,0.623,1.0
2.05,128.181881,37.929168,6961.955088000001,-9.503,-4.464,0.626,1.0
2.0666,128.181881,37.929213,6961.5820128000005,-9.609,-4.475,0.628,1.0
2.0833,128.181881,37.929258,6961.2077184,-9.715,-4.486,0.631,1.0
2.1,128.181881,37.929303,6960.8322048,-9.822,-4.498,0.634,1.0
2.1166,128.181881,37.929348,6960.4557768,-9.929,-4.509,0.637,1.0
2.1333,128.181881,37.929393,6960.0781296,-10.036,-4.52,0.639,1.0
2.15,128.181881,37.929438,6959.6992632,-10.144,-4.532,0.642,1.0
2.1666,128.181881,37.929483,6959.3191776,-10.252,-4.543,0.645,1.0
2.1833,128.181881,37.929528,6958.9381776,-10.36,-4.555,0.648,1.0
2.2,128.181881,37.929573,6958.5559584,-10.469,-4.566,0.65,1.0
2.2166,128.181881,37.929618,6958.172520000001,-10.578,-4.577,0.653,1.0
2.2333,128.181881,37.929663,6957.7878624,-10.688,-4.589,0.655,1.0
2.25,128.181881,37.929708,6957.4019856,-10.797,-4.6,0.658,1.0
2.2666,128.18188,37.929753,6957.0151944,-10.908,-4.611,0.66,1.0
2.2833,128.18188,37.929798,6956.626879200001,-11.018,-4.623,0.663,1.0
2.3,128.18188,37.929843,6956.237649600001,-11.129,-4.634,0.665,1.0
2.3166,128.18188,37.929888,6955.847200800001,-11.24,-4.646,0.668,1.0
2.3333,128.18188,37.929933,6955.455532800001,-11.352,-4.657,0.67,1.0
2.35,128.18188,37.929978,6955.062950400001,-11.464,-4.668,0.673,1.0
2.3666,128.18188,37.930023,6954.668844,-11.577,-4.68,0.675,1.0
2.3833,128.18188,37.930068,6954.2738232,-11.689,-4.691,0.678,1.0
2.4,128.18188,37.930113,6953.8772784,-11.802,-4.703,0.68,1.0
2.4166,128.18188,37.930158,6953.479819200001,-11.916,-4.714,0.682,1.0
2.4333,128.18188,37.930203,6953.0811408,-12.03,-4.725,0.684,1.0
2.45,128.18188,37.930248,6952.6812432,-12.144,-4.737,0.687,1.0
2.4666,128.18188,37.930293,6952.2804312,-12.258,-4.748,0.689,1.0
2.4833,128.18188,37.930339,6951.878095200001,-12.373,-4.759,0.691,1.0
2.5,128.18188,37.930384,6951.47454,-12.489,-4.771,0.693,1.0
2.5166,128.18188,37.930429,6951.070070400001,-12.604,-4.782,0.695,1.0
2.5333,128.18188,37.930474,6950.6643816000005,-12.72,-4.794,0.698,1.0
2.55,128.18188,37.930519,6950.257168800001,-12.837,-4.805,0.7,1.0
2.5666,128.18188,37.930564,6949.8490416,-12.953,-4.816,0.702,1.0
2.5833,128.18188,37.930609,6949.439695200001,-13.071,-4.828,0.704,1.0
2.6,128.181879,37.930654,6949.0291296,-13.188,-4.839,0.706,1.0
2.6166,128.181879,37.930699,6948.6173448,-13.306,-4.851,0.708,1.0
2.6333,128.181879,37.930744,6948.2043408,-13.424,-4.862,0.71,1.0
2.65,128.181879,37.930789,6947.7901176000005,-13.543,-4.873,0.712,1.0
2.6666,128.181879,37.930834,6947.3746752,-13.662,-4.885,0.714,1.0
2.6833,128.181879,37.930879,6946.9583184,-13.781,-4.896,0.716,1.0
2.7,128.181879,37.930924,6946.540437600001,-13.901,-4.908,0.718,1.0
2.7166,128.181879,37.930969,6946.1213376000005,-14.021,-4.919,0.719,1.0
2.7333,128.181879,37.931014,6945.701323200001,-14.141,-4.931,0.721,1.0
2.75,128.181879,37.931059,6945.2797848,-14.262,-4.942,0.723,1.0
2.7666,128.181879,37.931105,6944.857027200001,-14.383,-4.953,0.725,1.0
2.7833,128.181879,37.93115,6944.433355200001,-14.505,-4.965,0.727,1.0
2.8,128.181879,37.931195,6944.008159200001,-14.627,-4.976,0.728,1.0
2.8166,128.181878,37.93124,6943.5820488,-14.749,-4.988,0.73,1.0
2.8333,128.181878,37.931285,6943.154414400001,-14.872,-4.999,0.732,1.0
2.85,128.181878,37.93133,6942.725865600001,-14.995,-5.01,0.734,1.0
2.8666,128.181878,37.931375,6942.2957928000005,-15.118,-5.022,0.735,1.0
2.8833,128.181878,37.93142,6941.8645008,-15.242,-5.033,0.737,1.0
2.9,128.181878,37.931465,6941.4322944000005,-15.366,-5.045,0.739,1.0
2.9166,128.181878,37.93151,6940.998564,-15.491,-5.056,0.74,1.0
2.9333,128.181878,37.931556,6940.563614400001,-15.616,-5.068,0.742,1.0
2.95,128.181878,37.931601,6940.1274456,-15.741,-5.079,0.743,1.0
2.9666,128.181878,37.931646,6939.6903624,-15.867,-5.091,0.745,1.0
2.9833,128.181877,37.931691,6939.251755200001,-15.993,-5.102,0.746,1.0
3.0,128.181877,37.931736,6938.811928800001,-16.119,-5.113,0.748,1.0
3.0166,128.181877,37.931781,6938.370883200001,-16.246,-5.125,0.749,1.0
3.0333,128.181877,37.931826,6937.9283136,-16.373,-5.136,0.751,1.0
3.05,128.181877,37.931871,6937.4848296,-16.5,-5.148,0.752,1.0
3.0666,128.181877,37.931917,6937.0401264,-16.628,-5.159,0.753,1.0
3.0833,128.181877,37.931962,6936.5938992,-16.757,-5.171,0.755,1.0
3.1,128.181877,37.932007,6936.1467576,-16.885,-5.182,0.756,1.0
3.1166,128.181877,37.932052,6935.6980920000005,-17.014,-5.193,0.757,1.0
3.1333,128.181876,37.932097,6935.248512,-17.144,-5.205,0.759,1.0
3.15,128.181876,37.932142,6934.797408,-17.273,-5.216,0.76,1.0
3.1666,128.181876,37.932187,6934.3450848,-17.404,-5.228,0.761,1.0
3.1833,128.181876,37.932233,6933.891237600001,-17.534,-5.239,0.762,1.0
3.2,128.181876,37.932278,6933.436476,-17.665,-5.251,0.764,1.0
3.2166,128.181876,37.932323,6932.9804952,-17.796,-5.262,0.765,1.0
3.2333,128.181876,37.932368,6932.5229904,-17.928,-5.273,0.766,1.0
3.25,128.181875,37.932413,6932.0642664,-18.06,-5.285,0.767,1.0
3.2666,128.181875,37.932458,6931.6043232,-18.192,-5.296,0.768,1.0
3.2833,128.181875,37.932504,6931.143160800001,-18.325,-5.308,0.769,1.0
3.3,128.181875,37.932549,6930.680779200001,-18.458,-5.319,0.77,1.0
3.3166,128.181875,37.932594,6930.2168736,-18.591,-5.33,0.771,1.0
3.3333,128.181875,37.932639,6929.7520536,-18.725,-5.342,0.772,1.0
3.35,128.181874,37.932684,6929.285709600001,-18.86,-5.353,0.773,1.0
3.3666,128.181874,37.93273,6928.818146400001,-18.994,-5.365,0.774,1.0
3.3833,128.181874,37.932775,6928.349059200001,-19.129,-5.376,0.775,1.0
3.4,128.181874,37.93282,6927.8790576,-19.264,-5.387,0.776,1.0
3.4166,128.181874,37.932865,6927.407532,-19.4,-5.399,0.777,1.0
3.4333,128.181874,37.93291,6926.934787200001,-19.535,-5.41,0.778,1.0
3.45,128.181873,37.932956,6926.4608232,-19.671,-5.422,0.778,1.0
3.4666,128.181873,37.933001,6925.9853352,-19.807,-5.433,0.779,1.0
3.4833,128.181873,37.933046,6925.5086280000005,-19.942,-5.444,0.78,1.0
3.5,128.181873,37.933091,6925.030396800001,-20.078,-5.455,0.781,1.0
3.5166,128.181873,37.933136,6924.5512512000005,-20.213,-5.467,0.782,1.0
3.5333,128.181873,37.933182,6924.0705816,-20.348,-5.478,0.782,1.0
3.55,128.181872,37.933227,6923.588692800001,-20.484,-5.489,0.783,1.0
3.5666,128.181872,37.933272,6923.10528,-20.619,-5.501,0.784,1.0
3.5833,128.181872,37.933317,6922.620648,-20.753,-5.512,0.784,1.0
3.6,128.181872,37.933363,6922.134492000001,-20.888,-5.523,0.785,1.0
3.6166,128.181871,37.933408,6921.6474216,-21.022,-5.534,0.786,1.0
3.6333,128.181871,37.933453,6921.1585224,-21.157,-5.545,0.786,1.0
3.65,128.181871,37.933498,6920.6687088,-21.291,-5.556,0.787,1.0
3.6666,128.181871,37.933544,6920.1773712,-21.424,-5.568,0.787,1.0
3.6833,128.181871,37.933589,6919.6848144000005,-21.558,-5.579,0.788,1.0
3.7,128.18187,37.933634,6919.1907336,-21.692,-5.59,0.788,1.0
3.7166,128.18187,37.933679,6918.695433600001,-21.825,-5.601,0.789,1.0
3.7333,128.18187,37.933725,6918.1986096,-21.958,-5.612,0.789,1.0
3.75,128.18187,37.93377,6917.7005664,-22.091,-5.623,0.789,1.0
3.7666,128.18187,37.933815,6917.201304,-22.223,-5.634,0.79,1.0
3.7833,128.181869,37.933861,6916.7005176,-22.356,-5.645,0.79,1.0
3.8,128.181869,37.933906,6916.1982072,-22.488,-5.656,0.79,1.0
3.8166,128.181869,37.933951,6915.6946776,-22.62,-5.667,0.79,1.0
3.8333,128.181869,37.933996,6915.1899288,-22.752,-5.679,0.791,1.0
3.85,128.181868,37.934042,6914.683656000001,-22.884,-5.69,0.791,1.0
3.8666,128.181868,37.934087,6914.176164,-23.015,-5.701,0.791,1.0
3.8833,128.181868,37.934132,6913.6674528,-23.147,-5.712,0.791,1.0
3.9,128.181868,37.934178,6913.1569128,-23.278,-5.723,0.791,1.0
3.9166,128.181867,37.934223,6912.6454584,-23.409,-5.734,0.791,1.0
3.9333,128.181867,37.934268,6912.132175199999,-23.539,-5.745,0.791,1.0
3.95,128.181867,37.934314,6911.617977600001,-23.67,-5.756,0.791,1.0
3.9666,128.181866,37.934359,6911.102256000001,-23.8,-5.767,0.791,1.0
3.9833,128.181866,37.934404,6910.585010400001,-23.93,-5.778,0.791,1.0
4.0,128.181866,37.93445,6910.066545600001,-24.06,-5.789,0.791,1.0
4.0166,128.181866,37.934495,6909.546556800001,-24.19,-5.8,0.791,1.0
4.0333,128.181865,37.93454,6909.025044,-24.319,-5.811,0.79,1.0
4.05,128.181865,37.934586,6908.502312,-24.449,-5.822,0.79,1.0
4.0666,128.181865,37.934631,6907.978360800001,-24.578,-5.833,0.79,1.0
4.0833,128.181864,37.934676,6907.4528856,-24.707,-5.844,0.79,1.0
4.1,128.181864,37.934722,6906.9261912,-24.835,-5.855,0.789,1.0
4.1166,128.181864,37.934767,6906.3976680000005,-24.964,-5.866,0.789,1.0
4.1333,128.181864,37.934813,6905.8682304,-25.092,-5.877,0.789,1.0
4.15,128.181863,37.934858,6905.336964,-25.22,-5.888,0.788,1.0
4.1666,128.181863,37.934903,6904.804783200001,-25.348,-5.899,0.788,1.0
4.1833,128.181863,37.934949,6904.2707736,-25.475,-5.91,0.787,1.0
4.2,128.181862,37.934994,6903.7355448,-25.603,-5.921,0.787,1.0
4.2166,128.181862,37.935039,6903.198792000001,-25.73,-5.932,0.786,1.0
4.2333,128.181862,37.935085,6902.660820000001,-25.856,-5.943,0.786,1.0
4.25,128.181861,37.93513,6902.121324000001,-25.983,-5.954,0.785,1.0
4.2666,128.181861,37.935176,6901.5806088,-26.109,-5.965,0.785,1.0
4.2833,128.181861,37.935221,6901.038369600001,-26.235,-5.976,0.784,1.0
4.3,128.18186,37.935266,6900.4946064000005,-26.361,-5.987,0.783,1.0
4.3166,128.18186,37.935312,6899.949319200001,-26.487,-5.998,0.783,1.0
4.3333,128.18186,37.935357,6899.4028128,-26.612,-6.009,0.782,1.0
4.35,128.181859,37.935403,6898.8550872000005,-26.737,-6.02,0.781,1.0
4.3666,128.181859,37.935448,6898.305532800001,-26.862,-6.031,0.78,1.0
4.3833,128.181859,37.935494,6897.7547592,-26.986,-6.042,0.779,1.0
4.4,128.181858,37.935539,6897.2027664,-27.11,-6.053,0.779,1.0
4.4166,128.181858,37.935585,6896.6489448,-27.234,-6.064,0.778,1.0
4.4333,128.181857,37.93563,6896.093904,-27.358,-6.075,0.777,1.0
4.45,128.181857,37.935675,6895.5373392,-27.481,-6.087,0.776,1.0
4.4666,128.181857,37.935721,6894.9795552000005,-27.604,-6.098,0.775,1.0
4.4833,128.181856,37.935766,6894.420247200001,-27.727,-6.109,0.774,1.0
4.5,128.181856,37.935812,6893.8594152000005,-27.849,-6.121,0.773,1.0
4.5166,128.181855,37.935857,6893.2970592,-27.971,-6.132,0.773,1.0
4.5333,128.181855,37.935903,6892.733484000001,-28.093,-6.143,0.772,1.0
4.55,128.181855,37.935948,6892.1683848,-28.214,-6.155,0.771,1.0
4.5666,128.181854,37.935994,6891.6017616,-28.335,-6.167,0.77,1.0
4.5833,128.181854,37.936039,6891.0336144,-28.455,-6.178,0.769,1.0
4.6,128.181853,37.936085,6890.464248,-28.575,-6.19,0.768,1.0
4.6166,128.181853,37.93613,6889.8933576,-28.694,-6.201,0.767,1.0
4.6333,128.181853,37.936176,6889.320943199999,-28.813,-6.213,0.766,1.0
4.65,128.181852,37.936221,6888.7470048000005,-28.932,-6.225,0.765,1.0
4.6666,128.181852,37.936267,6888.1715424,-29.05,-6.237,0.764,1.0
4.6833,128.181851,37.936312,6887.594860800001,-29.168,-6.249,0.763,1.0
4.7,128.181851,37.936358,6887.0166552,-29.286,-6.26,0.762,1.0
4.7166,128.181851,37.936403,6886.4369256,-29.403,-6.272,0.761,1.0
4.7333,128.18185,37.936449,6885.855672000001,-29.519,-6.284,0.76,1.0
4.75,128.18185,37.936495,6885.2728944,-29.636,-6.296,0.759,1.0
4.7666,128.181849,37.93654,6884.688897600001,-29.752,-6.308,0.758,1.0
4.7833,128.181849,37.936586,6884.103072,-29.867,-6.32,0.757,1.0
4.8,128.181848,37.936631,6883.5160272,-29.982,-6.332,0.756,1.0
4.8166,128.181848,37.936677,6882.9274584,-30.097,-6.345,0.755,1.0
4.8333,128.181847,37.936722,6882.337365600001,-30.211,-6.357,0.754,1.0
4.85,128.181847,37.936768,6881.7457488,-30.325,-6.369,0.753,1.0
4.8666,128.181846,37.936813,6881.152608,-30.439,-6.381,0.752,1.0
4.8833,128.181846,37.936859,6880.5579431999995,-30.552,-6.393,0.751,1.0
4.9,128.181845,37.936905,6879.9620592,-30.665,-6.405,0.749,1.0
4.9166,128.181845,37.93695,6879.364346400001,-30.777,-6.418,0.748,1.0
4.9333,128.181844,37.936996,6878.765414400001,-30.889,-6.43,0.747,1.0
4.95,128.181844,37.937041,6878.1646536,-31.0,-6.442,0.746,1.0
4.9666,128.181843,37.937087,6877.5626736,-31.112,-6.455,0.744,1.0
4.9833,128.181843,37.937133,6876.959169600001,-31.222,-6.467,0.743,1.0
5.0,128.181842,37.937178,6876.353836800001,-31.333,-6.479,0.742,1.0
5.0166,128.181842,37.937224,6875.7472848,-31.443,-6.492,0.741,1.0
5.0333,128.181841,37.93727,6875.1392088,-31.553,-6.504,0.739,1.0
5.05,128.181841,37.937315,6874.5296088000005,-31.662,-6.517,0.738,1.0
5.0666,128.18184,37.937361,6873.91818,-31.771,-6.529,0.737,1.0
5.0833,128.18184,37.937407,6873.305532,-31.88,-6.542,0.735,1.0
5.1,128.181839,37.937452,6872.691360000001,-31.989,-6.554,0.734,1.0
5.1166,128.181839,37.937498,6872.075664000001,-32.097,-6.566,0.732,1.0
5.1333,128.181838,37.937544,6871.4581392,-32.205,-6.579,0.731,1.0
5.15,128.181838,37.937589,6870.839395200001,-32.312,-6.592,0.729,1.0
5.1666,128.181837,37.937635,6870.2191272,-32.419,-6.604,0.728,1.0
5.1833,128.181837,37.937681,6869.5973352,-32.526,-6.617,0.726,1.0
5.2,128.181836,37.937726,6868.973714400001,-32.632,-6.629,0.725,1.0
5.2166,128.181836,37.937772,6868.348874400001,-32.739,-6.642,0.723,1.0
5.2333,128.181835,37.937818,6867.722205600001,-32.845,-6.654,0.721,1.0
5.25,128.181834,37.937863,6867.0943176,-32.95,-6.667,0.72,1.0
5.2666,128.181834,37.937909,6866.464600800001,-33.056,-6.68,0.718,1.0
5.2833,128.181833,37.937955,6865.8336648,-33.161,-6.692,0.717,1.0
5.3,128.181833,37.938,6865.200900000001,-33.266,-6.705,0.715,1.0
5.3166,128.181832,37.938046,6864.566611200001,-33.37,-6.718,0.713,1.0
5.3333,128.181831,37.938092,6863.9307984,-33.475,-6.731,0.711,1.0
5.35,128.181831,37.938138,6863.2934616,-33.579,-6.744,0.71,1.0
5.3666,128.18183,37.938183,6862.6546008000005,-33.683,-6.757,0.708,1.0
5.3833,128.18183,37.938229,6862.014216,-33.786,-6.769,0.706,1.0
5.4,128.181829,37.938275,6861.3723072,-33.89,-6.782,0.705,1.0
5.4166,128.181828,37.938321,6860.728569600001,-33.993,-6.795,0.703,1.0
5.4333,128.181828,37.938366,6860.0836128,-34.096,-6.808,0.701,1.0
5.45,128.181827,37.938412,6859.4368272,-34.199,-6.821,0.699,1.0
5.4666,128.181827,37.938458,6858.7885176,-34.302,-6.834,0.697,1.0
5.4833,128.181826,37.938504,6858.1386840000005,-34.405,-6.847,0.696,1.0
5.5,128.181825,37.93855,6857.4873264,-34.507,-6.86,0.694,1.0
5.5166,128.181825,37.938595,6856.8344448,-34.609,-6.873,0.692,1.0
5.5333,128.181824,37.938641,6856.1800392,-34.711,-6.886,0.69,1.0
5.55,128.181823,37.938687,6855.5238048,-34.813,-6.899,0.688,1.0
5.5666,128.181823,37.938733,6854.8660464,-34.915,-6.913,0.686,1.0
5.5833,128.181822,37.938779,6854.2067640000005,-35.016,-6.926,0.684,1.0
5.6,128.181822,37.938824,6853.5459576,-35.118,-6.939,0.682,1.0
5.6166,128.181821,37.93887,6852.883627200001,-35.219,-6.952,0.68,1.0
5.6333,128.18182,37.938916,6852.219468,-35.32,-6.965,0.678,1.0
5.65,128.18182,37.938962,6851.5540896,-35.421,-6.978,0.676,1.0
5.6666,128.181819,37.939008,6850.8868824,-35.522,-6.992,0.674,1.0
5.6833,128.181818,37.939054,6850.217846400001,-35.623,-7.005,0.672,1.0
5.7,128.181817,37.939099,6849.5475912,-35.723,-7.018,0.67,1.0
5.7166,128.181817,37.939145,6848.875507199999,-35.824,-7.031,0.668,1.0
5.7333,128.181816,37.939191,6848.202204,-35.924,-7.045,0.666,1.0
5.75,128.181815,37.939237,6847.527072,-36.024,-7.058,0.664,1.0
5.7666,128.181815,37.939283,6846.850111200001,-36.124,-7.071,0.662,1.0
5.7833,128.181814,37.939329,6846.1719312000005,-36.224,-7.085,0.66,1.0
5.8,128.181813,37.939375,6845.4919224000005,-36.324,-7.098,0.657,1.0
5.8166,128.181813,37.939421,6844.8103896,-36.424,-7.112,0.655,1.0
5.8333,128.181812,37.939466,6844.127028000001,-36.524,-7.125,0.653,1.0
5.85,128.181811,37.939512,6843.442447200001,-36.624,-7.139,0.651,1.0
5.8666,128.18181,37.939558,6842.756037600001,-36.724,-7.152,0.649,1.0
5.8833,128.18181,37.939604,6842.068104,-36.823,-7.166,0.647,1.0
5.9,128.181809,37.93965,6841.378341600001,-36.923,-7.179,0.644,1.0
5.9166,128.181808,37.939696,6840.687055200001,-37.022,-7.193,0.642,1.0
5.9333,128.181808,37.939742,6839.9942448,-37.122,-7.206,0.64,1.0
5.95,128.181807,37.939788,6839.299910400001,-37.221,-7.22,0.638,1.0
5.9666,128.181806,37.939834,6838.603747200001,-37.321,-7.234,0.635,1.0
5.9833,128.181805,37.93988,6837.90606,-37.42,-7.247,0.633,1.0
6.0,128.181805,37.939926,6837.2068488,-37.519,-7.261,0.631,1.0
6.0166,128.181804,37.939972,6836.5058088000005,-37.618,-7.275,0.629,1.0
6.0333,128.181803,37.940018,6835.8032448,-37.718,-7.288,0.626,1.0
6.05,128.181802,37.940064,6835.099156800001,-37.817,-7.302,0.624,1.0
6.0666,128.181801,37.94011,6834.39324,-37.916,-7.316,0.621,1.0
6.0833,128.181801,37.940155,6833.6857992000005,-38.015,-7.329,0.619,1.0
6.1,128.1818,37.940201,6832.9768343999995,-38.114,-7.343,0.617,1.0
6.1166,128.181799,37.940247,6832.2660408,-38.213,-7.357,0.614,1.0
6.1333,128.181798,37.940293,6831.553723200001,-38.313,-7.371,0.612,1.0
6.15,128.181797,37.940339,6830.8395768,-38.412,-7.384,0.609,1.0
6.1666,128.181797,37.940385,6830.123906400001,-38.511,-7.398,0.607,1.0
6.1833,128.181796,37.940431,6829.406712,-38.61,-7.412,0.604,1.0
6.2,128.181795,37.940477,6828.6876888,-38.709,-7.426,0.602,1.0
6.2166,128.181794,37.940523,6827.9671416,-38.808,-7.439,0.599,1.0
6.2333,128.181793,37.94057,6827.245070400001,-38.907,-7.453,0.597,1.0
6.25,128.181793,37.940616,6826.521170400001,-39.007,-7.467,0.594,1.0
6.2666,128.181792,37.940662,6825.795746400001,-39.106,-7.481,0.591,1.0
6.2833,128.181791,37.940708,6825.0684936,-39.205,-7.495,0.589,1.0
6.3,128.18179,37.940754,6824.3397168,-39.304,-7.508,0.586,1.0
6.3166,128.181789,37.9408,6823.609111200001,-39.404,-7.522,0.583,1.0
6.3333,128.181788,37.940846,6822.8769816,-39.503,-7.536,0.581,1.0
6.35,128.181788,37.940892,6822.143328,-39.602,-7.55,0.578,1.0
6.3666,128.181787,37.940938,6821.407845600001,-39.702,-7.563,0.575,1.0
6.3833,128.181786,37.940984,6820.6708392,-39.801,-7.577,0.572,1.0
6.4,128.181785,37.94103,6819.932004,-39.901,-7.591,0.569,1.0
6.4166,128.181784,37.941076,6819.1916448,-40.001,-7.605,0.566,1.0
6.4333,128.181783,37.941122,6818.449456800001,-40.1,-7.619,0.564,1.0
6.45,128.181782,37.941168,6817.7057448000005,-40.2,-7.632,0.561,1.0
6.4666,128.181782,37.941214,6816.960204,-40.3,-7.646,0.558,1.0
6.4833,128.181781,37.941261,6816.2131392,-40.4,-7.66,0.555,1.0
6.5,128.18178,37.941307,6815.4645504,-40.5,-7.673,0.552,1.0
6.5166,128.181779,37.941353,6814.714132800001,-40.6,-7.687,0.549,1.0
6.5333,128.181778,37.941399,6813.9618864,-40.701,-7.701,0.545,1.0
6.55,128.181777,37.941445,6813.208116,-40.801,-7.715,0.542,1.0
6.5666,128.181776,37.941491,6812.4528216,-40.902,-7.728,0.539,1.0
6.5833,128.181775,37.941537,6811.6956984,-41.002,-7.742,0.536,1.0
6.6,128.181774,37.941583,6810.9370512000005,-41.103,-7.756,0.533,1.0
6.6166,128.181773,37.94163,6810.1765752,-41.204,-7.77,0.529,1.0
6.6333,128.181772,37.941676,6809.4142704000005,-41.305,-7.783,0.526,1.0
6.65,128.181772,37.941722,6808.650746400001,-41.407,-7.797,0.523,1.0
6.6666,128.181771,37.941768,6807.8850888,-41.508,-7.811,0.52,1.0
6.6833,128.18177,37.941814,6807.1179071999995,-41.61,-7.824,0.516,1.0
6.7,128.181769,37.94186,6806.349201600001,-41.712,-7.838,0.513,1.0
6.7166,128.181768,37.941907,6805.5786672,-41.814,-7.852,0.509,1.0
6.7333,128.181767,37.941953,6804.8066088000005,-41.916,-7.865,0.506,1.0
6.75,128.181766,37.941999,6804.0327216000005,-42.019,-7.879,0.502,1.0
6.7666,128.181765,37.942045,6803.2573104,-42.122,-7.893,0.499,1.0
6.7833,128.181764,37.942091,6802.480070400001,-42.225,-7.906,0.495,1.0
6.8,128.181763,37.942138,6801.7010016,-42.329,-7.92,0.492,1.0
6.8166,128.181762,37.942184,6800.920408800001,-42.432,-7.933,0.488,1.0
6.8333,128.181761,37.94223,6800.138292000001,-42.536,-7.947,0.484,1.0
6.85,128.18176,37.942276,6799.354956000001,-42.648,-7.959,0.478,1.0
6.8666,128.181759,37.942323,6798.570096,-42.767,-7.968,0.469,1.0
6.8833,128.181758,37.942369,6797.7834072,-42.892,-7.977,0.458,1.0
6.9,128.181757,37.942415,6796.9954992,-43.024,-7.985,0.447,0.9998934257925222
6.9166,128.181756,37.942461,6796.2057624,-43.161,-7.992,0.435,0.9995751145760914
6.9333,128.181755,37.942508,6795.414806400001,-43.303,-7.998,0.423,0.9990427022236528
6.95,128.181754,37.942554,6794.6223264,-43.449,-8.005,0.411,0.998296241072415
6.9666,128.181753,37.9426,6793.8280176,-43.597,-8.012,0.399,0.9973381973596228
6.9833,128.181752,37.942646,6793.0321848,-43.749,-8.019,0.387,0.9973381973596228
7.0,128.181751,37.942693,6792.234828000001,-43.903,-8.025,0.376,0.9973381973596228
7.0166,128.18175,37.942739,6791.436252,-44.058,-8.032,0.364,0.9973381973596228
7.0333,128.181749,37.942785,6790.635847200001,-44.216,-8.039,0.353,0.9973381973596228
7.05,128.181748,37.942832,6789.833918400001,-44.374,-8.047,0.342,0.9973381973596228
7.0666,128.181747,37.942878,6789.030465600001,-44.534,-8.054,0.331,0.9973381973596228
7.0833,128.181746,37.942924,6788.2254888,-44.695,-8.062,0.32,0.9973381973596228
7.1,128.181744,37.94297,6787.418988,-44.857,-8.069,0.309,0.9973381973596228
7.1166,128.181743,37.943017,6786.6109632,-45.02,-8.077,0.299,0.9973381973596228
7.1333,128.181742,37.943063,6785.8011096,-45.183,-8.085,0.288,0.9973381973596228
7.15,128.181741,37.943109,6784.990036800001,-45.347,-8.093,0.278,0.9973381973596228
7.1666,128.18174,37.943156,6784.17744,-45.512,-8.101,0.268,0.9973381973596228
7.1833,128.181739,37.943202,6783.363319200001,-45.678,-8.109,0.257,0.9973381973596228
7.2,128.181738,37.943248,6782.547674400001,-45.844,-8.117,0.247,0.9973381973596228
7.2166,128.181737,37.943295,6781.7305056000005,-46.012,-8.126,0.237,0.9973381973596228
7.2333,128.181736,37.943341,6780.9118128,-46.179,-8.134,0.227,0.9973381973596228
7.25,128.181734,37.943388,6780.091596,-46.348,-8.143,0.217,0.9973381973596228
7.2666,128.181733,37.943434,6779.2698552,-46.517,-8.151,0.207,0.9973381973596228
7.2833,128.181732,37.94348,6778.4465904,-46.687,-8.16,0.197,0.9973381973596228
7.3,128.181731,37.943527,6777.621801600001,-46.858,-8.168,0.187,0.9973381973596228
7.3166,128.18173,37.943573,6776.7954887999995,-47.029,-8.177,0.177,0.9973381973596228
7.3333,128.181728,37.943619,6775.967652000001,-47.201,-8.186,0.167,0.9973381973596228
7.35,128.181727,37.943666,6775.138596000001,-47.374,-8.195,0.157,0.9973381973596228
7.3666,128.181726,37.943712,6774.307711200001,-47.548,-8.204,0.146,0.9973381973596228
7.3833,128.181725,37.943759,6773.4753024,-47.723,-8.212,0.136,0.9973381973596228
7.4,128.181724,37.943805,6772.641674400001,-47.899,-8.221,0.126,0.9973381973596228
7.4166,128.181722,37.943851,6771.8062176,-48.076,-8.23,0.116,0.9973381973596228
7.4333,128.181721,37.943898,6770.9695416,-48.254,-8.239,0.106,0.9973381973596228
7.45,128.18172,37.943944,6770.1313416,-48.432,-8.248,0.096,0.9973381973596228
7.4666,128.181719,37.943991,6769.2913128,-48.612,-8.257,0.086,0.9973381973596228
7.4833,128.181717,37.944037,6768.4500648,-48.793,-8.266,0.076,0.9973381973596228
7.5,128.181716,37.944084,6767.607292800001,-48.975,-8.275,0.065,0.9973381973596228
7.5166,128.181715,37.94413,6766.762996800001,-49.159,-8.284,0.055,0.9973381973596228
7.5333,128.181714,37.944176,6765.917176800001,-49.343,-8.293,0.045,0.9973381973596228
7.55,128.181712,37.944223,6765.069832800001,-49.529,-8.302,0.034,0.9973381973596228
7.5666,128.181711,37.944269,6764.221269600001,-49.716,-8.311,0.024,0.9973381973596228
7.5833,128.18171,37.944316,6763.3708776,-49.904,-8.32,0.013,0.9973381973596228
7.6,128.181708,37.944362,6762.5189616,-50.094,-8.329,0.003,0.9973381973596228
7.6166,128.181707,37.944409,6761.6658264,-50.285,-8.338,359.992,0.9973381973596228
7.6333,128.181706,37.944455,6760.8108624,-50.478,-8.347,359.981,0.9973381973596228
7.65,128.181704,37.944502,6759.954679200001,-50.672,-8.356,359.971,0.9973381973596228
7.6666,128.181703,37.944548,6759.0960576,-50.851,-8.367,359.964,0.9973381973596228
7.6833,128.181702,37.944595,6758.2356072,-51.016,-8.38,359.96,0.9973381973596228
7.7,128.1817,37.944641,6757.3736328,-51.168,-8.394,359.958,0.9973381973596228
7.7166,128.181699,37.944688,6756.509524800001,-51.308,-8.409,359.958,0.9973381973596228
7.7333,128.181698,37.944734,6755.643892800001,-51.439,-8.424,359.958,0.9973381973596228
7.75,128.181696,37.944781,6754.776432000001,-51.563,-8.44,359.958,0.9973381973596228
7.7666,128.181695,37.944827,6753.907447200001,-51.681,-8.457,359.958,0.9973381973596228
7.7833,128.181693,37.944874,6753.036633600001,-51.794,-8.473,359.957,0.9973381973596228
7.8,128.181692,37.944921,6752.1639912,-51.903,-8.49,359.956,0.9973381973596228
7.8166,128.181691,37.944967,6751.289824800001,-52.011,-8.506,359.955,0.9973381973596228
7.8333,128.181689,37.945014,6750.4138296,-52.116,-8.523,359.954,0.9973381973596228
7.85,128.181688,37.94506,6749.536005600001,-52.22,-8.539,359.952,0.9973381973596228
7.8666,128.181686,37.945107,6748.6566576,-52.324,-8.556,359.951,0.9973381973596228
7.8833,128.181685,37.945153,6747.7754808,-52.427,-8.572,359.948,0.9973381973596228
7.9,128.181683,37.9452,6746.8924752,-52.53,-8.588,359.946,0.9973381973596228
7.9166,128.181682,37.945247,6746.0079456,-52.632,-8.605,359.944,0.9973381973596228
7.9333,128.181681,37.945293,6745.1215872,-52.735,-8.621,359.942,0.9973381973596228
7.95,128.181679,37.94534,6744.233704800001,-52.837,-8.637,359.939,0.9973381973596228
7.9666,128.181678,37.945386,6743.3436888,-52.94,-8.653,359.936,0.9973381973596228
7.9833,128.181676,37.945433,6742.4521488,-53.043,-8.669,359.934,0.9973381973596228
8.0,128.181675,37.94548,6741.5590848,-53.146,-8.685,359.931,0.9973381973596228
8.0166,128.181673,37.945526,6740.6638872,-53.249,-8.701,359.928,0.9973381973596228
8.0333,128.181672,37.945573,6739.767165600001,-53.353,-8.717,359.925,0.9973381973596228
8.05,128.18167,37.94562,6738.868615200001,-53.456,-8.733,359.921,0.9973381973596228
8.0666,128.181669,37.945666,6737.968236000001,-53.56,-8.748,359.918,0.9973381973596228
8.0833,128.181667,37.945713,6737.066028,-53.665,-8.764,359.914,0.9973381973596228
8.1,128.181666,37.945759,6736.161991200001,-53.769,-8.78,359.911,0.9973381973596228
8.1166,128.181664,37.945806,6735.2564304,-53.874,-8.795,359.907,0.9973381973596228
8.1333,128.181663,37.945853,6734.349040800001,-53.979,-8.81,359.903,0.9973381973596228
8.15,128.181661,37.945899,6733.439822400001,-54.084,-8.825,359.899,0.9973381973596228
8.1666,128.18166,37.945946,6732.5287751999995,-54.189,-8.841,359.895,0.9973381973596228
8.1833,128.181658,37.945993,6731.6158992,-54.294,-8.856,359.891,0.9973381973596228
8.2,128.181656,37.94604,6730.7011944000005,-54.4,-8.871,359.886,0.9973381973596228
8.2166,128.181655,37.946086,6729.784660800001,-54.505,-8.886,359.882,0.9973381973596228
8.2333,128.181653,37.946133,6728.8672128,-54.621,-8.902,359.879,0.9973381973596228
8.25,128.181652,37.94618,6727.947631200001,-54.746,-8.92,359.876,0.9973381973596228
8.2666,128.18165,37.946226,6727.0262207999995,-54.88,-8.938,359.875,0.9973381973596228
8.2833,128.181649,37.946273,6726.1029816,-55.019,-8.957,359.875,0.9973381973596228
8.3,128.181647,37.94632,6725.1782184,-55.163,-8.976,359.875,0.9973381973596228
8.3166,128.181645,37.946367,6724.2516264000005,-55.31,-8.995,359.876,0.9973381973596228
8.3333,128.181644,37.946413,6723.322900800001,-55.459,-9.014,359.877,0.9973381973596228
8.35,128.181642,37.94646,6722.392651200001,-55.608,-9.033,359.878,0.9973381973596228
8.3666,128.181641,37.946507,6721.460268000001,-55.757,-9.052,359.88,0.9973381973596228
8.3833,128.181639,37.946554,6720.526056000001,-55.905,-9.071,359.883,0.9973381973596228
8.4,128.181637,37.9466,6719.5900152,-56.051,-9.09,359.885,0.9973381973596228
8.4166,128.181636,37.946647,6718.6518408,-56.195,-9.109,359.888,0.9973381973596228
8.4333,128.181634,37.946694,6717.711837600001,-56.337,-9.128,359.891,0.9973381973596228
8.45,128.181632,37.946741,6716.7700056,-56.476,-9.147,359.894,0.9973381973596228
8.4666,128.181631,37.946787,6715.82604,-56.612,-9.166,359.897,0.9973381973596228
8.4833,128.181629,37.946834,6714.8799408,-56.745,-9.185,359.9,0.9973381973596228
8.5,128.181627,37.946881,6713.9320128,-56.875,-9.204,359.903,0.9973381973596228
8.5166,128.181626,37.946928,6712.982256000001,-57.001,-9.223,359.905,0.9973381973596228
8.5333,128.181624,37.946975,6712.030060800001,-57.125,-9.241,359.908,0.9973381973596228
8.55,128.181623,37.947021,6711.076341600001,-57.245,-9.26,359.91,0.9973381973596228
8.5666,128.181621,37.947068,6710.120184000001,-57.363,-9.278,359.912,0.9973381973596228
8.5833,128.181619,37.947115,6709.162197600001,-57.478,-9.296,359.913,0.9973381973596228
8.6,128.181618,37.947162,6708.202077600001,-57.59,-9.314,359.915,0.9973381973596228
8.6166,128.181616,37.947209,6707.240128800001,-57.701,-9.332,359.916,0.9973381973596228
8.6333,128.181614,37.947256,6706.2760464,-57.809,-9.349,359.917,0.9973381973596228
8.65,128.181613,37.947302,6705.3101352,-57.915,-9.367,359.917,0.9973381973596228
8.6666,128.181611,37.947349,6704.341785600001,-58.02,-9.384,359.917,0.9973381973596228
8.6833,128.181609,37.947396,6703.3716072,-58.123,-9.402,359.918,0.9973381973596228
8.7,128.181608,37.947443,6702.399600000001,-58.225,-9.419,359.918,0.9973381973596228
8.7166,128.181606,37.94749,6701.4251544,-58.324,-9.436,359.918,0.9973381973596228
8.7333,128.181604,37.947537,6700.44888,-58.423,-9.453,359.917,0.9973381973596228
8.75,128.181602,37.947584,6699.470472,-58.52,-9.47,359.917,0.9973381973596228
8.7666,128.181601,37.947631,6698.4902352,-58.615,-9.487,359.916,0.9973381973596228
8.7833,128.181599,37.947677,6697.507864800001,-58.709,-9.504,359.916,0.9973381973596228
8.8,128.181597,37.947724,6696.523360800001,-58.802,-9.521,359.915,0.9973381973596228
8.8166,128.181596,37.947771,6695.5364184,-58.887,-9.537,359.913,0.9973381973596228
8.8333,128.181594,37.947818,6694.547647200001,-58.965,-9.551,359.909,0.9973381973596228
8.85,128.181592,37.947865,6693.556742400001,-59.036,-9.565,359.904,0.9973381973596228
8.8666,128.181591,37.947912,6692.5633992,-59.102,-9.579,359.899,0.9973381973596228
8.8833,128.181589,37.947959,6691.568532,-59.163,-9.592,359.894,0.9973381973596228
8.9,128.181587,37.948006,6690.5712264,-59.22,-9.606,359.888,0.9973381973596228
8.9166,128.181586,37.948053,6689.5717872000005,-59.275,-9.62,359.883,0.9973381973596228
8.9333,128.181584,37.9481,6688.5705192000005,-59.327,-9.634,359.877,0.9973381973596228
8.95,128.181582,37.948147,6687.5671176000005,-59.377,-9.648,359.872,0.9973381973596228
8.9666,128.18158,37.948194,6686.5618872000005,-59.425,-9.663,359.867,0.9973381973596228
8.9833,128.181579,37.948241,6685.5542184000005,-59.473,-9.678,359.863,0.9973381973596228
9.0,128.181577,37.948288,6684.5450256,-59.519,-9.693,359.858,0.9973381973596228
9.0166,128.181575,37.948335,6683.5333944,-59.565,-9.708,359.854,0.9973381973596228
9.0333,128.181574,37.948382,6682.5199344,-59.61,-9.723,359.85,0.9973381973596228
9.05,128.181572,37.948429,6681.5043408,-59.654,-9.739,359.846,0.9973381973596228
9.0666,128.18157,37.948476,6680.486918400001,-59.698,-9.754,359.842,0.9973381973596228
9.0833,128.181568,37.948523,6679.4670576,-59.742,-9.77,359.838,0.9973381973596228
9.1,128.181567,37.94857,6678.4456728000005,-59.786,-9.786,359.835,0.9973381973596228
9.1166,128.181565,37.948617,6677.4218496,-59.829,-9.802,359.831,0.9973381973596228
9.1333,128.181563,37.948664,6676.3965024,-59.873,-9.818,359.828,0.9973381973596228
9.15,128.181561,37.948711,6675.3687168,-59.916,-9.834,359.825,0.9973381973596228
9.1666,128.18156,37.948758,6674.3391024,-59.959,-9.85,359.822,0.9973381973596228
9.1833,128.181558,37.948805,6673.3073544,-60.002,-9.867,359.818,0.9973381973596228
9.2,128.181556,37.948852,6672.2737776,-60.045,-9.883,359.816,0.9973381973596228
9.2166,128.181554,37.948899,6671.2380672,-60.088,-9.899,359.813,0.9973381973596228
9.2333,128.181553,37.948946,6670.200528,-60.131,-9.916,359.81,0.9973381973596228
9.25,128.181551,37.948993,6669.160855200001,-60.173,-9.933,359.807,0.9973381973596228
9.2666,128.181549,37.94904,6668.1193536,-60.216,-9.949,359.805,0.9973381973596228
9.2833,128.181547,37.949087,6667.0757184,-60.259,-9.966,359.802,0.9973381973596228
9.3,128.181546,37.949134,6666.029949600001,-60.302,-9.982,359.799,0.9973381973596228
9.3166,128.181544,37.949181,6664.982352000001,-60.345,-9.999,359.797,0.9973381973596228
9.3333,128.181542,37.949228,6663.9326208,-60.387,-10.016,359.794,0.9973381973596228
9.35,128.18154,37.949275,6662.8810608,-60.43,-10.033,359.792,0.9973381973596228
9.3666,128.181539,37.949323,6661.8273672000005,-60.473,-10.05,359.79,0.9973381973596228
9.3833,128.181537,37.94937,6660.77154,-60.516,-10.066,359.787,0.9973381973596228
9.4,128.181535,37.949417,6659.713884000001,-60.559,-10.083,359.785,0.9973381973596228
9.4166,128.181533,37.949464,6658.6540944,-60.601,-10.1,359.783,0.9973381973596228
9.4333,128.181531,37.949511,6657.592476,-60.644,-10.117,359.78,0.9973381973596228
9.45,128.18153,37.949558,6656.528724000001,-60.687,-10.134,359.778,0.9973381973596228
9.4666,128.181528,37.949605,6655.4631432,-60.73,-10.151,359.776,0.9973381973596228
9.4833,128.181526,37.949652,6654.3954288,-60.773,-10.168,359.774,0.9973381973596228
9.5,128.181524,37.9497,6653.3258856,-60.816,-10.185,359.771,0.9973381973596228
9.5166,128.181522,37.949747,6652.2542088,-60.859,-10.202,359.769,0.9973381973596228
9.5333,128.181521,37.949794,6651.1803984,-60.902,-10.219,359.767,0.9973381973596228
9.55,128.181519,37.949841,6650.1047592,-60.945,-10.236,359.765,0.9973381973596228
9.5666,128.181517,37.949888,6649.0272912,-60.988,-10.253,359.763,0.9973381973596228
9.5833,128.181515,37.949935,6647.9473848,-61.031,-10.27,359.76,0.9973381973596228
9.6,128.181513,37.949983,6646.8659544,-61.074,-10.288,359.758,0.9973381973596228
9.6166,128.181512,37.95003,6645.7820856,-61.117,-10.305,359.756,0.9973381973596228
9.6333,128.18151,37.950077,6644.696388,-61.16,-10.322,359.754,0.9973381973596228
9.65,128.181508,37.950124,6643.6088616,-61.203,-10.339,359.752,0.9973381973596228
9.6666,128.181506,37.950171,6642.519201600001,-61.246,-10.356,359.749,0.9973381973596228
9.6833,128.181504,37.950219,6641.4274080000005,-61.289,-10.373,359.747,0.9973381973596228
9.7,128.181502,37.950266,6640.3337856,-61.333,-10.39,359.745,0.9973381973596228
9.7166,128.181501,37.950313,6639.2380296,-61.376,-10.408,359.743,0.9973381973596228
9.7333,128.181499,37.95036,6638.1404448,-61.42,-10.425,359.741,0.9973381973596228
9.75,128.181497,37.950407,6637.0407264000005,-61.463,-10.442,359.739,0.9973381973596228
9.7666,128.181495,37.950455,6635.939179200001,-61.507,-10.459,359.736,0.9973381973596228
9.7833,128.181493,37.950502,6634.8354984,-61.55,-10.476,359.734,0.9973381973596228
9.8,128.181491,37.950549,6633.729684000001,-61.594,-10.493,359.732,0.9973381973596228
9.8166,128.181489,37.950596,6632.6220408,-61.638,-10.511,359.73,0.9973381973596228
9.8333,128.181488,37.950644,6631.512568800001,-61.682,-10.528,359.728,0.9973381973596228
9.85,128.181486,37.950691,6630.400963200001,-61.725,-10.545,359.725,0.9973381973596228
9.8666,128.181484,37.950738,6629.287224000001,-61.769,-10.562,359.723,0.9973381973596228
9.8833,128.181482,37.950786,6628.171351200001,-61.814,-10.58,359.721,0.9973381973596228
9.9,128.18148,37.950833,6627.0539544,-61.858,-10.597,359.719,0.9973381973596228
9.9166,128.181478,37.95088,6625.9341192,-61.902,-10.614,359.717,0.9973381973596228
9.9333,128.181476,37.950927,6624.812455200001,-61.946,-10.631,359.714,0.9973381973596228
9.95,128.181474,37.950975,6623.6889624,-61.991,-10.648,359.712,0.9973381973596228
9.9666,128.181473,37.951022,6622.563336,-62.035,-10.666,359.71,0.9973381973596228
9.9833,128.181471,37.951069,6621.435576,-62.08,-10.683,359.708,0.9973381973596228
10.0,128.181469,37.951117,6620.3059872,-62.125,-10.7,359.705,0.9973381973596228
10.0166,128.181467,37.951164,6619.174264800001,-62.169,-10.717,359.703,0.9973381973596228
10.0333,128.181465,37.951211,6618.0407136,-62.214,-10.735,359.701,0.9973381973596228
10.05,128.181463,37.951259,6616.905028800001,-62.259,-10.752,359.699,0.9973381973596228
10.0666,128.181461,37.951306,6615.767515200001,-62.304,-10.769,359.696,0.9973381973596228
10.0833,128.181459,37.951353,6614.6278680000005,-62.35,-10.786,359.694,0.9973381973596228
10.1,128.181457,37.951401,6613.486696800001,-62.404,-10.802,359.688,0.9973381973596228
10.1166,128.181456,37.951448,6612.343392000001,-62.467,-10.816,359.678,0.9973381973596228
10.1333,128.181454,37.951495,6611.1985632000005,-62.538,-10.83,359.665,0.9973381973596228
10.15,128.181452,37.951543,6610.0516008,-62.617,-10.843,359.651,0.9973381973596228
10.1666,128.18145,37.95159,6608.9028096,-62.701,-10.855,359.637,0.9973381973596228
10.1833,128.181448,37.951638,6607.7521896,-62.791,-10.867,359.623,0.9973381973596228
10.2,128.181446,37.951685,6606.5997408,-62.884,-10.879,359.609,0.9973381973596228
10.2166,128.181444,37.951732,6605.445463200001,-62.981,-10.891,359.595,0.9973381973596228
10.2333,128.181442,37.95178,6604.289052000001,-63.08,-10.903,359.581,0.9973381973596228
10.25,128.18144,37.951827,6603.130812,-63.181,-10.915,359.568,0.9973381973596228
10.2666,128.181438,37.951875,6601.9707432,-63.284,-10.927,359.556,0.9973381973596228
10.2833,128.181436,37.951922,6600.8088456000005,-63.387,-10.94,359.543,0.9973381973596228
10.3,128.181434,37.951969,6599.6448144000005,-63.491,-10.952,359.531,0.9973381973596228
10.3166,128.181432,37.952017,6598.4792592,-63.596,-10.965,359.519,0.9973381973596228
10.3333,128.18143,37.952064,6597.311570400001,-63.702,-10.977,359.507,0.9973381973596228
10.35,128.181428,37.952112,6596.1420528,-63.808,-10.99,359.496,0.9973381973596228
10.3666,128.181426,37.952159,6594.9707064,-63.914,-11.003,359.484,0.9973381973596228
10.3833,128.181424,37.952207,6593.7972264,-64.021,-11.015,359.473,0.9973381973596228
10.4,128.181422,37.952254,6592.6222224,-64.128,-11.028,359.462,0.9973381973596228
10.4166,128.18142,37.952302,6591.4450848,-64.235,-11.041,359.451,0.9973381973596228
10.4333,128.181418,37.952349,6590.266423200001,-64.342,-11.054,359.441,0.9973381973596228
10.45,128.181416,37.952397,6589.085628000001,-64.449,-11.068,359.43,0.9973381973596228
10.4666,128.181414,37.952444,6587.903004,-64.557,-11.081,359.42,0.9973381973596228
10.4833,128.181412,37.952492,6586.718551200001,-64.664,-11.094,359.41,0.9973381973596228
10.5,128.18141,37.952539,6585.5322696,-64.772,-11.108,359.4,0.9973381973596228
10.5166,128.181408,37.952587,6584.3441592,-64.88,-11.121,359.389,0.9973381973596228
10.5333,128.181406,37.952634,6583.1539152000005,-64.988,-11.135,359.38,0.9973381973596228
10.55,128.181404,37.952682,6581.962147200001,-65.096,-11.148,359.37,0.9973381973596228
10.5666,128.181402,37.952729,6580.7682456,-65.204,-11.162,359.36,0.9973381973596228
10.5833,128.1814,37.952777,6579.572820000001,-65.312,-11.175,359.35,0.9973381973596228
10.6,128.181398,37.952824,6578.3752608,-65.421,-11.189,359.341,0.9973381973596228
10.6166,128.181396,37.952872,6577.1758728,-65.529,-11.203,359.331,0.9973381973596228
10.6333,128.181393,37.952919,6575.974656,-65.638,-11.216,359.321,0.9973381973596228
10.65,128.181391,37.952967,6574.771610400001,-65.746,-11.23,359.312,0.9973381973596228
10.6666,128.181389,37.953014,6573.566736000001,-65.855,-11.244,359.303,0.9973381973596228
10.6833,128.181387,37.953062,6572.3600328,-65.964,-11.258,359.293,0.9973381973596228
10.7,128.181385,37.95311,6571.151500800001,-66.073,-11.272,359.284,0.9973381973596228
10.7166,128.181383,37.953157,6569.9408352,-66.182,-11.286,359.275,0.9973381973596228
10.7333,128.181381,37.953205,6568.7286456,-66.291,-11.3,359.265,0.9973381973596228
10.75,128.181379,37.953252,6567.5143224,-66.4,-11.314,359.256,0.9973381973596228
10.7666,128.181376,37.9533,6566.2984752,-66.509,-11.328,359.247,0.9973381973596228
10.7833,128.181374,37.953347,6565.0804944,-66.619,-11.342,359.238,0.9973381973596228
10.8,128.181372,37.953395,6563.8606848,-66.728,-11.356,359.229,0.9973381973596228
10.8166,128.18137,37.953443,6562.639046400001,-66.838,-11.37,359.22,0.9973381973596228
10.8333,128.181368,37.95349,6561.415579200001,-66.947,-11.384,359.21,0.9973381973596228
10.85,128.181366,37.953538,6560.1902832000005,-67.057,-11.398,359.201,0.9973381973596228
10.8666,128.181363,37.953586,6558.9631584,-67.167,-11.412,359.192,0.9973381973596228
10.8833,128.181361,37.953633,6557.7342048,-67.277,-11.426,359.183,0.9973381973596228
10.9,128.181359,37.953681,6556.5031176,-67.387,-11.44,359.174,0.9973381973596228
10.9166,128.181357,37.953728,6555.270506400001,-67.497,-11.454,359.165,0.9973381973596228
10.9333,128.181355,37.953776,6554.0360664,-67.608,-11.468,359.156,0.9973381973596228
10.95,128.181352,37.953824,6552.799492800001,-67.718,-11.482,359.147,0.9973381973596228
10.9666,128.18135,37.953871,6551.5610904000005,-67.828,-11.497,359.138,0.9973381973596228
10.9833,128.181348,37.953919,6550.3208592,-67.939,-11.511,359.129,0.9973381973596228
11.0,128.181346,37.953967,6549.0787992000005,-68.05,-11.525,359.12,0.9973381973596228
11.0166,128.181343,37.954014,6547.834910400001,-68.161,-11.539,359.111,0.9973381973596228
11.0333,128.181341,37.954062,6546.589192800001,-68.272,-11.553,359.102,0.9973381973596228
11.05,128.181339,37.95411,6545.3416464,-68.383,-11.568,359.093,0.9973381973596228
11.0666,128.181337,37.954158,6544.0919664,-68.494,-11.582,359.084,0.9973381973596228
11.0833,128.181334,37.954205,6542.8407624,-68.605,-11.596,359.075,0.9973381973596228
11.1,128.181332,37.954253,6541.587424800001,-68.716,-11.61,359.066,0.9973381973596228
11.1166,128.18133,37.954301,6540.332563200001,-68.828,-11.625,359.057,0.9973381973596228
11.1333,128.181327,37.954348,6539.075568,-68.939,-11.639,359.048,0.9973381973596228
11.15,128.181325,37.954396,6537.816744,-69.051,-11.653,359.039,0.9973381973596228
11.1666,128.181323,37.954444,6536.5560912,-69.163,-11.667,359.03,0.9973381973596228
11.1833,128.18132,37.954492,6535.2933048,-69.275,-11.682,359.021,0.9973381973596228
11.2,128.181318,37.954539,6534.0289944,-69.386,-11.696,359.011,0.9973381973596228
11.2166,128.181316,37.954587,6532.762855200001,-69.499,-11.71,359.002,0.9973381973596228
11.2333,128.181313,37.954635,6531.494582400001,-69.611,-11.724,358.993,0.9973381973596228
11.25,128.181311,37.954683,6530.2244808000005,-69.723,-11.739,358.984,0.9973381973596228
11.2666,128.181309,37.95473,6528.9525504,-69.835,-11.753,358.975,0.9973381973596228
11.2833,128.181306,37.954778,6527.6787912,-69.948,-11.767,358.966,0.9973381973596228
11.3,128.181304,37.954826,6526.4032032,-70.06,-11.782,358.957,0.9973381973596228
11.3166,128.181302,37.954874,6525.1257864,-70.173,-11.796,358.948,0.9973381973596228
11.3333,128.181299,37.954922,6523.846236,-70.286,-11.81,358.938,0.9973381973596228
11.35,128.181297,37.954969,6522.5651616,-70.399,-11.825,358.929,0.9973381973596228
11.3666,128.181294,37.955017,6521.2819536,-70.512,-11.839,358.92,0.9973381973596228
11.3833,128.181292,37.955065,6519.9969168,-70.625,-11.854,358.911,0.9973381973596228
11.4,128.18129,37.955113,6518.710051200001,-70.738,-11.868,358.902,0.9973381973596228
11.4166,128.181287,37.955161,6517.4213568000005,-70.851,-11.882,358.892,0.9973381973596228
11.4333,128.181285,37.955208,6516.1305288,-70.965,-11.897,358.883,0.9973381973596228
11.45,128.181282,37.955256,6514.8381768,-71.078,-11.911,358.874,0.9973381973596228
11.4666,128.18128,37.955304,6513.5436912000005,-71.192,-11.925,358.865,0.9973381973596228
11.4833,128.181277,37.955352,6512.2473768,-71.306,-11.94,358.855,0.9973381973596228
11.5,128.181275,37.9554,6510.949233600001,-71.42,-11.954,358.846,0.9973381973596228
11.5166,128.181272,37.955448,6509.6492616,-71.533,-11.969,358.837,0.9973381973596228
11.5333,128.18127,37.955495,6508.347156000001,-71.648,-11.983,358.827,0.9973381973596228
11.55,128.181267,37.955543,6507.0432216,-71.762,-11.998,358.818,0.9973381973596228
11.5666,128.181265,37.955591,6505.7377632,-71.876,-12.012,358.809,0.9973381973596228
11.5833,128.181262,37.955639,6504.4301712,-71.99,-12.027,358.799,0.9973381973596228
11.6,128.18126,37.955687,6503.1204456000005,-72.105,-12.041,358.79,0.9973381973596228
11.6166,128.181257,37.955735,6501.809196,-72.219,-12.055,358.781,0.9973381973596228
11.6333,128.181255,37.955783,6500.496117600001,-72.334,-12.07,358.771,0.9973381973596228
11.65,128.181252,37.955831,6499.1809056,-72.449,-12.084,358.762,0.9973381973596228
11.6666,128.18125,37.955879,6497.863864800001,-72.564,-12.099,358.753,0.9973381973596228
11.6833,128.181247,37.955927,6496.5449952,-72.679,-12.113,358.743,0.9973381973596228
11.7,128.181245,37.955974,6495.223992,-72.794,-12.128,358.734,0.9973381973596228
11.7166,128.181242,37.956022,6493.9014648,-72.91,-12.142,358.724,0.9973381973596228
11.7333,128.18124,37.95607,6492.576804,-73.025,-12.157,358.715,0.9973381973596228
11.75,128.181237,37.956118,6491.2503144,-73.14,-12.172,358.705,0.9973381973596228
11.7666,128.181234,37.956166,6489.921996,-73.256,-12.186,358.696,0.9973381973596228
11.7833,128.181232,37.956214,6488.591544,-73.372,-12.201,358.686,0.9973381973596228
11.8,128.181229,37.956262,6487.259568,-73.488,-12.215,358.677,0.9973381973596228
11.8166,128.181227,37.95631,6485.9254584,-73.604,-12.23,358.667,0.9973381973596228
11.8333,128.181224,37.956358,6484.58952,-73.72,-12.244,358.658,0.9973381973596228
11.85,128.181221,37.956406,6483.251448,-73.836,-12.259,358.648,0.9973381973596228
11.8666,128.181219,37.956454,6481.911852000001,-73.952,-12.274,358.638,0.9973381973596228
11.8833,128.181216,37.956502,6480.5701224,-74.069,-12.288,358.629,0.9973381973596228
11.9,128.181214,37.95655,6479.2265640000005,-74.185,-12.303,358.619,0.9973381973596228
11.9166,128.181211,37.956598,6477.880872,-74.302,-12.317,358.61,0.9973381973596228
11.9333,128.181208,37.956646,6476.5336560000005,-74.419,-12.332,358.6,0.9973381973596228
11.95,128.181206,37.956694,6475.1843064,-74.536,-12.347,358.59,0.9973381973596228
11.9666,128.181203,37.956742,6473.833128,-74.653,-12.361,358.581,0.9973381973596228
11.9833,128.1812,37.95679,6472.4801208,-74.77,-12.376,358.571,0.9973381973596228
12.0,128.181197,37.956838,6471.12498,-74.887,-12.391,358.561,0.9973381973596228
12.0166,128.181195,37.956886,6469.768010400001,-75.004,-12.405,358.552,0.9973381973596228
12.0333,128.181192,37.956934,6468.409212,-75.122,-12.42,358.542,0.9973381973596228
12.05,128.181189,37.956982,6467.0485848,-75.239,-12.435,358.532,0.9973381973596228
12.0666,128.181187,37.95703,6465.686128800001,-75.357,-12.449,358.522,0.9973381973596228
12.0833,128.181184,37.957078,6464.3215392,-75.475,-12.464,358.513,0.9973381973596228
12.1,128.181181,37.957126,6462.9551208,-75.593,-12.479,358.503,0.9973381973596228
12.1166,128.181178,37.957174,6461.5865688,-75.711,-12.494,358.493,0.9973381973596228
12.1333,128.181176,37.957222,6460.216188,-75.829,-12.508,358.483,0.9973381973596228
12.15,128.181173,37.95727,6458.8439784,-75.947,-12.523,358.473,0.9973381973596228
12.1666,128.18117,37.957318,6457.46994,-76.065,-12.538,358.464,0.9973381973596228
12.1833,128.181167,37.957366,6456.0940728000005,-76.183,-12.553,358.454,0.9973381973596228
12.2,128.181165,37.957415,6454.716072,-76.302,-12.567,358.444,0.9973381973596228
12.2166,128.181162,37.957463,6453.336242400001,-76.42,-12.582,358.434,0.9973381973596228
12.2333,128.181159,37.957511,6451.954279200001,-76.539,-12.597,358.424,0.9973381973596228
12.25,128.181156,37.957559,6450.570792,-76.658,-12.612,358.414,0.9973381973596228
12.2666,128.181153,37.957607,6449.1851712,-76.777,-12.627,358.404,0.9973381973596228
12.2833,128.181151,37.957655,6447.7974168,-76.896,-12.641,358.394,0.9973381973596228
12.3,128.181148,37.957703,6446.408138400001,-77.015,-12.656,358.384,0.9973381973596228
12.3166,128.181145,37.957751,6445.0167264,-77.134,-12.671,358.374,0.9973381973596228
12.3333,128.181142,37.957799,6443.6234856,-77.253,-12.686,358.364,0.9973381973596228
12.35,128.181139,37.957848,6442.228111200001,-77.373,-12.701,358.354,0.9973381973596228
12.3666,128.181136,37.957896,6440.830908,-77.492,-12.716,358.344,0.9973381973596228
12.3833,128.181133,37.957944,6439.431876,-77.612,-12.731,358.334,0.9973381973596228
12.4,128.181131,37.957992,6438.0307104,-77.731,-12.745,358.324,0.9973381973596228
12.4166,128.181128,37.95804,6436.6280208,-77.851,-12.76,358.314,0.9973381973596228
12.4333,128.181125,37.958088,6435.2228928,-77.971,-12.775,358.304,0.9973381973596228
12.45,128.181122,37.958136,6433.816240800001,-78.091,-12.79,358.293,0.9973381973596228
12.4666,128.181119,37.958185,6432.4074552,-78.211,-12.805,358.283,0.9973381973596228
12.4833,128.181116,37.958233,6430.9968408,-78.332,-12.82,358.273,0.9973381973596228
12.5,128.181113,37.958281,6429.584092800001,-78.452,-12.835,358.263,0.9973381973596228
12.5166,128.18111,37.958329,6428.1698208,-78.572,-12.85,358.252,0.9973381973596228
12.5333,128.181107,37.958377,6426.753110400001,-78.693,-12.865,358.242,0.9973381973596228
12.55,128.181104,37.958426,6425.334876,-78.814,-12.88,358.232,0.9973381973596228
12.5666,128.181101,37.958474,6423.914508,-78.934,-12.895,358.222,0.9973381973596228
12.5833,128.181098,37.958522,6422.492311200001,-79.055,-12.91,358.211,0.9973381973596228
12.6,128.181095,37.95857,6421.0679808,-79.176,-12.925,358.201,0.9973381973596228
12.6166,128.181092,37.958618,6419.6418216,-79.297,-12.94,358.19,0.9973381973596228
12.6333,128.181089,37.958667,6418.213833600001,-79.419,-12.955,358.18,0.9973381973596228
12.65,128.181086,37.958715,6416.783712,-79.54,-12.97,358.17,0.9973381973596228
12.6666,128.181083,37.958763,6415.3517616,-79.661,-12.985,358.159,0.9973381973596228
12.6833,128.18108,37.958811,6413.9179824,-79.783,-13.0,358.149,0.9973381973596228
12.7,128.181077,37.95886,6412.482069600001,-79.904,-13.015,358.138,0.9973381973596228
12.7166,128.181074,37.958908,6411.044328000001,-80.026,-13.03,358.128,0.9973381973596228
12.7333,128.181071,37.958956,6409.6044528,-80.148,-13.045,358.117,0.9973381973596228
12.75,128.181068,37.959004,6408.1627488,-80.27,-13.06,358.107,0.9973381973596228
12.7666,128.181065,37.959053,6406.7192159999995,-80.392,-13.075,358.096,0.9973381973596228
12.7833,128.181062,37.959101,6405.2735496000005,-80.514,-13.091,358.085,0.9973381973596228
12.8,128.181059,37.959149,6403.8260544,-80.636,-13.106,358.075,0.9973381973596228
12.8166,128.181056,37.959197,6402.3767304,-80.758,-13.121,358.064,0.9973381973596228
12.8333,128.181053,37.959246,6400.9252728,-80.88,-13.136,358.054,0.9973381973596228
12.85,128.18105,37.959294,6399.4716816,-81.003,-13.151,358.043,0.9973381973596228
12.8666,128.181047,37.959342,6398.0165664,-81.125,-13.166,358.032,0.9973381973596228
12.8833,128.181044,37.959391,6396.5593176,-81.248,-13.182,358.022,0.9973381973596228
12.9,128.181041,37.959439,6395.0999352,-81.371,-13.197,358.011,0.9973381973596228
12.9166,128.181037,37.959487,6393.638724,-81.493,-13.212,358.0,0.9973381973596228
12.9333,128.181034,37.959536,6392.175684000001,-81.616,-13.227,357.989,0.9973381973596228
12.95,128.181031,37.959584,6390.7105104,-81.739,-13.243,357.979,0.9973381973596228
12.9666,128.181028,37.959632,6389.2435080000005,-81.862,-13.258,357.968,0.9973381973596228
12.9833,128.181025,37.959681,6387.774676800001,-81.985,-13.273,357.957,0.9973381973596228
13.0,128.181022,37.959729,6386.303712,-82.108,-13.288,357.946,0.9973381973596228
13.0166,128.181018,37.959777,6384.8306136,-82.231,-13.304,357.935,0.9973381973596228
13.0333,128.181015,37.959826,6383.3556864,-82.355,-13.319,357.924,0.9973381973596228
13.0499,128.181012,37.959874,6381.8789304,-82.478,-13.334,357.914,0.9973381973596228
13.0666,128.181009,37.959922,6380.4000408,-82.602,-13.35,357.903,0.9973381973596228
13.0833,128.181006,37.959971,6378.9193224,-82.725,-13.365,357.892,0.9973381973596228
13.1,128.181002,37.960019,6377.4367752,-82.849,-13.38,357.881,0.9973381973596228
13.1166,128.180999,37.960067,6375.9520944,-82.972,-13.396,357.87,0.9973381973596228
13.1333,128.180996,37.960116,6374.465279999999,-83.096,-13.411,357.859,0.9973381973596228
13.15,128.180993,37.960164,6372.9766368,-83.22,-13.427,357.848,0.9973381973596228
13.1666,128.18099,37.960213,6371.486164800001,-83.343,-13.442,357.837,0.9973381973596228
13.1833,128.180986,37.960261,6369.9935592,-83.467,-13.457,357.826,0.9973381973596228
13.2,128.180983,37.960309,6368.499124800001,-83.591,-13.473,357.815,0.9973381973596228
13.2166,128.18098,37.960358,6367.002556800001,-83.715,-13.488,357.804,0.9973381973596228
13.2333,128.180976,37.960406,6365.50416,-83.839,-13.504,357.793,0.9973381973596228
13.25,128.180973,37.960455,6364.0039344,-83.964,-13.519,357.782,0.9973381973596228
13.2666,128.18097,37.960503,6362.501270400001,-84.088,-13.535,357.771,0.9973381973596228
