Time,Longitude,Latitude,Altitude,Roll (deg),Pitch (deg),Yaw (deg),Health
0.0,128.181885,37.923646,7000.6698696,0.0,2.996,2.0,1.0
0.0166,128.181887,37.92369,7000.9457136,0.0,2.987,2.0,1.0
0.0333,128.181889,37.923735,7001.2212528,-0.014,2.972,2.001,1.0
0.05,128.181891,37.92378,7001.4958776,-0.039,2.955,2.005,1.0
0.0666,128.181893,37.923825,7001.769892800001,-0.071,2.939,2.011,1.0
0.0833,128.181895,37.92387,7002.0432984,-0.11,2.924,2.018,1.0
0.1,128.181897,37.923915,7002.3157896,-0.152,2.909,2.025,1.0
0.1166,128.181899,37.923959,7002.5873664,-0.198,2.895,2.033,1.0
0.1333,128.181901,37.924004,7002.858333600001,-0.245,2.881,2.041,1.0
0.15,128.181903,37.924049,7003.1280816,-0.294,2.867,2.05,1.0
0.1666,128.181905,37.924094,7003.397220000001,-0.345,2.854,2.058,1.0
0.1833,128.181907,37.924139,7003.665444,-0.396,2.841,2.066,1.0
0.2,128.181909,37.924183,7003.9330584,-0.449,2.828,2.074,1.0
0.2166,128.181911,37.924228,7004.1994536,-0.502,2.815,2.082,1.0
0.2333,128.181913,37.924273,7004.4649344,-0.557,2.802,2.09,1.0
0.25,128.181914,37.924318,7004.729805600001,-0.613,2.789,2.098,1.0
0.2666,128.181916,37.924363,7004.9937624,-0.669,2.777,2.105,1.0
0.2833,128.181918,37.924408,7005.2565,-0.726,2.764,2.113,1.0
0.3,128.18192,37.924452,7005.518628000001,-0.784,2.752,2.121,1.0
0.3166,128.181922,37.924497,7005.7798416000005,-0.842,2.74,2.128,1.0
0.3333,128.181924,37.924542,7006.039836,-0.902,2.727,2.136,1.0
0.35,128.181926,37.924587,7006.2992208,-0.962,2.715,2.143,1.0
0.3666,128.181928,37.924632,7006.557386400001,-1.023,2.703,2.15,1.0
0.3833,128.18193,37.924676,7006.8149424,-1.085,2.691,2.158,1.0
0.4,128.181932,37.924721,7007.0712792,-1.147,2.679,2.165,1.0
0.4166,128.181934,37.924766,7007.326701600001,-1.21,2.667,2.172,1.0
0.4333,128.181936,37.924811,7007.581514400001,-1.273,2.655,2.179,1.0
0.45,128.181938,37.924855,7007.835108,-1.338,2.643,2.186,1.0
0.4666,128.18194,37.9249,7008.0874824,-1.403,2.632,2.193,1.0
0.4833,128.181942,37.924945,7008.3392472000005,-1.468,2.62,2.199,1.0
0.5,128.181944,37.92499,7008.590097600001,-1.535,2.608,2.206,1.0
0.5166,128.181946,37.925035,7008.839728800001,-1.602,2.596,2.213,1.0
0.5333,128.181948,37.925079,7009.0884456,-1.669,2.585,2.219,1.0
0.55,128.18195,37.925124,7009.3365527999995,-1.737,2.573,2.226,1.0
0.5666,128.181952,37.925169,7009.583136,-1.806,2.562,2.232,1.0
0.5833,128.181954,37.925214,7009.8291096,-1.876,2.55,2.239,1.0
0.6,128.181956,37.925259,7010.073864000001,-1.946,2.538,2.245,1.0
0.6166,128.181958,37.925303,7010.317704,-2.016,2.527,2.251,1.0
0.6333,128.18196,37.925348,7010.5606296,-2.087,2.515,2.258,1.0
0.65,128.181962,37.925393,7010.8026408000005,-2.159,2.504,2.264,1.0
0.6666,128.181964,37.925438,7011.043432800001,-2.232,2.492,2.27,1.0
0.6833,128.181966,37.925482,7011.283310400001,-2.305,2.481,2.276,1.0
0.7,128.181968,37.925527,7011.5222736000005,-2.378,2.47,2.282,1.0
0.7166,128.18197,37.925572,7011.7603224,-2.452,2.458,2.288,1.0
0.7333,128.181972,37.925617,7011.997152000001,-2.527,2.447,2.294,1.0
0.75,128.181974,37.925661,7012.2330672,-2.602,2.435,2.299,1.0
0.7666,128.181976,37.925706,7012.468068,-2.678,2.424,2.305,1.0
0.7833,128.181978,37.925751,7012.7018496,-2.754,2.413,2.311,1.0
0.8,128.18198,37.925796,7012.9347168,-2.831,2.401,2.316,1.0
0.8166,128.181982,37.925841,7013.1663648,-2.908,2.39,2.322,1.0
0.8333,128.181984,37.925885,7013.3974032,-2.986,2.378,2.327,1.0
0.85,128.181986,37.92593,7013.6269176000005,-3.065,2.367,2.333,1.0
0.8666,128.181988,37.925975,7013.8558224,-3.144,2.356,2.338,1.0
0.8833,128.18199,37.92602,7014.083508,-3.223,2.344,2.344,1.0
0.9,128.181992,37.926064,7014.310279200001,-3.303,2.333,2.349,1.0
0.9166,128.181994,37.926109,7014.5358312,-3.384,2.322,2.354,1.0
0.9333,128.181996,37.926154,7014.7604688,-3.465,2.31,2.359,1.0
0.95,128.181998,37.926199,7014.984192000001,-3.546,2.299,2.365,1.0
0.9666,128.182,37.926243,7015.206696,-3.628,2.288,2.37,1.0
0.9833,128.182002,37.926288,7015.4282856,-3.711,2.276,2.375,1.0
1.0,128.182004,37.926333,7015.648656,-3.794,2.265,2.38,1.0
1.0166,128.182006,37.926378,7015.868112,-3.877,2.253,2.385,1.0
1.0333,128.182008,37.926422,7016.0866536,-3.961,2.242,2.39,1.0
1.05,128.18201,37.926467,7016.303976,-4.045,2.231,2.395,1.0
1.0666,128.182012,37.926512,7016.5200792000005,-4.13,2.219,2.399,1.0
1.0833,128.182014,37.926557,7016.7355728,-4.216,2.208,2.404,1.0
1.1,128.182016,37.926601,7016.949542400001,-4.302,2.197,2.409,1.0
1.1166,128.182018,37.926646,7017.162902399999,-4.388,2.185,2.414,1.0
1.1333,128.18202,37.926691,7017.374738400001,-4.475,2.174,2.418,1.0
1.15,128.182022,37.926736,7017.5859648000005,-4.562,2.163,2.423,1.0
1.1666,128.182024,37.92678,7017.795972,-4.65,2.151,2.428,1.0
1.1833,128.182026,37.926825,7018.004760000001,-4.738,2.14,2.432,1.0
1.2,128.182028,37.92687,7018.212633600001,-4.826,2.129,2.437,1.0
1.2166,128.18203,37.926915,7018.419288000001,-4.915,2.117,2.441,1.0
1.2333,128.182032,37.926959,7018.625028,-5.005,2.106,2.445,1.0
1.25,128.182034,37.927004,7018.8295488,-5.095,2.094,2.45,1.0
1.2666,128.182036,37.927049,7019.033155200001,-5.185,2.083,2.454,1.0
1.2833,128.182038,37.927094,7019.2358472000005,-5.276,2.072,2.458,1.0
1.3,128.18204,37.927138,7019.437015200001,-5.367,2.06,2.463,1.0
1.3166,128.182042,37.927183,7019.637573600001,-5.459,2.049,2.467,1.0
1.3333,128.182044,37.927228,7019.8366080000005,-5.551,2.037,2.471,1.0
1.35,128.182046,37.927273,7020.0350328,-5.644,2.026,2.475,1.0
1.3666,128.182047,37.927318,7020.231933600001,-5.737,2.015,2.479,1.0
1.3833,128.182049,37.927362,7020.427920000001,-5.83,2.003,2.483,1.0
1.4,128.182051,37.927407,7020.6229920000005,-5.924,1.992,2.488,1.0
1.4166,128.182053,37.927452,7020.816844800001,-6.018,1.98,2.492,1.0
1.4333,128.182055,37.927497,7021.0094784,-6.113,1.969,2.495,1.0
1.45,128.182057,37.927541,7021.201197600001,-6.208,1.957,2.499,1.0
1.4666,128.182059,37.927586,7021.3920024,-6.304,1.946,2.503,1.0
1.4833,128.182061,37.927631,7021.581283200001,-6.4,1.935,2.507,1.0
1.5,128.182063,37.927676,7021.7696496,-6.496,1.923,2.511,1.0
1.5166,128.182065,37.92772,7021.957101600001,-6.593,1.912,2.515,1.0
1.5333,128.182067,37.927765,7022.1433344,-6.69,1.9,2.519,1.0
1.55,128.182069,37.92781,7022.328348,-6.788,1.889,2.522,1.0
1.5666,128.182071,37.927855,7022.512447200001,-6.886,1.877,2.526,1.0
1.5833,128.182073,37.927899,7022.6953272,-6.984,1.866,2.53,1.0
1.6,128.182075,37.927944,7022.876988000001,-7.083,1.854,2.533,1.0
1.6166,128.182077,37.927989,7023.0577344,-7.182,1.843,2.537,1.0
1.6333,128.182079,37.928034,7023.2372616,-7.282,1.831,2.54,1.0
1.65,128.182081,37.928078,7023.415874400001,-7.382,1.82,2.544,1.0
1.6666,128.182083,37.928123,7023.5932680000005,-7.482,1.808,2.547,1.0
1.6833,128.182085,37.928168,7023.769442400001,-7.583,1.797,2.551,1.0
1.7,128.182087,37.928213,7023.9447024,-7.685,1.785,2.554,1.0
1.7166,128.182089,37.928257,7024.1187432,-7.786,1.774,2.558,1.0
1.7333,128.182091,37.928302,7024.291564800001,-7.888,1.762,2.561,1.0
1.75,128.182093,37.928347,7024.463472,-7.991,1.751,2.564,1.0
1.7666,128.182095,37.928392,7024.6341600000005,-8.093,1.739,2.568,1.0
1.7833,128.182097,37.928436,7024.8036288,-8.196,1.728,2.571,1.0
1.8,128.182099,37.928481,7024.9721832000005,-8.3,1.716,2.574,1.0
1.8166,128.182101,37.928526,7025.1395184,-8.404,1.705,2.578,1.0
1.8333,128.182103,37.928571,7025.3056344,-8.508,1.693,2.581,1.0
1.85,128.182105,37.928615,7025.470836,-8.613,1.681,2.584,1.0
1.8666,128.182107,37.92866,7025.6345136,-8.718,1.67,2.587,1.0
1.8833,128.182109,37.928705,7025.7972768,-8.823,1.658,2.59,1.0
1.9,128.182111,37.92875,7025.9591256,-8.929,1.647,2.593,1.0
1.9166,128.182113,37.928794,7026.1197552,-9.035,1.635,2.596,1.0
1.9333,128.182115,37.928839,7026.279165600001,-9.142,1.624,2.599,1.0
1.95,128.182116,37.928884,7026.437356800001,-9.249,1.612,2.602,1.0
1.9666,128.182118,37.928929,7026.594328800001,-9.356,1.6,2.605,1.0
1.9833,128.18212,37.928973,7026.7503864,-9.464,1.589,2.608,1.0
2.0,128.182122,37.929018,7026.905224800001,-9.572,1.577,2.611,1.0
2.0166,128.182124,37.929063,7027.058844,-9.68,1.566,2.614,1.0
2.0333,128.182126,37.929108,7027.2115488,-9.789,1.554,2.617,1.0
2.05,128.182128,37.929152,7027.3630344,-9.898,1.543,2.62,1.0
2.0666,128.18213,37.929197,7027.5133008,-10.007,1.531,2.622,1.0
2.0833,128.182132,37.929242,7027.662348,-10.117,1.519,2.625,1.0
2.1,128.182134,37.929287,7027.810176,-10.228,1.508,2.628,1.0
2.1166,128.182136,37.929332,7027.9570896000005,-10.338,1.496,2.631,1.0
2.1333,128.182138,37.929376,7028.102784000001,-10.449,1.484,2.633,1.0
2.15,128.18214,37.929421,7028.2472592,-10.561,1.473,2.636,1.0
2.1666,128.182142,37.929466,7028.390515200001,-10.672,1.461,2.639,1.0
2.1833,128.182144,37.929511,7028.532856800001,-10.784,1.45,2.641,1.0
2.2,128.182146,37.929555,7028.673979200001,-10.897,1.438,2.644,1.0
2.2166,128.182148,37.9296,7028.813577600001,-11.01,1.426,2.646,1.0
2.2333,128.18215,37.929645,7028.9525664,-11.123,1.415,2.649,1.0
2.25,128.182152,37.92969,7029.0900312,-11.236,1.403,2.651,1.0
2.2666,128.182153,37.929734,7029.2262768,-11.35,1.391,2.654,1.0
2.2833,128.182155,37.929779,7029.361608,-11.465,1.38,2.656,1.0
2.3,128.182157,37.929824,7029.495720000001,-11.579,1.368,2.659,1.0
2.3166,128.182159,37.929869,7029.628308,-11.694,1.356,2.661,1.0
2.3333,128.182161,37.929914,7029.7599816,-11.81,1.345,2.663,1.0
2.35,128.182163,37.929958,7029.8907408000005,-11.926,1.333,2.666,1.0
2.3666,128.182165,37.930003,7030.0199760000005,-12.042,1.321,2.668,1.0
2.3833,128.182167,37.930048,7030.147992000001,-12.158,1.31,2.67,1.0
2.4,128.182169,37.930093,7030.2750936,-12.275,1.298,2.673,1.0
2.4166,128.182171,37.930137,7030.400976,-12.392,1.286,2.675,1.0
2.4333,128.182173,37.930182,7030.5253344,-12.51,1.275,2.677,1.0
2.45,128.182175,37.930227,7030.648778400001,-12.628,1.263,2.679,1.0
2.4666,128.182177,37.930272,7030.7710032,-12.746,1.251,2.682,1.0
2.4833,128.182178,37.930317,7030.8923136,-12.865,1.24,2.684,1.0
2.5,128.18218,37.930361,7031.0121,-12.984,1.228,2.686,1.0
2.5166,128.182182,37.930406,7031.1306672,-13.104,1.216,2.688,1.0
2.5333,128.182184,37.930451,7031.248320000001,-13.224,1.205,2.69,1.0
2.55,128.182186,37.930496,7031.3644488,-13.344,1.193,2.692,1.0
2.5666,128.182188,37.930541,7031.479663200001,-13.464,1.181,2.694,1.0
2.5833,128.18219,37.930585,7031.5933536,-13.585,1.169,2.696,1.0
2.6,128.182192,37.93063,7031.7061296,-13.707,1.158,2.698,1.0
2.6166,128.182194,37.930675,7031.817686400001,-13.829,1.146,2.7,1.0
2.6333,128.182196,37.93072,7031.927719200001,-13.951,1.134,2.702,1.0
2.65,128.182198,37.930765,7032.036837600001,-14.073,1.123,2.704,1.0
2.6666,128.182199,37.930809,7032.144736800001,-14.196,1.111,2.706,1.0
2.6833,128.182201,37.930854,7032.2514168,-14.319,1.099,2.707,1.0
2.7,128.182203,37.930899,7032.3568776,-14.443,1.087,2.709,1.0
2.7166,128.182205,37.930944,7032.4611192,-14.567,1.076,2.711,1.0
2.7333,128.182207,37.930989,7032.564141600001,-14.691,1.064,2.713,1.0
2.75,128.182209,37.931034,7032.6659448,-14.816,1.052,2.714,1.0
2.7666,128.182211,37.931078,7032.766528800001,-14.941,1.04,2.716,1.0
2.7833,128.182213,37.931123,7032.8658936,-15.067,1.029,2.718,1.0
2.8,128.182215,37.931168,7032.9640392,-15.193,1.017,2.72,1.0
2.8166,128.182216,37.931213,7033.060965600001,-15.319,1.005,2.721,1.0
2.8333,128.182218,37.931258,7033.156672800001,-15.446,0.993,2.723,1.0
2.85,128.18222,37.931302,7033.250856000001,-15.573,0.982,2.724,1.0
2.8666,128.182222,37.931347,7033.344124800001,-15.701,0.97,2.726,1.0
2.8833,128.182224,37.931392,7033.436174400001,-15.829,0.958,2.728,1.0
2.9,128.182226,37.931437,7033.5270048,-15.957,0.946,2.729,1.0
2.9166,128.182228,37.931482,7033.616616,-16.086,0.934,2.731,1.0
2.9333,128.18223,37.931527,7033.7047032,-16.215,0.923,2.732,1.0
2.95,128.182231,37.931571,7033.791876,-16.345,0.911,2.733,1.0
2.9666,128.182233,37.931616,7033.8778296,-16.474,0.899,2.735,1.0
2.9833,128.182235,37.931661,7033.9622592000005,-16.605,0.887,2.736,1.0
3.0,128.182237,37.931706,7034.045469600001,-16.736,0.875,2.738,1.0
3.0166,128.182239,37.931751,7034.127765600001,-16.867,0.864,2.739,1.0
3.0333,128.182241,37.931796,7034.2085376,-16.998,0.852,2.74,1.0
3.05,128.182243,37.93184,7034.2880904,-17.129,0.842,2.741,1.0
3.0666,128.182244,37.931885,7034.366424000001,-17.26,0.834,2.741,1.0
3.0833,128.182246,37.93193,7034.443538400001,-17.39,0.827,2.74,1.0
3.1,128.182248,37.931975,7034.5194336,-17.519,0.821,2.739,1.0
3.1166,128.18225,37.93202,7034.594109600001,-17.649,0.816,2.738,1.0
3.1333,128.182252,37.932065,7034.6675663999995,-17.779,0.811,2.737,1.0
3.15,128.182254,37.93211,7034.739804,-17.908,0.806,2.736,1.0
3.1666,128.182255,37.932154,7034.8105176,-18.038,0.801,2.734,1.0
3.1833,128.182257,37.932199,7034.8806216,-18.168,0.796,2.733,1.0
3.2,128.182259,37.932244,7034.9492016,-18.298,0.79,2.731,1.0
3.2166,128.182261,37.932289,7035.0165624,-18.429,0.785,2.73,1.0
3.2333,128.182263,37.932334,7035.082704,-18.56,0.779,2.728,1.0
3.25,128.182265,37.932379,7035.1479312,-18.691,0.774,2.727,1.0
3.2666,128.182266,37.932424,7035.2116344,-18.822,0.768,2.725,1.0
3.2833,128.182268,37.932469,7035.2744232000005,-18.954,0.762,2.724,1.0
3.3,128.18227,37.932513,7035.335992800001,-19.086,0.756,2.722,1.0
3.3166,128.182272,37.932558,7035.3963432,-19.218,0.749,2.721,1.0
3.3333,128.182274,37.932603,7035.4557792000005,-19.351,0.743,2.719,1.0
3.35,128.182275,37.932648,7035.513691200001,-19.484,0.736,2.718,1.0
3.3666,128.182277,37.932693,7035.5706887999995,-19.617,0.73,2.716,1.0
3.3833,128.182279,37.932738,7035.6264672,-19.751,0.723,2.715,1.0
3.4,128.182281,37.932783,7035.6813312,-19.885,0.716,2.714,1.0
3.4166,128.182283,37.932828,7035.7346712,-20.02,0.709,2.712,1.0
3.4333,128.182284,37.932873,7035.787096800001,-20.155,0.701,2.711,1.0
3.45,128.182286,37.932917,7035.8383032,-20.29,0.694,2.71,1.0
3.4666,128.182288,37.932962,7035.8885952,-20.425,0.686,2.708,1.0
3.4833,128.18229,37.933007,7035.937363200001,-20.561,0.679,2.707,1.0
3.5,128.182291,37.933052,7035.9852168,-20.697,0.671,2.706,1.0
3.5166,128.182293,37.933097,7036.0318512,-20.833,0.663,2.704,1.0
3.5333,128.182295,37.933142,7036.0772664,-20.969,0.655,2.703,1.0
3.55,128.182297,37.933187,7036.1217672,-21.105,0.647,2.702,1.0
3.5666,128.182298,37.933232,7036.1650488000005,-21.242,0.638,2.701,1.0
3.5833,128.1823,37.933277,7036.207111200001,-21.378,0.63,2.699,1.0
3.6,128.182302,37.933322,7036.247954400001,-21.515,0.621,2.698,1.0
3.6166,128.182304,37.933367,7036.287883200001,-21.652,0.613,2.697,1.0
3.6333,128.182305,37.933412,7036.326592800001,-21.79,0.604,2.696,1.0
3.65,128.182307,37.933457,7036.364083200001,-21.927,0.595,2.694,1.0
3.6666,128.182309,37.933501,7036.400354400001,-22.065,0.587,2.693,1.0
3.6833,128.182311,37.933546,7036.435406400001,-22.202,0.578,2.692,1.0
3.7,128.182312,37.933591,7036.469544,-22.34,0.569,2.69,1.0
3.7166,128.182314,37.933636,7036.5024624,-22.478,0.56,2.689,1.0
3.7333,128.182316,37.933681,7036.5341616,-22.617,0.55,2.688,1.0
3.75,128.182318,37.933726,7036.564946400001,-22.755,0.541,2.687,1.0
3.7666,128.182319,37.933771,7036.594512,-22.894,0.532,2.685,1.0
3.7833,128.182321,37.933816,7036.6225536,-23.033,0.522,2.684,1.0
3.8,128.182323,37.933861,7036.6496808,-23.172,0.513,2.683,1.0
3.8166,128.182324,37.933906,7036.6758936,-23.311,0.503,2.681,1.0
3.8333,128.182326,37.933951,7036.700582400001,-23.451,0.494,2.68,1.0
3.85,128.182328,37.933996,7036.724356800001,-23.591,0.484,2.679,1.0
3.8666,128.182329,37.934041,7036.746912,-23.731,0.474,2.677,1.0
3.8833,128.182331,37.934086,7036.768248,-23.871,0.465,2.676,1.0
3.9,128.182333,37.934131,7036.788364800001,-24.012,0.455,2.675,1.0
3.9166,128.182334,37.934176,7036.8072624,-24.153,0.445,2.673,1.0
3.9333,128.182336,37.934221,7036.8252456,-24.294,0.435,2.672,1.0
3.95,128.182338,37.934266,7036.8417048,-24.436,0.425,2.671,1.0
3.9666,128.182339,37.934311,7036.857249600001,-24.577,0.415,2.669,1.0
3.9833,128.182341,37.934356,7036.8715752,-24.719,0.405,2.668,1.0
4.0,128.182343,37.934401,7036.8846816000005,-24.861,0.395,2.666,1.0
4.0166,128.182344,37.934446,7036.896568800001,-25.004,0.384,2.665,1.0
4.0333,128.182346,37.934491,7036.907236800001,-25.147,0.374,2.664,1.0
4.05,128.182348,37.934536,7036.9166856,-25.289,0.364,2.662,1.0
4.0666,128.182349,37.934581,7036.924915200001,-25.432,0.353,2.661,1.0
4.0833,128.182351,37.934626,7036.9322304,-25.576,0.343,2.659,1.0
4.1,128.182353,37.934671,7036.9380216,-25.719,0.332,2.658,1.0
4.1166,128.182354,37.934716,7036.9428984,-25.863,0.322,2.656,1.0
4.1333,128.182356,37.934761,7036.946251200001,-26.007,0.311,2.655,1.0
4.15,128.182357,37.934806,7036.9486896,-26.151,0.301,2.653,1.0
4.1666,128.182359,37.934851,7036.949604,-26.295,0.29,2.652,1.0
4.1833,128.182361,37.934896,7036.9492992000005,-26.439,0.279,2.65,1.0
4.2,128.182362,37.934941,7036.94808,-26.584,0.268,2.649,1.0
4.2166,128.182364,37.934986,7036.9453368,-26.729,0.257,2.647,1.0
4.2333,128.182365,37.935031,7036.941679200001,-26.874,0.246,2.646,1.0
4.25,128.182367,37.935076,7036.936497600001,-27.019,0.235,2.644,1.0
4.2666,128.182369,37.935121,7036.930096800001,-27.164,0.224,2.643,1.0
4.2833,128.18237,37.935166,7036.9224768,-27.309,0.213,2.641,1.0
4.3,128.182372,37.935211,7036.913637600001,-27.455,0.202,2.64,1.0
4.3166,128.182373,37.935256,7036.9035792,-27.6,0.191,2.638,1.0
4.3333,128.182375,37.935302,7036.892301600001,-27.746,0.18,2.636,1.0
4.35,128.182376,37.935347,7036.879804800001,-27.892,0.169,2.635,1.0
4.3666,128.182378,37.935392,7036.8657840000005,-28.038,0.157,2.633,1.0
4.3833,128.182379,37.935437,7036.8508488,-28.184,0.146,2.632,1.0
4.4,128.182381,37.935482,7036.8343896,-28.331,0.134,2.63,1.0
4.4166,128.182383,37.935527,7036.816711200001,-28.477,0.123,2.628,1.0
4.4333,128.182384,37.935572,7036.7978136,-28.624,0.112,2.627,1.0
4.45,128.182386,37.935617,7036.777392000001,-28.77,0.1,2.625,1.0
4.4666,128.182387,37.935662,7036.756056000001,-28.917,0.089,2.623,1.0
4.4833,128.182389,37.935707,7036.733196,-29.064,0.077,2.622,1.0
4.5,128.18239,37.935752,7036.7091168,-29.211,0.066,2.62,1.0
4.5166,128.182392,37.935798,7036.6835136,-29.358,0.054,2.618,1.0
4.5333,128.182393,37.935843,7036.656996000001,-29.505,0.042,2.616,1.0
4.55,128.182395,37.935888,7036.6289544,-29.652,0.031,2.615,1.0
4.5666,128.182396,37.935933,7036.5996936,-29.799,0.019,2.613,1.0
4.5833,128.182398,37.935978,7036.5689088,-29.946,0.007,2.611,1.0
4.6,128.182399,37.936023,7036.5369048,-30.094,-0.003,2.609,1.0
4.6166,128.182401,37.936068,7036.5036816,-30.241,-0.015,2.607,1.0
4.6333,128.182402,37.936114,7036.4689344,-30.388,-0.027,2.605,1.0
4.65,128.182404,37.936159,7036.432968,-30.535,-0.039,2.604,1.0
4.6666,128.182405,37.936204,7036.395782400001,-30.683,-0.05,2.602,1.0
4.6833,128.182406,37.936249,7036.3570728,-30.83,-0.062,2.6,1.0
4.7,128.182408,37.936294,7036.3168392,-30.977,-0.074,2.598,1.0
4.7166,128.182409,37.936339,7036.2756912,-31.125,-0.086,2.596,1.0
4.7333,128.182411,37.936384,7036.233019200001,-31.272,-0.097,2.594,1.0
4.75,128.182412,37.93643,7036.1888232,-31.419,-0.109,2.592,1.0
4.7666,128.182414,37.936475,7036.143408,-31.567,-0.121,2.589,1.0
4.7833,128.182415,37.93652,7036.0967736,-31.714,-0.133,2.587,1.0
4.8,128.182417,37.936565,7036.0486152,-31.861,-0.144,2.585,1.0
4.8166,128.182418,37.93661,7035.9989328,-32.009,-0.156,2.583,1.0
4.8333,128.182419,37.936656,7035.9480312000005,-32.156,-0.168,2.58,1.0
4.85,128.182421,37.936701,7035.8959104000005,-32.304,-0.18,2.578,1.0
4.8666,128.182422,37.936746,7035.842265600001,-32.452,-0.191,2.576,1.0
4.8833,128.182424,37.936791,7035.787096800001,-32.599,-0.203,2.573,1.0
4.9,128.182425,37.936836,7035.730708800001,-32.747,-0.215,2.571,1.0
4.9166,128.182426,37.936882,7035.6727968000005,-32.894,-0.226,2.568,1.0
4.9333,128.182428,37.936927,7035.613665600001,-33.042,-0.238,2.566,1.0
4.95,128.182429,37.936972,7035.553010400001,-33.19,-0.25,2.563,1.0
4.9666,128.182431,37.937017,7035.491136000001,-33.337,-0.261,2.561,1.0
4.9833,128.182432,37.937063,7035.427432800001,-33.485,-0.273,2.558,1.0
5.0,128.182433,37.937108,7035.362815200001,-33.632,-0.285,2.555,1.0
5.0166,128.182435,37.937153,7035.296368800001,-33.78,-0.296,2.553,1.0
5.0333,128.182436,37.937198,7035.2287032,-33.927,-0.308,2.55,1.0
5.05,128.182437,37.937244,7035.1598184,-34.075,-0.32,2.547,1.0
5.0666,128.182439,37.937289,7035.0894096,-34.222,-0.331,2.544,1.0
5.0833,128.18244,37.937334,7035.017476800001,-34.37,-0.343,2.541,1.0
5.1,128.182441,37.937379,7034.944020000001,-34.517,-0.355,2.538,1.0
5.1166,128.182443,37.937425,7034.869344,-34.664,-0.366,2.536,1.0
5.1333,128.182444,37.93747,7034.793144,-34.812,-0.378,2.533,1.0
5.15,128.182445,37.937515,7034.71542,-34.959,-0.39,2.53,1.0
5.1666,128.182447,37.93756,7034.636172,-35.106,-0.401,2.527,1.0
5.1833,128.182448,37.937606,7034.5557048,-35.253,-0.413,2.523,1.0
5.2,128.182449,37.937651,7034.4737136,-35.4,-0.425,2.52,1.0
5.2166,128.182451,37.937696,7034.3905032,-35.547,-0.436,2.517,1.0
5.2333,128.182452,37.937742,7034.305464,-35.693,-0.448,2.514,1.0
5.25,128.182453,37.937787,7034.2192056,-35.84,-0.46,2.511,1.0
5.2666,128.182454,37.937832,7034.1314232,-35.987,-0.472,2.508,1.0
5.2833,128.182456,37.937878,7034.0421168,-36.133,-0.483,2.504,1.0
5.3,128.182457,37.937923,7033.951591200001,-36.279,-0.495,2.501,1.0
5.3166,128.182458,37.937968,7033.859236800001,-36.425,-0.507,2.498,1.0
5.3333,128.18246,37.938014,7033.7656632,-36.571,-0.519,2.495,1.0
5.35,128.182461,37.938059,7033.670565600001,-36.717,-0.531,2.491,1.0
5.3666,128.182462,37.938104,7033.573944,-36.863,-0.543,2.488,1.0
5.3833,128.182463,37.93815,7033.4757984,-37.008,-0.555,2.484,1.0
5.4,128.182465,37.938195,7033.3764336,-37.154,-0.566,2.481,1.0
5.4166,128.182466,37.93824,7033.27524,-37.299,-0.578,2.478,1.0
5.4333,128.182467,37.938286,7033.1728272,-37.444,-0.59,2.474,1.0
5.45,128.182468,37.938331,7033.0688904,-37.589,-0.602,2.471,1.0
5.4666,128.182469,37.938376,7032.9631248000005,-37.734,-0.614,2.467,1.0
5.4833,128.182471,37.938422,7032.85614,-37.878,-0.627,2.464,1.0
5.5,128.182472,37.938467,7032.7476312,-38.023,-0.639,2.46,1.0
5.5166,128.182473,37.938513,7032.6379032,-38.167,-0.651,2.457,1.0
5.5333,128.182474,37.938558,7032.526346400001,-38.311,-0.663,2.453,1.0
5.55,128.182476,37.938603,7032.413265600001,-38.455,-0.675,2.45,1.0
5.5666,128.182477,37.938649,7032.298660800001,-38.599,-0.687,2.446,1.0
5.5833,128.182478,37.938694,7032.182532000001,-38.742,-0.699,2.442,1.0
5.6,128.182479,37.93874,7032.065184000001,-38.885,-0.712,2.439,1.0
5.6166,128.18248,37.938785,7031.9460072,-39.029,-0.724,2.435,1.0
5.6333,128.182481,37.93883,7031.825306400001,-39.171,-0.736,2.431,1.0
5.65,128.182483,37.938876,7031.7033864,-39.314,-0.748,2.428,1.0
5.6666,128.182484,37.938921,7031.579637600001,-39.457,-0.761,2.424,1.0
5.6833,128.182485,37.938967,7031.454364800001,-39.599,-0.773,2.42,1.0
5.7,128.182486,37.939012,7031.3278728000005,-39.741,-0.785,2.416,1.0
5.7166,128.182487,37.939058,7031.199552000001,-39.883,-0.798,2.412,1.0
5.7333,128.182488,37.939103,7031.0697072,-40.024,-0.81,2.409,1.0
5.75,128.182489,37.939149,7030.938338400001,-40.166,-0.823,2.405,1.0
5.7666,128.182491,37.939194,7030.8054456,-40.307,-0.835,2.401,1.0
5.7833,128.182492,37.93924,7030.6710288,-40.448,-0.848,2.397,1.0
5.8,128.182493,37.939285,7030.5350880000005,-40.589,-0.86,2.393,1.0
5.8166,128.182494,37.93933,7030.3976232,-40.729,-0.873,2.389,1.0
5.8333,128.182495,37.939376,7030.2583296,-40.87,-0.886,2.385,1.0
5.85,128.182496,37.939421,7030.1178168,-41.01,-0.898,2.382,1.0
5.8666,128.182497,37.939467,7029.9754752,-41.15,-0.911,2.378,1.0
5.8833,128.182498,37.939512,7029.831609600001,-41.29,-0.924,2.374,1.0
5.9,128.182499,37.939558,7029.686524800001,-41.43,-0.937,2.37,1.0
5.9166,128.182501,37.939603,7029.539611200001,-41.569,-0.95,2.366,1.0
5.9333,128.182502,37.939649,7029.3908688,-41.709,-0.963,2.362,1.0
5.95,128.182503,37.939694,7029.2409072,-41.848,-0.976,2.358,1.0
5.9666,128.182504,37.93974,7029.0894216,-41.987,-0.989,2.354,1.0
5.9833,128.182505,37.939786,7028.9361072,-42.126,-1.002,2.35,1.0
6.0,128.182506,37.939831,7028.7812688,-42.265,-1.015,2.346,1.0
6.0166,128.182507,37.939877,7028.624906400001,-42.404,-1.028,2.342,1.0
6.0333,128.182508,37.939922,7028.466715200001,-42.543,-1.041,2.338,1.0
6.05,128.182509,37.939968,7028.307304800001,-42.681,-1.054,2.334,1.0
6.0666,128.18251,37.940013,7028.146065600001,-42.82,-1.067,2.33,1.0
6.0833,128.182511,37.940059,7027.9833024,-42.958,-1.081,2.326,1.0
6.1,128.182512,37.940104,7027.819015200001,-43.096,-1.094,2.322,1.0
6.1166,128.182513,37.94015,7027.6528992,-43.234,-1.107,2.318,1.0
6.1333,128.182514,37.940196,7027.485259200001,-43.372,-1.121,2.314,1.0
6.15,128.182515,37.940241,7027.316095200001,-43.51,-1.134,2.31,1.0
6.1666,128.182516,37.940287,7027.1454072,-43.648,-1.147,2.306,1.0
6.1833,128.182517,37.940332,7026.9728904,-43.785,-1.161,2.302,1.0
6.2,128.182518,37.940378,7026.7988496,-43.923,-1.174,2.298,1.0
6.2166,128.182519,37.940423,7026.6232848,-44.06,-1.188,2.294,1.0
6.2333,128.18252,37.940469,7026.4458912,-44.198,-1.202,2.29,1.0
6.25,128.182521,37.940515,7026.266973600001,-44.335,-1.215,2.286,1.0
6.2666,128.182522,37.94056,7026.0862272,-44.472,-1.229,2.282,1.0
6.2833,128.182523,37.940606,7025.9042616,-44.609,-1.243,2.278,1.0
6.3,128.182524,37.940652,7025.7204672,-44.747,-1.256,2.274,1.0
6.3166,128.182525,37.940697,7025.534844,-44.884,-1.27,2.269,1.0
6.3333,128.182526,37.940743,7025.3476968,-45.021,-1.284,2.265,1.0
6.35,128.182527,37.940788,7025.1590256,-45.158,-1.298,2.261,1.0
6.3666,128.182528,37.940834,7024.9685256,-45.295,-1.312,2.257,1.0
6.3833,128.182529,37.94088,7024.7765016,-45.432,-1.326,2.253,1.0
6.4,128.182529,37.940925,7024.5829536,-45.569,-1.34,2.249,1.0
6.4166,128.18253,37.940971,7024.3875768,-45.706,-1.353,2.245,1.0
6.4333,128.182531,37.941017,7024.1903712,-45.843,-1.367,2.24,1.0
6.45,128.182532,37.941062,7023.991641600001,-45.98,-1.382,2.236,1.0
6.4666,128.182533,37.941108,7023.791388000001,-46.117,-1.396,2.232,1.0
6.4833,128.182534,37.941154,7023.5893056,-46.254,-1.41,2.228,1.0
6.5,128.182535,37.941199,7023.3856992,-46.392,-1.424,2.224,1.0
6.5166,128.182536,37.941245,7023.1802640000005,-46.529,-1.438,2.219,1.0
6.5333,128.182537,37.941291,7022.973304800001,-46.666,-1.452,2.215,1.0
6.55,128.182538,37.941337,7022.7645168,-46.804,-1.466,2.211,1.0
6.5666,128.182538,37.941382,7022.554204800001,-46.942,-1.481,2.207,1.0
6.5833,128.182539,37.941428,7022.342064,-47.079,-1.495,2.203,1.0
6.6,128.18254,37.941474,7022.1283992,-47.217,-1.509,2.198,1.0
6.6166,128.182541,37.941519,7021.9129056,-47.355,-1.524,2.194,1.0
6.6333,128.182542,37.941565,7021.695888000001,-47.493,-1.538,2.19,1.0
6.65,128.182543,37.941611,7021.4770416,-47.632,-1.553,2.185,1.0
6.6666,128.182543,37.941657,7021.2563664,-47.77,-1.567,2.181,1.0
6.6833,128.182544,37.941702,7021.0341672,-47.909,-1.581,2.177,1.0
6.7,128.182545,37.941748,7020.8101392,-48.047,-1.596,2.172,1.0
6.7166,128.182546,37.941794,7020.584587200001,-48.186,-1.61,2.168,1.0
6.7333,128.182547,37.94184,7020.357206400001,-48.325,-1.625,2.164,1.0
6.75,128.182548,37.941885,7020.127996800001,-48.464,-1.64,2.159,1.0
6.7666,128.182548,37.941931,7019.8972632,-48.603,-1.654,2.155,1.0
6.7833,128.182549,37.941977,7019.664700800001,-48.743,-1.669,2.151,1.0
6.8,128.18255,37.942023,7019.4306144,-48.882,-1.683,2.146,1.0
6.8166,128.182551,37.942069,7019.1946992,-49.022,-1.698,2.142,1.0
6.8333,128.182552,37.942114,7018.9569552,-49.162,-1.713,2.137,1.0
6.85,128.182552,37.94216,7018.717687200001,-49.301,-1.727,2.133,1.0
6.8666,128.182553,37.942206,7018.4765904000005,-49.442,-1.742,2.128,1.0
6.8833,128.182554,37.942252,7018.233664800001,-49.582,-1.756,2.123,1.0
6.9,128.182555,37.942298,7017.9889104,-49.722,-1.771,2.119,1.0
6.9166,128.182555,37.942343,7017.742632,-49.863,-1.786,2.114,1.0
6.9333,128.182556,37.942389,7017.494524800001,-50.004,-1.8,2.109,1.0
6.95,128.182557,37.942435,7017.2448936,-50.145,-1.815,2.105,1.0
6.9666,128.182558,37.942481,7016.993128800001,-50.286,-1.83,2.1,1.0
6.9833,128.182558,37.942527,7016.73984,-50.428,-1.844,2.095,1.0
7.0,128.182559,37.942573,7016.4850272,-50.57,-1.859,2.09,1.0
7.0166,128.18256,37.942618,7016.2280808000005,-50.712,-1.874,2.085,1.0
7.0333,128.182561,37.942664,7015.9696104,-50.854,-1.888,2.08,1.0
7.05,128.182561,37.94271,7015.709311200001,-50.996,-1.903,2.075,1.0
7.0666,128.182562,37.942756,7015.447183200001,-51.139,-1.918,2.07,1.0
7.0833,128.182563,37.942802,7015.1832264,-51.282,-1.932,2.065,1.0
7.1,128.182563,37.942848,7014.917745600001,-51.425,-1.947,2.06,1.0
7.1166,128.182564,37.942894,7014.650436,-51.569,-1.961,2.055,1.0
7.1333,128.182565,37.942939,7014.381297600001,-51.713,-1.976,2.049,1.0
7.15,128.182565,37.942985,7014.1103304,-51.857,-1.991,2.044,1.0
7.1666,128.182566,37.943031,7013.8375344,-52.002,-2.005,2.039,1.0
7.1833,128.182567,37.943077,7013.5632144,-52.146,-2.02,2.033,1.0
7.2,128.182567,37.943123,7013.2870656000005,-52.292,-2.034,2.027,1.0
7.2166,128.182568,37.943169,7013.009088000001,-52.437,-2.049,2.022,1.0
7.2333,128.182569,37.943215,7012.7292816,-52.583,-2.063,2.016,1.0
7.25,128.182569,37.943261,7012.447951200001,-52.729,-2.077,2.01,1.0
7.2666,128.18257,37.943307,7012.164487200001,-52.876,-2.092,2.004,1.0
7.2833,128.182571,37.943353,7011.8794992,-53.023,-2.106,1.998,1.0
7.3,128.182571,37.943399,7011.592682400001,-53.17,-2.121,1.992,1.0
7.3166,128.182572,37.943445,7011.3040368,-53.318,-2.135,1.986,1.0
7.3333,128.182573,37.943491,7011.0135624,-53.467,-2.149,1.98,1.0
7.35,128.182573,37.943536,7010.7212592000005,-53.616,-2.163,1.973,1.0
7.3666,128.182574,37.943582,7010.427432,-53.765,-2.178,1.967,1.0
7.3833,128.182574,37.943628,7010.1314712,-53.915,-2.192,1.96,1.0
7.4,128.182575,37.943674,7009.8339864,-54.066,-2.206,1.954,1.0
7.4166,128.182576,37.94372,7009.5346728,-54.217,-2.22,1.947,1.0
7.4333,128.182576,37.943766,7009.2335304,-54.369,-2.234,1.94,1.0
7.45,128.182577,37.943812,7008.9305592,-54.521,-2.248,1.933,1.0
7.4666,128.182577,37.943858,7008.626064,-54.674,-2.262,1.926,1.0
7.4833,128.182578,37.943904,7008.3194352,-54.828,-2.276,1.919,1.0
7.5,128.182579,37.94395,7008.011282400001,-54.983,-2.29,1.911,1.0
7.5166,128.182579,37.943996,7007.7013008,-55.139,-2.304,1.904,1.0
7.5333,128.18258,37.944042,7007.3894904,-55.296,-2.317,1.896,1.0
7.55,128.18258,37.944088,7007.0758512,-55.454,-2.331,1.888,1.0
7.5666,128.182581,37.944134,7006.7603832,-55.613,-2.345,1.88,1.0
7.5833,128.182581,37.94418,7006.4433912,-55.773,-2.359,1.872,1.0
7.6,128.182582,37.944226,7006.1242656,-55.935,-2.372,1.864,1.0
7.6166,128.182582,37.944272,7005.803616,-56.098,-2.386,1.856,1.0
7.6333,128.182583,37.944318,7005.481137600001,-56.262,-2.399,1.848,1.0
7.65,128.182583,37.944365,7005.1568304,-56.428,-2.413,1.839,1.0
7.6666,128.182584,37.944411,7004.8306944000005,-56.595,-2.426,1.83,1.0
7.6833,128.182584,37.944457,7004.5030344,-56.764,-2.44,1.821,1.0
7.7,128.182585,37.944503,7004.173545600001,-56.934,-2.453,1.812,1.0
7.7166,128.182585,37.944549,7003.841923200001,-57.107,-2.467,1.803,1.0
7.7333,128.182586,37.944595,7003.5090816,-57.281,-2.48,1.794,1.0
7.75,128.182586,37.944641,7003.174106400001,-57.458,-2.493,1.784,1.0
7.7666,128.182587,37.944687,7002.8373024,-57.636,-2.506,1.775,1.0
7.7833,128.182587,37.944733,7002.4989744,-57.817,-2.519,1.765,1.0
7.8,128.182588,37.944779,7002.1588176000005,-58.0,-2.532,1.755,1.0
7.8166,128.182588,37.944825,7001.816832,-58.185,-2.546,1.745,1.0
7.8333,128.182589,37.944871,7001.4733224,-58.373,-2.559,1.735,1.0
7.85,128.182589,37.944917,7001.127679200001,-58.564,-2.572,1.725,1.0
7.8666,128.18259,37.944964,7000.780512,-58.757,-2.585,1.715,1.0
7.8833,128.18259,37.94501,7000.431516,-58.953,-2.598,1.704,1.0
7.9,128.18259,37.945056,7000.080996000001,-59.153,-2.612,1.694,1.0
7.9166,128.182591,37.945102,6999.728342400001,-59.355,-2.625,1.684,1.0
7.9333,128.182591,37.945148,6999.3741648000005,-59.561,-2.639,1.674,1.0
7.95,128.182592,37.945194,6999.0181584,-59.771,-2.652,1.664,1.0
7.9666,128.182592,37.94524,6998.6606280000005,-59.984,-2.666,1.653,1.0
7.9833,128.182592,37.945286,6998.300964,-60.2,-2.679,1.643,1.0
8.0,128.182593,37.945333,6997.939776,-60.42,-2.693,1.633,1.0
8.0166,128.182593,37.945379,6997.5767592,-60.644,-2.707,1.623,1.0
8.0333,128.182593,37.945425,6997.2122184,-60.871,-2.721,1.613,1.0
8.05,128.182594,37.945471,6996.845544,-61.102,-2.735,1.603,1.0
8.0666,128.182594,37.945517,6996.4773456,-61.336,-2.748,1.592,1.0
8.0833,128.182594,37.945563,6996.107318400001,-61.573,-2.761,1.581,1.0
8.1,128.182595,37.94561,6995.7354624,-61.812,-2.775,1.57,1.0
8.1166,128.182595,37.945656,6995.3617776,-62.054,-2.788,1.559,1.0
8.1333,128.182595,37.945702,6994.986264,-62.298,-2.801,1.548,1.0
8.15,128.182596,37.945748,6994.6092264,-62.543,-2.814,1.537,1.0
8.1666,128.182596,37.945794,6994.230055200001,-62.79,-2.828,1.526,1.0
8.1833,128.182596,37.94584,6993.8490552,-63.038,-2.841,1.515,1.0
8.2,128.182596,37.945887,6993.466531200001,-63.287,-2.854,1.504,1.0
8.2166,128.182597,37.945933,6993.081873600001,-63.536,-2.868,1.494,1.0
8.2333,128.182597,37.945979,6992.6953872,-63.787,-2.882,1.484,1.0
8.25,128.182597,37.946025,6992.3073768,-64.038,-2.896,1.474,1.0
8.2666,128.182597,37.946071,6991.9172328,-64.289,-2.91,1.464,1.0
8.2833,128.182598,37.946118,6991.52526,-64.541,-2.924,1.455,1.0
8.3,128.182598,37.946164,6991.1314584,-64.793,-2.938,1.446,1.0
8.3166,128.182598,37.94621,6990.735828000001,-65.045,-2.953,1.437,1.0
8.3333,128.182598,37.946256,6990.3383688,-65.298,-2.967,1.429,1.0
8.35,128.182599,37.946303,6989.938776,-65.55,-2.982,1.42,1.0
8.3666,128.182599,37.946349,6989.5376592,-65.802,-2.997,1.412,1.0
8.3833,128.182599,37.946395,6989.1344088000005,-66.054,-3.012,1.404,1.0
8.4,128.182599,37.946441,6988.7293296,-66.305,-3.027,1.397,1.0
8.4166,128.182599,37.946488,6988.3221168,-66.555,-3.042,1.389,1.0
8.4333,128.1826,37.946534,6987.9130752,-66.804,-3.057,1.382,1.0
8.45,128.1826,37.94658,6987.5022048,-67.052,-3.072,1.374,1.0
8.4666,128.1826,37.946626,6987.089505600001,-67.299,-3.088,1.367,1.0
8.4833,128.1826,37.946673,6986.674672800001,-67.544,-3.103,1.36,1.0
8.5,128.1826,37.946719,6986.2580112000005,-67.788,-3.118,1.353,1.0
8.5166,128.1826,37.946765,6985.839215999999,-68.03,-3.134,1.347,1.0
8.5333,128.1826,37.946811,6985.418592000001,-68.27,-3.149,1.34,1.0
8.55,128.182601,37.946858,6984.9958344,-68.508,-3.165,1.334,1.0
8.5666,128.182601,37.946904,6984.571248,-68.744,-3.181,1.328,1.0
8.5833,128.182601,37.94695,6984.144832800001,-68.979,-3.196,1.322,1.0
8.6,128.182601,37.946997,6983.715979200001,-69.211,-3.212,1.317,1.0
8.6166,128.182601,37.947043,6983.2856016000005,-69.443,-3.228,1.311,1.0
8.6333,128.182601,37.947089,6982.8530904,-69.673,-3.244,1.305,1.0
8.65,128.182601,37.947136,6982.4184456,-69.902,-3.26,1.299,1.0
8.6666,128.182601,37.947182,6981.9816672,-70.13,-3.277,1.294,1.0
8.6833,128.182602,37.947228,6981.543364800001,-70.357,-3.293,1.288,1.0
8.7,128.182602,37.947275,6981.102624000001,-70.583,-3.309,1.282,1.0
8.7166,128.182602,37.947321,6980.6600544,-70.808,-3.325,1.276,1.0
8.7333,128.182602,37.947367,6980.2153512,-71.033,-3.341,1.27,1.0
8.75,128.182602,37.947414,6979.7688192000005,-71.256,-3.357,1.264,1.0
8.7666,128.182602,37.94746,6979.3201536,-71.479,-3.373,1.257,1.0
8.7833,128.182602,37.947506,6978.869354400001,-71.702,-3.389,1.251,1.0
8.8,128.182602,37.947553,6978.4167264,-71.923,-3.406,1.244,1.0
8.8166,128.182602,37.947599,6977.961964800001,-72.145,-3.422,1.237,1.0
8.8333,128.182602,37.947646,6977.505374400001,-72.366,-3.438,1.231,1.0
8.85,128.182602,37.947692,6977.046345600001,-72.586,-3.454,1.223,1.0
8.8666,128.182602,37.947738,6976.585488000001,-72.806,-3.47,1.216,1.0
8.8833,128.182602,37.947785,6976.1228016000005,-73.025,-3.486,1.209,1.0
8.9,128.182602,37.947831,6975.6576768,-73.244,-3.502,1.201,1.0
8.9166,128.182602,37.947877,6975.1907232,-73.462,-3.518,1.193,1.0
8.9333,128.182602,37.947924,6974.721636,-73.68,-3.534,1.185,1.0
8.95,128.182602,37.94797,6974.250720000001,-73.898,-3.55,1.177,1.0
8.9666,128.182602,37.948017,6973.777365600001,-74.115,-3.566,1.169,1.0
8.9833,128.182602,37.948063,6973.302182400001,-74.332,-3.582,1.16,1.0
9.0,128.182602,37.94811,6972.825170400001,-74.549,-3.598,1.151,1.0
9.0166,128.182602,37.948156,6972.345720000001,-74.766,-3.614,1.143,1.0
9.0333,128.182602,37.948202,6971.8644408,-74.982,-3.63,1.134,1.0
9.05,128.182602,37.948249,6971.381028000001,-75.198,-3.646,1.125,1.0
9.0666,128.182602,37.948295,6970.8954816000005,-75.414,-3.662,1.115,1.0
9.0833,128.182602,37.948342,6970.4078016,-75.63,-3.678,1.106,1.0
9.1,128.182602,37.948388,6969.918292800001,-75.846,-3.694,1.097,1.0
9.1166,128.182602,37.948435,6969.426345600001,-76.062,-3.71,1.087,1.0
9.1333,128.182602,37.948481,6968.9325696000005,-76.277,-3.727,1.078,1.0
9.15,128.182602,37.948528,6968.436964800001,-76.493,-3.743,1.068,1.0
9.1666,128.182602,37.948574,6967.9389216,-76.708,-3.759,1.058,1.0
9.1833,128.182602,37.948621,6967.4387448,-76.923,-3.775,1.048,1.0
9.2,128.182602,37.948667,6966.9367392,-77.138,-3.791,1.038,1.0
9.2166,128.182602,37.948714,6966.4326,-77.353,-3.808,1.029,1.0
9.2333,128.182602,37.94876,6965.926327200001,-77.568,-3.824,1.018,1.0
9.25,128.182602,37.948807,6965.4179208,-77.783,-3.84,1.008,1.0
9.2666,128.182602,37.948853,6964.9076856,-77.998,-3.857,0.998,1.0
9.2833,128.182602,37.9489,6964.395012,-78.213,-3.873,0.988,1.0
9.3,128.182602,37.948946,6963.880509600001,-78.427,-3.89,0.978,1.0
9.3166,128.182602,37.948993,6963.3638736,-78.642,-3.906,0.967,1.0
9.3333,128.182601,37.949039,6962.845104,-78.857,-3.923,0.957,1.0
9.35,128.182601,37.949086,6962.324200800001,-79.072,-3.94,0.947,1.0
9.3666,128.182601,37.949132,6961.8014688,-79.286,-3.956,0.936,1.0
9.3833,128.182601,37.949179,6961.2762984,-79.501,-3.973,0.926,1.0
9.4,128.182601,37.949225,6960.7492992,-79.716,-3.99,0.915,1.0
9.4166,128.182601,37.949272,6960.2198616,-79.931,-4.006,0.905,1.0
9.4333,128.182601,37.949318,6959.6885952,-80.145,-4.023,0.894,1.0
9.45,128.182601,37.949365,6959.1551952,-80.36,-4.04,0.884,1.0
9.4666,128.182601,37.949412,6958.6196616,-80.575,-4.057,0.873,1.0
9.4833,128.1826,37.949458,6958.0819944,-80.79,-4.074,0.862,1.0
9.5,128.1826,37.949505,6957.5424984,-81.005,-4.091,0.852,1.0
9.5166,128.1826,37.949551,6957.000564000001,-81.22,-4.108,0.841,1.0
9.5333,128.1826,37.949598,6956.456496000001,-81.434,-4.125,0.83,1.0
9.55,128.1826,37.949644,6955.9105992,-81.649,-4.142,0.82,1.0
9.5666,128.1826,37.949691,6955.362264,-81.864,-4.16,0.809,1.0
9.5833,128.182599,37.949738,6954.8121,-82.079,-4.177,0.798,1.0
9.6,128.182599,37.949784,6954.2598024,-82.294,-4.194,0.788,1.0
9.6166,128.182599,37.949831,6953.7053712,-82.509,-4.212,0.777,1.0
9.6333,128.182599,37.949877,6953.1488064000005,-82.724,-4.229,0.766,1.0
9.65,128.182599,37.949924,6952.590108,-82.939,-4.246,0.756,1.0
9.6666,128.182599,37.949971,6952.029276,-83.154,-4.264,0.745,1.0
9.6833,128.182598,37.950017,6951.466310400001,-83.369,-4.281,0.734,1.0
9.7,128.182598,37.950064,6950.901211200001,-83.584,-4.299,0.723,1.0
9.7166,128.182598,37.950111,6950.333978400001,-83.799,-4.316,0.713,1.0
9.7333,128.182598,37.950157,6949.764612,-84.014,-4.334,0.702,1.0
9.75,128.182598,37.950204,6949.193112,-84.229,-4.352,0.691,1.0
9.7666,128.182597,37.950251,6948.619478400001,-84.444,-4.369,0.68,1.0
9.7833,128.182597,37.950297,6948.044016,-84.659,-4.387,0.669,1.0
9.8,128.182597,37.950344,6947.466115200001,-84.874,-4.405,0.659,1.0
9.8166,128.182597,37.950391,6946.8860808,-85.089,-4.423,0.648,1.0
9.8333,128.182596,37.950437,6946.3042176,-85.304,-4.441,0.637,1.0
9.85,128.182596,37.950484,6945.719916,-85.519,-4.459,0.626,1.0
9.8666,128.182596,37.950531,6945.1334808,-85.734,-4.477,0.615,1.0
9.8833,128.182596,37.950577,6944.5452168,-85.949,-4.495,0.604,1.0
9.9,128.182595,37.950624,6943.9545144,-86.165,-4.513,0.593,1.0
9.9166,128.182595,37.950671,6943.3616784000005,-86.38,-4.531,0.582,1.0
9.9333,128.182595,37.950717,6942.7667088,-86.595,-4.549,0.572,1.0
9.95,128.182595,37.950764,6942.169910400001,-86.81,-4.567,0.561,1.0
9.9666,128.182594,37.950811,6941.5706736,-87.026,-4.586,0.55,1.0
9.9833,128.182594,37.950858,6940.9693032000005,-87.241,-4.604,0.539,1.0
10.0,128.182594,37.950904,6940.3657992,-87.456,-4.622,0.528,1.0
10.0166,128.182594,37.950951,6939.7601616,-87.672,-4.641,0.517,1.0
10.0333,128.182593,37.950998,6939.1526952,-87.887,-4.659,0.506,1.0
10.05,128.182593,37.951044,6938.5427904,-88.102,-4.678,0.495,1.0
10.0666,128.182593,37.951091,6937.930752000001,-88.318,-4.696,0.484,1.0
10.0833,128.182592,37.951138,6937.31658,-88.533,-4.715,0.473,1.0
10.1,128.182592,37.951185,6936.700274400001,-88.749,-4.733,0.462,1.0
10.1166,128.182592,37.951231,6936.0815304,-88.964,-4.752,0.451,1.0
10.1333,128.182591,37.951278,6935.4609576,-89.18,-4.771,0.439,1.0
10.15,128.182591,37.951325,6934.838251200001,-89.396,-4.79,0.428,1.0
10.1666,128.182591,37.951372,6934.213411200001,-89.612,-4.808,0.417,1.0
10.1833,128.18259,37.951418,6933.586132800001,-89.827,-4.827,0.406,1.0
10.2,128.18259,37.951465,6932.9570256,-90.043,-4.846,0.395,1.0
10.2166,128.18259,37.951512,6932.3254799999995,-90.259,-4.865,0.384,1.0
10.2333,128.182589,37.951559,6931.692105600001,-90.475,-4.884,0.373,1.0
10.25,128.182589,37.951606,6931.056292800001,-90.691,-4.903,0.362,1.0
10.2666,128.182589,37.951652,6930.418346400001,-90.907,-4.922,0.351,1.0
10.2833,128.182588,37.951699,6929.7782664,-91.123,-4.941,0.34,1.0
10.3,128.182588,37.951746,6929.1360528,-91.34,-4.96,0.329,1.0
10.3166,128.182587,37.951793,6928.4917056,-91.556,-4.98,0.318,1.0
10.3333,128.182587,37.95184,6927.845224800001,-91.772,-4.999,0.306,1.0
10.35,128.182587,37.951887,6927.1963056,-91.989,-5.018,0.295,1.0
10.3666,128.182586,37.951933,6926.5455576,-92.205,-5.038,0.284,1.0
10.3833,128.182586,37.95198,6925.8923712,-92.421,-5.057,0.273,1.0
10.4,128.182586,37.952027,6925.237051200001,-92.638,-5.077,0.262,1.0
10.4166,128.182585,37.952074,6924.579597600001,-92.854,-5.096,0.251,1.0
10.4333,128.182585,37.952121,6923.920010400001,-93.071,-5.116,0.24,1.0
10.45,128.182584,37.952168,6923.2582896,-93.288,-5.135,0.229,1.0
10.4666,128.182584,37.952214,6922.5944352,-93.504,-5.155,0.217,1.0
10.4833,128.182583,37.952261,6921.928447200001,-93.721,-5.175,0.206,1.0
10.5,128.182583,37.952308,6921.260020799999,-93.938,-5.194,0.195,1.0
10.5166,128.182583,37.952355,6920.589460800001,-94.155,-5.214,0.184,1.0
10.5333,128.182582,37.952402,6919.917072,-94.372,-5.234,0.173,1.0
10.55,128.182582,37.952449,6919.2422448,-94.588,-5.254,0.162,1.0
10.5666,128.182581,37.952496,6918.565284000001,-94.805,-5.274,0.15,1.0
10.5833,128.182581,37.952543,6917.8858848,-95.022,-5.294,0.139,1.0
10.6,128.18258,37.952589,6917.2046568000005,-95.239,-5.314,0.128,1.0
10.6166,128.18258,37.952636,6916.5209904,-95.456,-5.334,0.117,1.0
10.6333,128.182579,37.952683,6915.8351904,-95.673,-5.354,0.106,1.0
10.65,128.182579,37.95273,6915.147256800001,-95.891,-5.374,0.095,1.0
10.6666,128.182579,37.952777,6914.4571896,-96.108,-5.394,0.083,1.0
10.6833,128.182578,37.952824,6913.7649888,-96.325,-5.414,0.072,1.0
10.7,128.182578,37.952871,6913.070349600001,-96.542,-5.435,0.061,1.0
10.7166,128.182577,37.952918,6912.373576800001,-96.759,-5.455,0.05,1.0
10.7333,128.182577,37.952965,6911.6749752,-96.976,-5.475,0.039,1.0
10.75,128.182576,37.953012,6910.9736304,-97.194,-5.496,0.027,1.0
10.7666,128.182576,37.953059,6910.270456800001,-97.411,-5.516,0.016,1.0
10.7833,128.182575,37.953106,6909.5651496,-97.628,-5.537,0.005,1.0
10.8,128.182575,37.953153,6908.857404,-97.846,-5.557,359.994,1.0
10.8166,128.182574,37.953199,6908.147524800001,-98.063,-5.578,359.983,1.0
10.8333,128.182574,37.953246,6907.435512,-98.28,-5.598,359.971,1.0
10.85,128.182573,37.953293,6906.721365600001,-98.49,-5.619,359.958,1.0
10.8666,128.182572,37.95334,6906.0047808,-98.693,-5.64,359.943,1.0
10.8833,128.182572,37.953387,6905.2863672,-98.89,-5.661,359.926,1.0
10.9,128.182571,37.953434,6904.565515200001,-99.081,-5.683,359.908,1.0
10.9166,128.182571,37.953481,6903.8425296,-99.268,-5.704,359.891,1.0
10.9333,128.18257,37.953528,6903.1171056,-99.451,-5.726,359.873,1.0
10.95,128.18257,37.953575,6902.3898528,-99.631,-5.748,359.855,1.0
10.9666,128.182569,37.953622,6901.6601616,-99.809,-5.77,359.837,1.0
10.9833,128.182569,37.953669,6900.928336800001,-99.985,-5.793,359.82,1.0
11.0,128.182568,37.953716,6900.194073600001,-100.16,-5.815,359.802,1.0
11.0166,128.182568,37.953763,6899.4579816000005,-100.333,-5.838,359.786,1.0
11.0333,128.182567,37.95381,6898.719451200001,-100.505,-5.86,359.769,1.0
11.05,128.182566,37.953857,6897.978482400001,-100.677,-5.883,359.753,1.0
11.0666,128.182566,37.953904,6897.2356848,-100.848,-5.905,359.737,1.0
11.0833,128.182565,37.953951,6896.4904488,-101.019,-5.928,359.721,1.0
11.1,128.182565,37.953999,6895.742774400001,-101.189,-5.95,359.705,1.0
11.1166,128.182564,37.954046,6894.9932712,-101.359,-5.973,359.69,1.0
11.1333,128.182563,37.954093,6894.2413295999995,-101.529,-5.996,359.675,1.0
11.15,128.182563,37.95414,6893.4869496,-101.699,-6.018,359.66,1.0
11.1666,128.182562,37.954187,6892.730436,-101.869,-6.041,359.645,1.0
11.1833,128.182562,37.954234,6891.9717888,-102.038,-6.064,359.63,1.0
11.2,128.182561,37.954281,6891.211008,-102.208,-6.087,359.616,1.0
11.2166,128.18256,37.954328,6890.4477888,-102.377,-6.109,359.601,1.0
11.2333,128.18256,37.954375,6889.6821312,-102.546,-6.132,359.587,1.0
11.25,128.182559,37.954422,6888.91434,-102.716,-6.155,359.573,1.0
11.2666,128.182558,37.954469,6888.1444152,-102.885,-6.178,359.559,1.0
11.2833,128.182558,37.954516,6887.372052000001,-103.055,-6.201,359.545,1.0
11.3,128.182557,37.954563,6886.597555200001,-103.224,-6.224,359.531,1.0
11.3166,128.182556,37.954611,6885.820924800001,-103.394,-6.247,359.517,1.0
11.3333,128.182556,37.954658,6885.041856000001,-103.563,-6.27,359.504,1.0
11.35,128.182555,37.954705,6884.2603488,-103.733,-6.293,359.49,1.0
11.3666,128.182554,37.954752,6883.476708,-103.902,-6.316,359.477,1.0
11.3833,128.182554,37.954799,6882.690933600001,-104.072,-6.339,359.464,1.0
11.4,128.182553,37.954846,6881.9027208,-104.242,-6.362,359.45,1.0
11.4166,128.182552,37.954893,6881.112374400001,-104.412,-6.385,359.437,1.0
11.4333,128.182551,37.95494,6880.3195896,-104.582,-6.408,359.424,1.0
11.45,128.182551,37.954988,6879.5243664,-104.751,-6.431,359.411,1.0
11.4666,128.18255,37.955035,6878.727314400001,-104.921,-6.454,359.398,1.0
11.4833,128.182549,37.955082,6877.9275192000005,-105.091,-6.478,359.385,1.0
11.5,128.182549,37.955129,6877.1255904,-105.261,-6.501,359.372,1.0
11.5166,128.182548,37.955176,6876.321528,-105.431,-6.524,359.359,1.0
11.5333,128.182547,37.955223,6875.5150272,-105.602,-6.548,359.346,1.0
11.55,128.182546,37.955271,6874.706392800001,-105.772,-6.571,359.333,1.0
11.5666,128.182545,37.955318,6873.8953200000005,-105.942,-6.594,359.32,1.0
11.5833,128.182545,37.955365,6873.0821136,-106.112,-6.618,359.307,1.0
11.6,128.182544,37.955412,6872.2664688,-106.282,-6.641,359.294,1.0
11.6166,128.182543,37.955459,6871.4483856,-106.453,-6.665,359.282,1.0
11.6333,128.182542,37.955507,6870.628168800001,-106.623,-6.688,359.269,1.0
11.65,128.182541,37.955554,6869.8058184,-106.794,-6.712,359.256,1.0
11.6666,128.182541,37.955601,6868.980724800001,-106.964,-6.735,359.244,1.0
11.6833,128.18254,37.955648,6868.1538024,-107.134,-6.759,359.231,1.0
11.7,128.182539,37.955696,6867.324136800001,-107.305,-6.783,359.218,1.0
11.7166,128.182538,37.955743,6866.4926424000005,-107.475,-6.807,359.206,1.0
11.7333,128.182537,37.95579,6865.6584048,-107.646,-6.83,359.193,1.0
11.75,128.182536,37.955837,6864.8220336,-107.817,-6.854,359.18,1.0
11.7666,128.182536,37.955884,6863.9835288,-107.987,-6.878,359.168,1.0
11.7833,128.182535,37.955932,6863.1422808,-108.158,-6.902,359.155,1.0
11.8,128.182534,37.955979,6862.299204,-108.329,-6.926,359.143,1.0
11.8166,128.182533,37.956026,6861.453384000001,-108.5,-6.95,359.13,1.0
11.8333,128.182532,37.956074,6860.6054304,-108.67,-6.974,359.118,1.0
11.85,128.182531,37.956121,6859.7553431999995,-108.841,-6.998,359.105,1.0
11.8666,128.18253,37.956168,6858.9028176,-109.012,-7.022,359.093,1.0
11.8833,128.182529,37.956215,6858.0478536,-109.184,-7.046,359.08,1.0
11.9,128.182528,37.956263,6857.190451200001,-109.355,-7.07,359.068,1.0
11.9166,128.182528,37.95631,6856.330915200001,-109.526,-7.094,359.055,1.0
11.9333,128.182527,37.956357,6855.4689408,-109.697,-7.118,359.043,1.0
11.95,128.182526,37.956405,6854.604832800001,-109.869,-7.143,359.031,1.0
11.9666,128.182525,37.956452,6853.7382864,-110.04,-7.167,359.018,1.0
11.9833,128.182524,37.956499,6852.8696064000005,-110.211,-7.191,359.006,1.0
12.0,128.182523,37.956546,6851.9981832,-110.383,-7.216,358.993,1.0
12.0166,128.182522,37.956594,6851.1246264,-110.554,-7.24,358.981,1.0
12.0333,128.182521,37.956641,6850.248936,-110.726,-7.264,358.969,1.0
12.05,128.18252,37.956688,6849.3705024,-110.898,-7.289,358.956,1.0
12.0666,128.182519,37.956736,6848.4899352,-111.07,-7.313,358.944,1.0
12.0833,128.182518,37.956783,6847.6072343999995,-111.241,-7.338,358.931,1.0
12.1,128.182517,37.95683,6846.7217904,-111.413,-7.363,358.919,1.0
12.1166,128.182516,37.956878,6845.8342128,-111.585,-7.387,358.907,1.0
12.1333,128.182515,37.956925,6844.944501600001,-111.757,-7.412,358.894,1.0
12.15,128.182514,37.956973,6844.052047200001,-111.929,-7.437,358.882,1.0
12.1666,128.182513,37.95702,6843.157459200001,-112.101,-7.461,358.87,1.0
12.1833,128.182512,37.957067,6842.260432800001,-112.274,-7.486,358.857,1.0
12.2,128.182511,37.957115,6841.361272800001,-112.446,-7.511,358.845,1.0
12.2166,128.18251,37.957162,6840.459369600001,-112.618,-7.536,358.833,1.0
12.2333,128.182509,37.957209,6839.5553328000005,-112.79,-7.561,358.82,1.0
12.25,128.182508,37.957257,6838.6491624,-112.962,-7.586,358.808,1.0
12.2666,128.182507,37.957304,6837.7402488,-113.135,-7.611,358.796,1.0
12.2833,128.182505,37.957352,6836.8292016000005,-113.307,-7.636,358.784,1.0
12.3,128.182504,37.957399,6835.9157159999995,-113.48,-7.661,358.771,1.0
12.3166,128.182503,37.957446,6834.9997920000005,-113.652,-7.686,358.759,1.0
12.3333,128.182502,37.957494,6834.0817344,-113.825,-7.711,358.747,1.0
12.35,128.182501,37.957541,6833.161238400001,-113.997,-7.736,358.735,1.0
12.3666,128.1825,37.957589,6832.238304,-114.17,-7.761,358.722,1.0
12.3833,128.182499,37.957636,6831.3129312,-114.342,-7.786,358.71,1.0
12.4,128.182498,37.957683,6830.385424800001,-114.515,-7.812,358.698,1.0
12.4166,128.182497,37.957731,6829.4551752,-114.688,-7.837,358.686,1.0
12.4333,128.182495,37.957778,6828.522792000001,-114.86,-7.862,358.673,1.0
12.45,128.182494,37.957826,6827.587970400001,-115.033,-7.888,358.661,1.0
12.4666,128.182493,37.957873,6826.651015200001,-115.206,-7.913,358.649,1.0
12.4833,128.182492,37.957921,6825.7113168,-115.378,-7.939,358.637,1.0
12.5,128.182491,37.957968,6824.7694848,-115.551,-7.964,358.625,1.0
12.5166,128.18249,37.958016,6823.825214400001,-115.724,-7.99,358.613,1.0
12.5333,128.182488,37.958063,6822.878505600001,-115.897,-8.015,358.6,1.0
12.55,128.182487,37.958111,6821.9293584,-116.069,-8.041,358.588,1.0
12.5666,128.182486,37.958158,6820.9777728,-116.242,-8.067,358.576,1.0
12.5833,128.182485,37.958205,6820.0240536,-116.415,-8.092,358.564,1.0
12.6,128.182484,37.958253,6819.0678960000005,-116.588,-8.118,358.552,1.0
12.6166,128.182482,37.9583,6818.1093,-116.76,-8.144,358.54,1.0
12.6333,128.182481,37.958348,6817.148265600001,-116.933,-8.17,358.528,1.0
12.65,128.18248,37.958395,6816.184792800001,-117.106,-8.196,358.515,1.0
12.6666,128.182479,37.958443,6815.218881600001,-117.279,-8.221,358.503,1.0
12.6833,128.182477,37.95849,6814.250836800001,-117.452,-8.247,358.491,1.0
12.7,128.182476,37.958538,6813.2800488,-117.625,-8.273,358.479,1.0
12.7166,128.182475,37.958586,6812.307127200001,-117.797,-8.299,358.467,1.0
12.7333,128.182473,37.958633,6811.3317672,-117.97,-8.325,358.455,1.0
12.75,128.182472,37.958681,6810.3539688,-118.143,-8.351,358.443,1.0
12.7666,128.182471,37.958728,6809.373732,-118.316,-8.378,358.431,1.0
12.7833,128.18247,37.958776,6808.391056800001,-118.488,-8.404,358.419,1.0
12.8,128.182468,37.958823,6807.4059431999995,-118.661,-8.43,358.407,1.0
12.8166,128.182467,37.958871,6806.418391200001,-118.834,-8.456,358.395,1.0
12.8333,128.182466,37.958918,6805.4287056,-119.006,-8.482,358.383,1.0
12.85,128.182464,37.958966,6804.4362768,-119.179,-8.509,358.371,1.0
12.8666,128.182463,37.959013,6803.441714400001,-119.352,-8.535,358.359,1.0
12.8833,128.182462,37.959061,6802.4444088,-119.524,-8.561,358.347,1.0
12.9,128.18246,37.959108,6801.444969600001,-119.697,-8.588,358.335,1.0
12.9166,128.182459,37.959156,6800.443092,-119.87,-8.614,358.323,1.0
12.9333,128.182458,37.959204,6799.438776,-120.042,-8.641,358.311,1.0
12.95,128.182456,37.959251,6798.4317168,-120.215,-8.667,358.299,1.0
12.9666,128.182455,37.959299,6797.4225240000005,-120.387,-8.694,358.287,1.0
12.9833,128.182453,37.959346,6796.4108928000005,-120.559,-8.72,358.275,1.0
13.0,128.182452,37.959394,6795.396823200001,-120.732,-8.747,358.263,1.0
13.0166,128.182451,37.959442,6794.380315200001,-120.904,-8.774,358.252,1.0
13.0333,128.182449,37.959489,6793.3613688000005,-121.076,-8.8,358.24,1.0
13.0499,128.182448,37.959537,6792.339984000001,-121.249,-8.827,358.228,1.0
13.0666,128.182446,37.959584,6791.316160800001,-121.421,-8.854,358.216,1.0
13.0833,128.182445,37.959632,6790.2898992,-121.593,-8.881,358.204,1.0
13.1,128.182443,37.95968,6789.2611992,-121.765,-8.908,358.192,1.0
13.1166,128.182442,37.959727,6788.2300608000005,-121.937,-8.934,358.181,1.0
13.1333,128.182441,37.959775,6787.196179200001,-122.109,-8.961,358.169,1.0
13.15,128.182439,37.959822,6786.160164000001,-122.281,-8.988,358.157,1.0
13.1666,128.182438,37.95987,6785.121710400001,-122.453,-9.015,358.145,1.0
13.1833,128.182436,37.959918,6784.080818400001,-122.625,-9.042,358.133,1.0
13.2,128.182435,37.959965,6783.037488000001,-122.796,-9.069,358.122,1.0
13.2166,128.182433,37.960013,6781.9914144,-122.968,-9.096,358.11,1.0
13.2333,128.182432,37.960061,6780.9432072,-123.14,-9.124,358.098,1.0
13.25,128.18243,37.960108,6779.892256800001,-123.311,-9.151,358.087,1.0
13.2666,128.182429,37.960156,6778.839172800001,-123.483,-9.178,358.075,1.0
13.2833,128.182427,37.960204,6777.783345600001,-123.654,-9.205,358.063,1.0
13.3,128.182426,37.960251,6776.72508,-123.826,-9.232,358.052,1.0
13.3166,128.182424,37.960299,6775.6646808000005,-123.997,-9.26,358.04,1.0
13.3333,128.182422,37.960347,6774.601538400001,-124.168,-9.287,358.028,1.0
13.35,128.182421,37.960394,6773.5359576,-124.339,-9.314,358.017,1.0
13.3666,128.182419,37.960442,6772.467938400001,-124.51,-9.342,358.005,1.0
13.3833,128.182418,37.96049,6771.397176,-124.681,-9.369,357.994,1.0
13.4,128.182416,37.960537,6770.32428,-124.852,-9.397,357.982,1.0
13.4166,128.182415,37.960585,6769.2486408,-125.023,-9.424,357.971,1.0
13.4333,128.182413,37.960633,6768.170868,-125.194,-9.452,357.959,1.0
13.45,128.182411,37.960681,6767.090352000001,-125.364,-9.479,357.948,1.0
13.4666,128.18241,37.960728,6766.007397600001,-125.535,-9.507,357.936,1.0
13.4833,128.182408,37.960776,6764.922004800001,-125.705,-9.534,357.925,1.0
13.5,128.182407,37.960824,6763.8341736,-125.876,-9.562,357.913,1.0
13.5166,128.182405,37.960871,6762.7435992,-126.046,-9.59,357.902,1.0
13.5333,128.182403,37.960919,6761.650891200001,-126.216,-9.618,357.89,1.0
13.55,128.182402,37.960967,6760.55544,-126.387,-9.645,357.879,1.0
13.5666,128.1824,37.961015,6759.4575504,-126.557,-9.673,357.867,1.0
13.5833,128.182398,37.961062,6758.3572224,-126.727,-9.701,357.856,1.0
13.6,128.182397,37.96111,6757.254151200001,-126.896,-9.729,357.845,1.0
13.6166,128.182395,37.961158,6756.148946400001,-127.066,-9.757,357.833,1.0
13.6333,128.182393,37.961206,6755.0409984,-127.236,-9.785,357.822,1.0
13.65,128.182392,37.961253,6753.930612,-127.405,-9.813,357.811,1.0
13.6666,128.18239,37.961301,6752.817787200001,-127.575,-9.84,357.8,1.0
13.6833,128.182388,37.961349,6751.7022192,-127.744,-9.869,357.788,1.0
13.7,128.182386,37.961397,6750.5842128,-127.913,-9.897,357.777,1.0
13.7166,128.182385,37.961444,6749.4637680000005,-128.083,-9.925,357.766,1.0
13.7333,128.182383,37.961492,6748.3408848,-128.252,-9.953,357.755,1.0
13.75,128.182381,37.96154,6747.2152584000005,-128.421,-9.981,357.743,1.0
13.7666,128.182379,37.961588,6746.0874984,-128.589,-10.009,357.732,1.0
13.7833,128.182378,37.961635,6744.9569952,-128.758,-10.037,357.721,1.0
13.8,128.182376,37.961683,6743.8237488,-128.927,-10.065,357.71,1.0
13.8166,128.182374,37.961731,6742.688368800001,-129.095,-10.094,357.699,1.0
13.8333,128.182372,37.961779,6741.5502456,-129.264,-10.122,357.688,1.0
13.85,128.182371,37.961827,6740.409379200001,-129.432,-10.15,357.677,1.0
13.8666,128.182369,37.961874,6739.266379200001,-129.6,-10.179,357.666,1.0
13.8833,128.182367,37.961922,6738.120636000001,-129.768,-10.207,357.655,1.0
13.9,128.182365,37.96197,6736.9724544,-129.936,-10.235,357.644,1.0
13.9166,128.182363,37.962018,6735.8215296,-130.104,-10.264,357.633,1.0
13.9333,128.182362,37.962066,6734.6681664,-130.272,-10.292,357.622,1.0
13.95,128.18236,37.962114,6733.512364800001,-130.439,-10.321,357.611,1.0
13.9666,128.182358,37.962161,6732.353820000001,-130.607,-10.349,357.6,1.0
13.9833,128.182356,37.962209,6731.192836800001,-130.774,-10.378,357.589,1.0
14.0,128.182354,37.962257,6730.029415200001,-130.941,-10.406,357.578,1.0
14.0166,128.182352,37.962305,6728.863250400001,-131.108,-10.435,357.567,1.0
14.0333,128.18235,37.962353,6727.694647200001,-131.275,-10.464,357.557,1.0
14.05,128.182349,37.962401,6726.5236056,-131.442,-10.492,357.546,1.0
14.0666,128.182347,37.962448,6725.3498208,-131.609,-10.521,357.535,1.0
14.0833,128.182345,37.962496,6724.173597600001,-131.775,-10.55,357.524,1.0
14.1,128.182343,37.962544,6722.9946312,-131.942,-10.578,357.513,1.0
14.1166,128.182341,37.962592,6721.8132264000005,-132.108,-10.607,357.503,1.0
14.1333,128.182339,37.96264,6720.6290784,-132.274,-10.636,357.492,1.0
14.15,128.182337,37.962688,6719.442492000001,-132.44,-10.665,357.481,1.0
14.1666,128.182335,37.962736,6718.2534672,-132.606,-10.694,357.471,1.0
14.1833,128.182333,37.962783,6717.0616992000005,-132.772,-10.722,357.46,1.0
14.2,128.182331,37.962831,6715.867492800001,-132.938,-10.751,357.45,1.0
14.2166,128.182329,37.962879,6714.6705432,-133.103,-10.78,357.439,1.0
14.2333,128.182327,37.962927,6713.471155200001,-133.269,-10.809,357.429,1.0
14.25,128.182325,37.962975,6712.269024000001,-133.434,-10.838,357.418,1.0
14.2666,128.182323,37.963023,6711.064454400001,-133.6,-10.867,357.408,1.0
14.2833,128.182321,37.963071,6709.8571416,-133.765,-10.896,357.397,1.0
14.3,128.182319,37.963119,6708.6473904,-133.93,-10.925,357.387,1.0
14.3166,128.182317,37.963166,6707.434896000001,-134.095,-10.954,357.376,1.0
14.3333,128.182315,37.963214,6706.2199632,-134.26,-10.983,357.366,1.0
14.35,128.182313,37.963262,6705.002287200001,-134.425,-11.012,357.356,1.0
14.3666,128.182311,37.96331,6703.782172800001,-134.59,-11.041,357.345,1.0
14.3833,128.182309,37.963358,6702.559315200001,-134.755,-11.071,357.335,1.0
14.4,128.182307,37.963406,6701.333714400001,-134.919,-11.1,357.325,1.0
14.4166,128.182305,37.963454,6700.1056751999995,-135.084,-11.129,357.315,1.0
14.4333,128.182303,37.963502,6698.875197600001,-135.248,-11.158,357.304,1.0
14.45,128.182301,37.96355,6697.6419768000005,-135.413,-11.187,357.294,1.0
14.4666,128.182299,37.963598,6696.4060128,-135.577,-11.217,357.284,1.0
14.4833,128.182297,37.963646,6695.167610400001,-135.741,-11.246,357.274,1.0
14.5,128.182295,37.963694,6693.926464800001,-135.905,-11.275,357.264,1.0
14.5166,128.182293,37.963742,6692.6828808,-136.069,-11.304,357.254,1.0
14.5333,128.182291,37.963789,6691.4365536000005,-136.233,-11.334,357.244,1.0
14.55,128.182288,37.963837,6690.1874832,-136.397,-11.363,357.234,1.0
14.5666,128.182286,37.963885,6688.9359744,-136.56,-11.393,357.224,1.0
14.5833,128.182284,37.963933,6687.681722400001,-136.724,-11.422,357.214,1.0
14.6,128.182282,37.963981,6686.425032,-136.887,-11.451,357.204,1.0
14.6166,128.18228,37.964029,6685.1655984,-137.051,-11.481,357.194,1.0
14.6333,128.182278,37.964077,6683.9034216,-137.214,-11.51,357.184,1.0
14.65,128.182276,37.964125,6682.6385016,-137.377,-11.54,357.174,1.0
14.6666,128.182273,37.964173,6681.3711432,-137.54,-11.569,357.164,1.0
14.6833,128.182271,37.964221,6680.101346400001,-137.703,-11.599,357.154,1.0
14.7,128.182269,37.964269,6678.828501600001,-137.866,-11.628,357.145,1.0
14.7166,128.182267,37.964317,6677.5532184,-138.029,-11.658,357.135,1.0
14.7333,128.182265,37.964365,6676.275192000001,-138.192,-11.688,357.125,1.0
14.75,128.182262,37.964413,6674.9947272,-138.354,-11.717,357.115,1.0
14.7666,128.18226,37.964461,6673.711519200001,-138.517,-11.747,357.106,1.0
