Time,Longitude,Latitude,Altitude,Roll (deg),Pitch (deg),Yaw (deg),Health
0.0,128.181861,37.923644,6999.797227200001,-0.999,-2.003,350.0,1.0
0.0166,128.181851,37.923689,6999.636292800001,-1.0,-2.012,350.0,1.0
0.0333,128.181841,37.923733,6999.4741392,-0.999,-2.028,350.003,1.0
0.05,128.181831,37.923777,6999.310156800001,-0.987,-2.045,350.009,1.0
0.0666,128.181821,37.923821,6999.146479200001,-0.984,-2.063,350.017,1.0
0.0833,128.181812,37.923865,6998.9818872000005,-0.991,-2.081,350.024,1.0
0.1,128.181802,37.92391,6998.8166856,-1.006,-2.1,350.032,1.0
0.1166,128.181792,37.923954,6998.6505696,-1.028,-2.119,350.039,1.0
0.1333,128.181782,37.923998,6998.483844,-1.056,-2.138,350.046,1.0
0.15,128.181772,37.924042,6998.3165088000005,-1.088,-2.156,350.053,1.0
0.1666,128.181762,37.924087,6998.1479544,-1.126,-2.175,350.06,1.0
0.1833,128.181752,37.924131,6997.9787904,-1.167,-2.193,350.068,1.0
0.2,128.181742,37.924175,6997.8090168,-1.212,-2.211,350.075,1.0
0.2166,128.181732,37.924219,6997.638024000001,-1.259,-2.229,350.082,1.0
0.2333,128.181723,37.924263,6997.4661168,-1.309,-2.247,350.09,1.0
0.25,128.181713,37.924308,6997.2932952,-1.361,-2.264,350.097,1.0
0.2666,128.181703,37.924352,6997.1195592,-1.415,-2.281,350.104,1.0
0.2833,128.181693,37.924396,6996.9449088,-1.471,-2.298,350.111,1.0
0.3,128.181683,37.92444,6996.769344,-1.528,-2.315,350.119,1.0
0.3166,128.181673,37.924485,6996.592560000001,-1.586,-2.331,350.126,1.0
0.3333,128.181663,37.924529,6996.4151664,-1.645,-2.348,350.133,1.0
0.35,128.181653,37.924573,6996.2365536,-1.706,-2.364,350.14,1.0
0.3666,128.181643,37.924617,6996.0567216,-1.767,-2.38,350.147,1.0
0.3833,128.181634,37.924662,6995.8762799999995,-1.829,-2.395,350.154,1.0
0.4,128.181624,37.924706,6995.6946192000005,-1.893,-2.411,350.161,1.0
0.4166,128.181614,37.92475,6995.5117392,-1.957,-2.426,350.168,1.0
0.4333,128.181604,37.924794,6995.3279448,-2.021,-2.442,350.175,1.0
0.45,128.181594,37.924838,6995.143236,-2.087,-2.457,350.181,1.0
0.4666,128.181584,37.924883,6994.957308,-2.153,-2.472,350.188,1.0
0.4833,128.181574,37.924927,6994.7704656000005,-2.22,-2.487,350.195,1.0
0.5,128.181564,37.924971,6994.582404,-2.287,-2.501,350.201,1.0
0.5166,128.181554,37.925015,6994.393428,-2.355,-2.516,350.208,1.0
0.5333,128.181544,37.92506,6994.2032328000005,-2.424,-2.531,350.214,1.0
0.55,128.181535,37.925104,6994.0118184,-2.493,-2.545,350.22,1.0
0.5666,128.181525,37.925148,6993.8194896,-2.563,-2.56,350.227,1.0
0.5833,128.181515,37.925192,6993.6259416,-2.633,-2.574,350.233,1.0
0.6,128.181505,37.925237,6993.4314792000005,-2.705,-2.588,350.239,1.0
0.6166,128.181495,37.925281,6993.235797600001,-2.776,-2.602,350.245,1.0
0.6333,128.181485,37.925325,6993.038896800001,-2.848,-2.616,350.251,1.0
0.65,128.181475,37.925369,6992.8410816000005,-2.921,-2.63,350.257,1.0
0.6666,128.181465,37.925414,6992.642047200001,-2.994,-2.644,350.263,1.0
0.6833,128.181455,37.925458,6992.4417936,-3.068,-2.658,350.269,1.0
0.7,128.181445,37.925502,6992.2406256,-3.142,-2.672,350.275,1.0
0.7166,128.181436,37.925546,6992.0379336000005,-3.217,-2.686,350.281,1.0
0.7333,128.181426,37.925591,6991.834632,-3.292,-2.699,350.286,1.0
0.75,128.181416,37.925635,6991.629806400001,-3.368,-2.713,350.292,1.0
0.7666,128.181406,37.925679,6991.4237616,-3.444,-2.727,350.298,1.0
0.7833,128.181396,37.925723,6991.2168024,-3.521,-2.74,350.303,1.0
0.8,128.181386,37.925768,6991.008624000001,-3.598,-2.754,350.309,1.0
0.8166,128.181376,37.925812,6990.7992264,-3.676,-2.768,350.314,1.0
0.8333,128.181366,37.925856,6990.5889144,-3.754,-2.781,350.32,1.0
0.85,128.181356,37.9259,6990.377078400001,-3.833,-2.794,350.325,1.0
0.8666,128.181346,37.925945,6990.164328000001,-3.912,-2.808,350.33,1.0
0.8833,128.181337,37.925989,6989.949444,-3.97,-2.82,350.337,1.0
0.9,128.181327,37.926033,6989.7321216,-4.005,-2.831,350.345,1.0
0.9166,128.181317,37.926078,6989.51358,-4.02,-2.842,350.353,1.0
0.9333,128.181307,37.926122,6989.2929048000005,-4.018,-2.852,350.362,1.0
0.95,128.181297,37.926166,6989.071010400001,-4.001,-2.862,350.37,1.0
0.9666,128.181287,37.92621,6988.8472872,-3.971,-2.872,350.378,1.0
0.9833,128.181277,37.926255,6988.62204,-3.93,-2.882,350.385,1.0
1.0,128.181267,37.926299,6988.395268800001,-3.88,-2.892,350.392,1.0
1.0166,128.181257,37.926343,6988.1672784,-3.822,-2.902,350.398,1.0
1.0333,128.181247,37.926388,6987.937764,-3.759,-2.912,350.404,1.0
1.05,128.181238,37.926432,6987.7070304,-3.691,-2.923,350.41,1.0
1.0666,128.181228,37.926476,6987.4747728,-3.619,-2.934,350.415,1.0
1.0833,128.181218,37.92652,6987.2409912,-3.545,-2.945,350.42,1.0
1.1,128.181208,37.926565,6987.0062952,-3.468,-2.956,350.425,1.0
1.1166,128.181198,37.926609,6986.7700752,-3.389,-2.968,350.429,1.0
1.1333,128.181188,37.926653,6986.532636,-3.309,-2.98,350.434,1.0
1.15,128.181178,37.926698,6986.2936728,-3.227,-2.992,350.438,1.0
1.1666,128.181168,37.926742,6986.053490400001,-3.145,-3.004,350.442,1.0
1.1833,128.181158,37.926786,6985.812088799999,-3.062,-3.016,350.446,1.0
1.2,128.181148,37.926831,6985.569468000001,-2.979,-3.028,350.45,1.0
1.2166,128.181138,37.926875,6985.3256280000005,-2.895,-3.041,350.454,1.0
1.2333,128.181129,37.926919,6985.080568800001,-2.812,-3.053,350.458,1.0
1.25,128.181119,37.926963,6984.8339856,-2.728,-3.066,350.461,1.0
1.2666,128.181109,37.927008,6984.586183200001,-2.644,-3.079,350.465,1.0
1.2833,128.181099,37.927052,6984.3371615999995,-2.56,-3.092,350.468,1.0
1.3,128.181089,37.927096,6984.0869207999995,-2.476,-3.105,350.472,1.0
1.3166,128.181079,37.927141,6983.835460800001,-2.392,-3.118,350.475,1.0
1.3333,128.181069,37.927185,6983.5827816,-2.308,-3.131,350.478,1.0
1.35,128.181059,37.927229,6983.328883200001,-2.225,-3.145,350.482,1.0
1.3666,128.181049,37.927274,6983.073460800001,-2.141,-3.158,350.485,1.0
1.3833,128.181039,37.927318,6982.817124000001,-2.058,-3.172,350.488,1.0
1.4,128.181029,37.927362,6982.5592632,-1.975,-3.185,350.491,1.0
1.4166,128.18102,37.927407,6982.300183200001,-1.891,-3.199,350.494,1.0
1.4333,128.18101,37.927451,6982.039884000001,-1.808,-3.213,350.497,1.0
1.45,128.181,37.927496,6981.778365600001,-1.726,-3.226,350.5,1.0
1.4666,128.18099,37.92754,6981.515628,-1.643,-3.24,350.503,1.0
1.4833,128.18098,37.927584,6981.2516712,-1.56,-3.254,350.506,1.0
1.5,128.18097,37.927629,6980.986495200001,-1.478,-3.268,350.508,1.0
1.5166,128.18096,37.927673,6980.719795200001,-1.396,-3.282,350.511,1.0
1.5333,128.18095,37.927717,6980.4521808,-1.313,-3.296,350.514,1.0
1.55,128.18094,37.927762,6980.183042400001,-1.231,-3.31,350.516,1.0
1.5666,128.18093,37.927806,6979.9126848,-1.149,-3.325,350.519,1.0
1.5833,128.180921,37.92785,6979.641412800001,-1.067,-3.339,350.522,1.0
1.6,128.180911,37.927895,6979.3686168,-0.986,-3.353,350.524,1.0
1.6166,128.180901,37.927939,6979.094601600001,-0.904,-3.368,350.527,1.0
1.6333,128.180891,37.927984,6978.8193672,-0.822,-3.382,350.529,1.0
1.65,128.180881,37.928028,6978.5426088,-0.741,-3.396,350.532,1.0
1.6666,128.180871,37.928072,6978.2649360000005,-0.659,-3.411,350.534,1.0
1.6833,128.180861,37.928117,6977.986044,-0.578,-3.425,350.536,1.0
1.7,128.180851,37.928161,6977.705628000001,-0.496,-3.44,350.539,1.0
1.7166,128.180841,37.928205,6977.423992800001,-0.415,-3.455,350.541,1.0
1.7333,128.180831,37.92825,6977.1414432,-0.334,-3.469,350.543,1.0
1.75,128.180822,37.928294,6976.8573696,-0.252,-3.484,350.545,1.0
1.7666,128.180812,37.928339,6976.5720768,-0.171,-3.499,350.547,1.0
1.7833,128.180802,37.928383,6976.2855648,-0.09,-3.514,350.55,1.0
1.8,128.180792,37.928427,6975.9978336,-0.009,-3.528,350.552,1.0
1.8166,128.180782,37.928472,6975.708578400001,0.071,-3.543,350.554,1.0
1.8333,128.180772,37.928516,6975.4184088,0.153,-3.558,350.556,1.0
1.85,128.180762,37.928561,6975.126715200001,0.234,-3.573,350.558,1.0
1.8666,128.180752,37.928605,6974.8341072,0.315,-3.588,350.56,1.0
1.8833,128.180742,37.92865,6974.5399752,0.396,-3.603,350.562,1.0
1.9,128.180732,37.928694,6974.244624000001,0.477,-3.618,350.564,1.0
1.9166,128.180723,37.928738,6973.9480536,0.559,-3.633,350.566,1.0
1.9333,128.180713,37.928783,6973.650264000001,0.64,-3.648,350.568,1.0
1.95,128.180703,37.928827,6973.3509504,0.721,-3.663,350.569,1.0
1.9666,128.180693,37.928872,6973.0507224,0.803,-3.678,350.571,1.0
1.9833,128.180683,37.928916,6972.748970400001,0.884,-3.693,350.573,1.0
2.0,128.180673,37.928961,6972.446304,0.965,-3.708,350.575,1.0
2.0166,128.180663,37.929005,6972.1421136,1.047,-3.723,350.577,1.0
2.0333,128.180653,37.929049,6971.836704,1.128,-3.738,350.578,1.0
2.05,128.180644,37.929094,6971.5300752,1.21,-3.753,350.58,1.0
2.0666,128.180634,37.929138,6971.2219224,1.292,-3.768,350.582,1.0
2.0833,128.180624,37.929183,6970.9128552,1.374,-3.784,350.583,1.0
2.1,128.180614,37.929227,6970.602264,1.455,-3.799,350.585,1.0
2.1166,128.180604,37.929272,6970.2907584,1.537,-3.814,350.587,1.0
2.1333,128.180594,37.929316,6969.9777288000005,1.619,-3.829,350.588,1.0
2.15,128.180584,37.929361,6969.66348,1.701,-3.845,350.59,1.0
2.1666,128.180574,37.929405,6969.3477072,1.784,-3.86,350.591,1.0
2.1833,128.180564,37.92945,6969.03102,1.866,-3.875,350.593,1.0
2.2,128.180555,37.929494,6968.713113600001,1.948,-3.89,350.594,1.0
2.2166,128.180545,37.929539,6968.393683200001,2.031,-3.906,350.596,1.0
2.2333,128.180535,37.929583,6968.073033600001,2.113,-3.921,350.597,1.0
2.25,128.180525,37.929628,6967.751164800001,2.196,-3.936,350.599,1.0
2.2666,128.180515,37.929672,6967.4280768,2.279,-3.952,350.6,1.0
2.2833,128.180505,37.929717,6967.1034648,2.362,-3.967,350.602,1.0
2.3,128.180495,37.929761,6966.7779384000005,2.445,-3.982,350.603,1.0
2.3166,128.180486,37.929806,6966.450888,2.528,-3.998,350.605,1.0
2.3333,128.180476,37.92985,6966.122618400001,2.612,-4.013,350.606,1.0
2.35,128.180466,37.929895,6965.7931296,2.695,-4.029,350.607,1.0
2.3666,128.180456,37.929939,6965.4624216,2.779,-4.044,350.609,1.0
2.3833,128.180446,37.929984,6965.1301896,2.862,-4.059,350.61,1.0
2.4,128.180436,37.930028,6964.7970432,2.946,-4.075,350.611,1.0
2.4166,128.180426,37.930073,6964.462372800001,3.03,-4.09,350.613,1.0
2.4333,128.180417,37.930117,6964.126483200001,3.115,-4.106,350.614,1.0
2.45,128.180407,37.930162,6963.789374400001,3.199,-4.121,350.615,1.0
2.4666,128.180397,37.930206,6963.450741600001,3.283,-4.137,350.617,1.0
2.4833,128.180387,37.930251,6963.1111944,3.368,-4.152,350.618,1.0
2.5,128.180377,37.930296,6962.770123200001,3.453,-4.168,350.619,1.0
2.5166,128.180367,37.93034,6962.427832800001,3.538,-4.183,350.62,1.0
2.5333,128.180358,37.930385,6962.084323200001,3.623,-4.199,350.622,1.0
2.55,128.180348,37.930429,6961.7392896,3.708,-4.214,350.623,1.0
2.5666,128.180338,37.930474,6961.393341600001,3.794,-4.23,350.624,1.0
2.5833,128.180328,37.930518,6961.0458696000005,3.88,-4.245,350.625,1.0
2.6,128.180318,37.930563,6960.697178400001,3.965,-4.261,350.627,1.0
2.6166,128.180308,37.930608,6960.346963200001,4.051,-4.276,350.628,1.0
2.6333,128.180298,37.930652,6959.995833600001,4.138,-4.292,350.629,1.0
2.65,128.180289,37.930697,6959.64318,4.224,-4.307,350.63,1.0
2.6666,128.180279,37.930741,6959.2893072,4.311,-4.323,350.631,1.0
2.6833,128.180269,37.930786,6958.934215200001,4.398,-4.338,350.632,1.0
2.7,128.180259,37.93083,6958.5775992,4.485,-4.354,350.634,1.0
2.7166,128.180249,37.930875,6958.2200688,4.572,-4.369,350.635,1.0
2.7333,128.18024,37.93092,6957.8610144,4.659,-4.385,350.636,1.0
2.75,128.18023,37.930964,6957.5007408,4.747,-4.4,350.637,1.0
2.7666,128.18022,37.931009,6957.1389432,4.835,-4.416,350.638,1.0
2.7833,128.18021,37.931054,6956.7762312,4.923,-4.432,350.639,1.0
2.8,128.1802,37.931098,6956.4119952,5.011,-4.447,350.64,1.0
2.8166,128.18019,37.931143,6956.04654,5.099,-4.463,350.641,1.0
2.8333,128.180181,37.931187,6955.679865600001,5.188,-4.478,350.643,1.0
2.85,128.180171,37.931232,6955.311667200001,5.277,-4.494,350.644,1.0
2.8666,128.180161,37.931277,6954.942249600001,5.366,-4.509,350.645,1.0
2.8833,128.180151,37.931321,6954.5716128,5.455,-4.525,350.646,1.0
2.9,128.180141,37.931366,6954.199756800001,5.545,-4.54,350.647,1.0
2.9166,128.180132,37.931411,6953.826376800001,5.635,-4.556,350.648,1.0
2.9333,128.180122,37.931455,6953.4517776,5.725,-4.572,350.649,1.0
2.95,128.180112,37.9315,6953.0759592,5.815,-4.587,350.65,1.0
2.9666,128.180102,37.931545,6952.6989216,5.905,-4.603,350.651,1.0
2.9833,128.180092,37.931589,6952.320360000001,5.996,-4.618,350.652,1.0
3.0,128.180083,37.931634,6951.940579200001,6.087,-4.634,350.653,1.0
3.0166,128.180073,37.931679,6951.5595792,6.178,-4.649,350.654,1.0
3.0333,128.180063,37.931723,6951.177360000001,6.269,-4.665,350.655,1.0
3.05,128.180053,37.931768,6950.7936168,6.361,-4.681,350.656,1.0
3.0666,128.180044,37.931813,6950.4086544,6.452,-4.696,350.658,1.0
3.0833,128.180034,37.931857,6950.0224728,6.545,-4.712,350.659,1.0
3.1,128.180024,37.931902,6949.6347672,6.637,-4.727,350.66,1.0
3.1166,128.180014,37.931947,6949.245842400001,6.729,-4.743,350.661,1.0
3.1333,128.180004,37.931992,6948.8556984,6.822,-4.758,350.662,1.0
3.15,128.179995,37.932036,6948.4643352,6.915,-4.774,350.663,1.0
3.1666,128.179985,37.932081,6948.071448,7.008,-4.789,350.664,1.0
3.1833,128.179975,37.932126,6947.677341600001,7.102,-4.805,350.665,1.0
3.2,128.179965,37.93217,6947.282016,7.195,-4.82,350.666,1.0
3.2166,128.179956,37.932215,6946.8851664,7.289,-4.836,350.667,1.0
3.2333,128.179946,37.93226,6946.4874024,7.384,-4.852,350.668,1.0
3.25,128.179936,37.932305,6946.087809600001,7.478,-4.867,350.669,1.0
3.2666,128.179926,37.932349,6945.6873024,7.573,-4.883,350.67,1.0
3.2833,128.179917,37.932394,6945.2852712,7.668,-4.898,350.671,1.0
3.3,128.179907,37.932439,6944.8820208,7.763,-4.914,350.672,1.0
3.3166,128.179897,37.932484,6944.477551200001,7.859,-4.929,350.673,1.0
3.3333,128.179887,37.932528,6944.0715576,7.954,-4.945,350.674,1.0
3.35,128.179878,37.932573,6943.6643448,8.051,-4.96,350.675,1.0
3.3666,128.179868,37.932618,6943.2559128,8.147,-4.976,350.676,1.0
3.3833,128.179858,37.932663,6942.845956800001,8.243,-4.991,350.677,1.0
3.4,128.179848,37.932708,6942.435086400001,8.34,-5.007,350.678,1.0
3.4166,128.179839,37.932752,6942.022387200001,8.437,-5.022,350.679,1.0
3.4333,128.179829,37.932797,6941.608773600001,8.535,-5.038,350.68,1.0
3.45,128.179819,37.932842,6941.193636,8.632,-5.053,350.681,1.0
3.4666,128.17981,37.932887,6940.7772792000005,8.73,-5.069,350.683,1.0
3.4833,128.1798,37.932932,6940.3593984,8.829,-5.084,350.684,1.0
3.5,128.17979,37.932976,6939.9402984,8.927,-5.1,350.685,1.0
3.5166,128.17978,37.933021,6939.519979200001,9.026,-5.115,350.686,1.0
3.5333,128.179771,37.933066,6939.0984408,9.126,-5.131,350.687,1.0
3.55,128.179761,37.933111,6938.6753784,9.225,-5.146,350.688,1.0
3.5666,128.179751,37.933156,6938.251096800001,9.325,-5.162,350.689,1.0
3.5833,128.179742,37.933201,6937.825291200001,9.425,-5.177,350.69,1.0
3.6,128.179732,37.933245,6937.3982664,9.526,-5.193,350.691,1.0
3.6166,128.179722,37.93329,6936.9700224,9.627,-5.208,350.692,1.0
3.6333,128.179713,37.933335,6936.5402544,9.728,-5.224,350.693,1.0
3.65,128.179703,37.93338,6936.1092672,9.83,-5.239,350.694,1.0
3.6666,128.179693,37.933425,6935.677060800001,9.932,-5.255,350.695,1.0
3.6833,128.179683,37.93347,6935.2433304,10.034,-5.27,350.696,1.0
3.7,128.179674,37.933515,6934.8083808,10.136,-5.286,350.697,1.0
3.7166,128.179664,37.933559,6934.372212,10.239,-5.301,350.699,1.0
3.7333,128.179654,37.933604,6933.934519200001,10.342,-5.317,350.7,1.0
3.75,128.179645,37.933649,6933.4956071999995,10.446,-5.332,350.701,1.0
3.7666,128.179635,37.933694,6933.0551712,10.55,-5.348,350.702,1.0
3.7833,128.179625,37.933739,6932.6138208,10.654,-5.363,350.703,1.0
3.8,128.179616,37.933784,6932.170641600001,10.758,-5.378,350.704,1.0
3.8166,128.179606,37.933829,6931.726548,10.863,-5.394,350.705,1.0
3.8333,128.179596,37.933874,6931.2809304,10.968,-5.409,350.706,1.0
3.85,128.179587,37.933919,6930.8337888,11.073,-5.425,350.707,1.0
3.8666,128.179577,37.933964,6930.3857328,11.179,-5.44,350.709,1.0
3.8833,128.179567,37.934009,6929.9361528,11.285,-5.456,350.71,1.0
3.9,128.179558,37.934053,6929.4850488,11.391,-5.471,350.711,1.0
3.9166,128.179548,37.934098,6929.0327256,11.498,-5.486,350.712,1.0
3.9333,128.179539,37.934143,6928.5791832,11.605,-5.502,350.713,1.0
3.95,128.179529,37.934188,6928.1241168,11.712,-5.517,350.714,1.0
3.9666,128.179519,37.934233,6927.6678312,11.819,-5.533,350.716,1.0
3.9833,128.17951,37.934278,6927.2103264,11.927,-5.548,350.717,1.0
4.0,128.1795,37.934323,6926.751297600001,12.035,-5.563,350.718,1.0
4.0166,128.17949,37.934368,6926.2910496,12.144,-5.579,350.719,1.0
4.0333,128.179481,37.934413,6925.829277600001,12.252,-5.594,350.72,1.0
4.05,128.179471,37.934458,6925.366286400001,12.361,-5.609,350.721,1.0
4.0666,128.179462,37.934503,6924.9017711999995,12.47,-5.625,350.723,1.0
4.0833,128.179452,37.934548,6924.436036800001,12.58,-5.64,350.724,1.0
4.1,128.179442,37.934593,6923.969083200001,12.69,-5.656,350.725,1.0
4.1166,128.179433,37.934638,6923.5006056,12.8,-5.671,350.726,1.0
4.1333,128.179423,37.934683,6923.0309088,12.91,-5.686,350.727,1.0
4.15,128.179414,37.934728,6922.559992800001,13.021,-5.702,350.729,1.0
4.1666,128.179404,37.934773,6922.0875528,13.132,-5.717,350.73,1.0
4.1833,128.179394,37.934818,6921.6135888,13.244,-5.733,350.731,1.0
4.2,128.179385,37.934863,6921.138405600001,13.355,-5.748,350.732,1.0
4.2166,128.179375,37.934908,6920.6620032,13.467,-5.764,350.734,1.0
4.2333,128.179366,37.934953,6920.1840768,13.58,-5.779,350.735,1.0
4.25,128.179356,37.934998,6919.7049312,13.692,-5.794,350.736,1.0
4.2666,128.179346,37.935043,6919.2245664,13.805,-5.81,350.737,1.0
4.2833,128.179337,37.935089,6918.7426776,13.918,-5.825,350.739,1.0
4.3,128.179327,37.935134,6918.259264800001,14.032,-5.841,350.74,1.0
4.3166,128.179318,37.935179,6917.7746328,14.146,-5.856,350.741,1.0
4.3333,128.179308,37.935224,6917.2887816,14.26,-5.872,350.742,1.0
4.35,128.179299,37.935269,6916.801406400001,14.374,-5.887,350.744,1.0
4.3666,128.179289,37.935314,6916.312812,14.489,-5.902,350.745,1.0
4.3833,128.17928,37.935359,6915.8226936,14.604,-5.918,350.746,1.0
4.4,128.17927,37.935404,6915.331051200001,14.719,-5.933,350.748,1.0
4.4166,128.17926,37.935449,6914.8384944,14.835,-5.949,350.749,1.0
4.4333,128.179251,37.935494,6914.3441088,14.951,-5.964,350.75,1.0
4.45,128.179241,37.93554,6913.8488088,15.067,-5.98,350.751,1.0
4.4666,128.179232,37.935585,6913.3519848,15.184,-5.995,350.753,1.0
4.4833,128.179222,37.93563,6912.8536368000005,15.301,-6.011,350.754,1.0
4.5,128.179213,37.935675,6912.354069600001,15.418,-6.026,350.755,1.0
4.5166,128.179203,37.93572,6911.8529784,15.536,-6.042,350.757,1.0
4.5333,128.179194,37.935765,6911.350668,15.654,-6.058,350.758,1.0
4.55,128.179184,37.93581,6910.8468336000005,15.772,-6.073,350.759,1.0
4.5666,128.179175,37.935856,6910.3426944,15.869,-6.09,350.759,1.0
4.5833,128.179165,37.935901,6909.8379456,15.946,-6.108,350.757,1.0
4.6,128.179156,37.935946,6909.331977600001,16.005,-6.126,350.755,1.0
4.6166,128.179146,37.935991,6908.8250952,16.048,-6.146,350.752,1.0
4.6333,128.179137,37.936036,6908.3172984,16.077,-6.165,350.75,1.0
4.65,128.179127,37.936081,6907.8082824,16.094,-6.185,350.748,1.0
4.6666,128.179118,37.936127,6907.298047200001,16.102,-6.205,350.746,1.0
4.6833,128.179108,37.936172,6906.786897600001,16.102,-6.225,350.745,1.0
4.7,128.179099,37.936217,6906.274224000001,16.096,-6.244,350.744,1.0
4.7166,128.17909,37.936262,6905.7603312,16.085,-6.263,350.744,1.0
4.7333,128.17908,37.936308,6905.245524000001,16.07,-6.283,350.744,1.0
4.75,128.179071,37.936353,6904.7291928,16.052,-6.302,350.744,1.0
4.7666,128.179061,37.936398,6904.211337600001,16.032,-6.32,350.744,1.0
4.7833,128.179052,37.936443,6903.692568,16.01,-6.339,350.745,1.0
4.8,128.179042,37.936488,6903.171969600001,15.987,-6.357,350.746,1.0
4.8166,128.179033,37.936534,6902.650456800001,15.962,-6.376,350.747,1.0
4.8333,128.179023,37.936579,6902.127420000001,15.937,-6.394,350.748,1.0
4.85,128.179014,37.936624,6901.603164,15.911,-6.411,350.75,1.0
4.8666,128.179005,37.936669,6901.077384000001,15.885,-6.429,350.751,1.0
4.8833,128.178995,37.936715,6900.55008,15.858,-6.447,350.753,1.0
4.9,128.178986,37.93676,6900.021556800001,15.832,-6.464,350.755,1.0
4.9166,128.178976,37.936805,6899.4915096,15.805,-6.481,350.757,1.0
4.9333,128.178967,37.936851,6898.9602432,15.779,-6.498,350.759,1.0
4.95,128.178958,37.936896,6898.4277576,15.753,-6.515,350.761,1.0
4.9666,128.178948,37.936941,6897.8934432,15.727,-6.532,350.763,1.0
4.9833,128.178939,37.936987,6897.3579096,15.701,-6.549,350.765,1.0
5.0,128.178929,37.937032,6896.821156800001,15.675,-6.566,350.767,1.0
5.0166,128.17892,37.937077,6896.2825752,15.649,-6.582,350.769,1.0
5.0333,128.178911,37.937122,6895.7430792000005,15.624,-6.599,350.772,1.0
5.05,128.178901,37.937168,6895.2017544,15.599,-6.615,350.774,1.0
5.0666,128.178892,37.937213,6894.659210400001,15.575,-6.632,350.777,1.0
5.0833,128.178883,37.937258,6894.115142400001,15.55,-6.648,350.779,1.0
5.1,128.178873,37.937304,6893.5698552,15.526,-6.664,350.782,1.0
5.1166,128.178864,37.937349,6893.023044,15.503,-6.68,350.785,1.0
5.1333,128.178854,37.937395,6892.4747088,15.479,-6.696,350.788,1.0
5.15,128.178845,37.93744,6891.9251544,15.456,-6.712,350.79,1.0
5.1666,128.178836,37.937485,6891.374076,15.433,-6.728,350.793,1.0
5.1833,128.178826,37.937531,6890.821473600001,15.411,-6.744,350.796,1.0
5.2,128.178817,37.937576,6890.267347200001,15.389,-6.76,350.799,1.0
5.2166,128.178808,37.937621,6889.712001600001,15.367,-6.775,350.802,1.0
5.2333,128.178798,37.937667,6889.155436800001,15.345,-6.791,350.805,1.0
5.25,128.178789,37.937712,6888.5970431999995,15.324,-6.807,350.808,1.0
5.2666,128.17878,37.937758,6888.0374304,15.303,-6.822,350.811,1.0
5.2833,128.17877,37.937803,6887.4765984,15.282,-6.838,350.814,1.0
5.3,128.178761,37.937848,6886.9139376,15.262,-6.853,350.817,1.0
5.3166,128.178752,37.937894,6886.3500576,15.242,-6.869,350.821,1.0
5.3333,128.178742,37.937939,6885.7846536,15.222,-6.884,350.824,1.0
5.35,128.178733,37.937985,6885.2180304,15.203,-6.9,350.827,1.0
5.3666,128.178724,37.93803,6884.649883200001,15.183,-6.915,350.83,1.0
5.3833,128.178715,37.938076,6884.080212,15.165,-6.93,350.834,1.0
5.4,128.178705,37.938121,6883.5090168,15.146,-6.946,350.837,1.0
5.4166,128.178696,37.938167,6882.9366024,15.128,-6.961,350.84,1.0
5.4333,128.178687,37.938212,6882.362664,15.11,-6.976,350.844,1.0
5.45,128.178677,37.938258,6881.787506400001,15.092,-6.992,350.847,1.0
5.4666,128.178668,37.938303,6881.2108248,15.075,-7.007,350.851,1.0
5.4833,128.178659,37.938348,6880.632619200001,15.058,-7.022,350.854,1.0
5.5,128.17865,37.938394,6880.0528896,15.041,-7.037,350.858,1.0
5.5166,128.17864,37.938439,6879.4719408,15.024,-7.052,350.861,1.0
5.5333,128.178631,37.938485,6878.889468,15.008,-7.067,350.865,1.0
5.55,128.178622,37.93853,6878.3054712,14.992,-7.083,350.868,1.0
5.5666,128.178612,37.938576,6877.720255200001,14.976,-7.098,350.872,1.0
5.5833,128.178603,37.938621,6877.133515200001,14.961,-7.113,350.875,1.0
5.6,128.178594,37.938667,6876.545556000001,14.946,-7.128,350.879,1.0
5.6166,128.178585,37.938713,6875.955768000001,14.931,-7.143,350.883,1.0
5.6333,128.178575,37.938758,6875.364760800001,14.917,-7.158,350.886,1.0
5.65,128.178566,37.938804,6874.7725344,14.902,-7.173,350.89,1.0
5.6666,128.178557,37.938849,6874.178479200001,14.888,-7.188,350.894,1.0
5.6833,128.178548,37.938895,6873.5832048,14.875,-7.203,350.898,1.0
5.7,128.178538,37.93894,6872.986406400001,14.861,-7.218,350.901,1.0
5.7166,128.178529,37.938986,6872.3883888,14.848,-7.233,350.905,1.0
5.7333,128.17852,37.939031,6871.7888472,14.835,-7.248,350.909,1.0
5.75,128.178511,37.939077,6871.187781600001,14.823,-7.263,350.913,1.0
5.7666,128.178502,37.939123,6870.5854968,14.81,-7.278,350.916,1.0
5.7833,128.178492,37.939168,6869.981688000001,14.798,-7.293,350.92,1.0
5.8,128.178483,37.939214,6869.376355200001,14.787,-7.308,350.924,1.0
5.8166,128.178474,37.939259,6868.7698032,14.775,-7.323,350.928,1.0
5.8333,128.178465,37.939305,6868.1617272,14.764,-7.338,350.932,1.0
5.85,128.178455,37.939351,6867.5521272000005,14.753,-7.353,350.935,1.0
5.8666,128.178446,37.939396,6866.9410032,14.743,-7.368,350.939,1.0
5.8833,128.178437,37.939442,6866.32866,14.732,-7.383,350.943,1.0
5.9,128.178428,37.939487,6865.7147928,14.722,-7.398,350.947,1.0
5.9166,128.178419,37.939533,6865.099706400001,14.713,-7.413,350.951,1.0
5.9333,128.178409,37.939579,6864.483096000001,14.703,-7.428,350.955,1.0
5.95,128.1784,37.939624,6863.8649616,14.694,-7.443,350.959,1.0
5.9666,128.178391,37.93967,6863.245608,14.685,-7.458,350.963,1.0
5.9833,128.178382,37.939716,6862.6244256,14.677,-7.473,350.967,1.0
6.0,128.178373,37.939761,6862.002328800001,14.669,-7.488,350.971,1.0
6.0166,128.178364,37.939807,6861.3784032,14.661,-7.503,350.975,1.0
6.0333,128.178354,37.939853,6860.7532584,14.653,-7.518,350.979,1.0
6.05,128.178345,37.939898,6860.1265896,14.646,-7.533,350.983,1.0
6.0666,128.178336,37.939944,6859.4987016000005,14.639,-7.548,350.986,1.0
6.0833,128.178327,37.93999,6858.8689848,14.632,-7.562,350.99,1.0
6.1,128.178318,37.940035,6858.2380488,14.626,-7.577,350.994,1.0
6.1166,128.178309,37.940081,6857.6058936,14.62,-7.592,350.998,1.0
6.1333,128.178299,37.940127,6856.972214400001,14.614,-7.607,351.002,1.0
6.15,128.17829,37.940172,6856.337011200001,14.609,-7.622,351.006,1.0
6.1666,128.178281,37.940218,6855.7002840000005,14.604,-7.637,351.011,1.0
6.1833,128.178272,37.940264,6855.0623376,14.599,-7.652,351.015,1.0
6.2,128.178263,37.94031,6854.4228672,14.595,-7.667,351.019,1.0
6.2166,128.178254,37.940355,6853.7818728,14.591,-7.682,351.023,1.0
6.2333,128.178245,37.940401,6853.1396592,14.587,-7.697,351.027,1.0
6.25,128.178235,37.940447,6852.4959216,14.583,-7.712,351.031,1.0
6.2666,128.178226,37.940493,6851.850660000001,14.58,-7.726,351.035,1.0
6.2833,128.178217,37.940538,6851.204179200001,14.578,-7.741,351.039,1.0
6.3,128.178208,37.940584,6850.556174400001,14.575,-7.756,351.043,1.0
6.3166,128.178199,37.94063,6849.906950400001,14.573,-7.771,351.047,1.0
6.3333,128.17819,37.940676,6849.255897600001,14.571,-7.786,351.051,1.0
6.35,128.178181,37.940722,6848.6036256,14.57,-7.801,351.055,1.0
6.3666,128.178172,37.940767,6847.9498296,14.569,-7.816,351.059,1.0
6.3833,128.178162,37.940813,6847.2948144,14.568,-7.831,351.063,1.0
6.4,128.178153,37.940859,6846.6382752,14.568,-7.845,351.067,1.0
6.4166,128.178144,37.940905,6845.980212,14.568,-7.86,351.071,1.0
6.4333,128.178135,37.94095,6845.3209295999995,14.568,-7.875,351.076,1.0
6.45,128.178126,37.940996,6844.6601232,14.569,-7.89,351.08,1.0
6.4666,128.178117,37.941042,6843.997792800001,14.57,-7.905,351.084,1.0
6.4833,128.178108,37.941088,6843.333938400001,14.571,-7.92,351.088,1.0
6.5,128.178099,37.941134,6842.668864800001,14.573,-7.935,351.092,1.0
6.5166,128.17809,37.94118,6842.0022672000005,14.575,-7.95,351.096,1.0
6.5333,128.178081,37.941225,6841.334450400001,14.578,-7.965,351.1,1.0
6.55,128.178072,37.941271,6840.6651096000005,14.581,-7.98,351.104,1.0
6.5666,128.178063,37.941317,6839.9942448,14.584,-7.995,351.108,1.0
6.5833,128.178053,37.941363,6839.3218560000005,14.588,-8.01,351.112,1.0
6.6,128.178044,37.941409,6838.6482479999995,14.592,-8.025,351.116,1.0
6.6166,128.178035,37.941455,6837.973116,14.597,-8.04,351.12,1.0
6.6333,128.178026,37.941501,6837.2964600000005,14.602,-8.055,351.124,1.0
6.65,128.178017,37.941547,6836.61828,14.608,-8.07,351.129,1.0
6.6666,128.178008,37.941592,6835.9388808,14.614,-8.085,351.133,1.0
6.6833,128.177999,37.941638,6835.2579576,14.62,-8.1,351.137,1.0
6.7,128.17799,37.941684,6834.575815200001,14.627,-8.115,351.141,1.0
6.7166,128.177981,37.94173,6833.891844,14.634,-8.13,351.145,1.0
6.7333,128.177972,37.941776,6833.2069584,14.642,-8.145,351.149,1.0
6.75,128.177963,37.941822,6832.520244,14.65,-8.16,351.153,1.0
6.7666,128.177954,37.941868,6831.8320056,14.659,-8.176,351.157,1.0
6.7833,128.177945,37.941914,6831.142548,14.667,-8.191,351.161,1.0
6.8,128.177936,37.94196,6830.4515664,14.677,-8.206,351.165,1.0
6.8166,128.177927,37.942006,6829.759365600001,14.686,-8.221,351.169,1.0
6.8333,128.177918,37.942052,6829.0656408,14.696,-8.236,351.173,1.0
6.85,128.177909,37.942098,6828.370392000001,14.707,-8.251,351.177,1.0
6.8666,128.1779,37.942144,6827.673619200001,14.718,-8.266,351.181,1.0
6.8833,128.177891,37.94219,6826.975322400001,14.729,-8.282,351.185,1.0
6.9,128.177882,37.942236,6826.275806400001,14.741,-8.297,351.189,1.0
6.9166,128.177873,37.942281,6825.5747664,14.753,-8.312,351.193,1.0
6.9333,128.177864,37.942327,6824.8725072,14.766,-8.328,351.197,1.0
6.95,128.177855,37.942373,6824.1684192,14.779,-8.343,351.201,1.0
6.9666,128.177846,37.942419,6823.463112,14.792,-8.359,351.205,1.0
6.9833,128.177837,37.942465,6822.7562808,14.806,-8.374,351.209,1.0
7.0,128.177828,37.942511,6822.0482304,14.82,-8.39,351.213,1.0
7.0166,128.177819,37.942557,6821.338351200001,14.835,-8.406,351.216,1.0
7.0333,128.17781,37.942603,6820.6272528,14.851,-8.421,351.22,1.0
7.05,128.177801,37.94265,6819.9146304,14.867,-8.437,351.224,1.0
7.0666,128.177792,37.942696,6819.200484000001,14.883,-8.453,351.228,1.0
7.0833,128.177783,37.942742,6818.485118400001,14.9,-8.468,351.232,1.0
7.1,128.177774,37.942788,6817.767924000001,14.918,-8.484,351.236,1.0
7.1166,128.177765,37.942834,6817.049510400001,14.936,-8.5,351.24,1.0
7.1333,128.177756,37.94288,6816.3295728,14.954,-8.516,351.243,1.0
7.15,128.177747,37.942926,6815.608111200001,14.973,-8.532,351.247,1.0
7.1666,128.177738,37.942972,6814.8854304,14.993,-8.548,351.251,1.0
7.1833,128.177729,37.943018,6814.1609208,15.013,-8.564,351.255,1.0
7.2,128.17772,37.943064,6813.435192000001,15.034,-8.58,351.258,1.0
7.2166,128.177711,37.94311,6812.7079392,15.055,-8.596,351.262,1.0
7.2333,128.177702,37.943156,6811.9791624,15.078,-8.612,351.266,1.0
7.25,128.177693,37.943202,6811.2488616,15.1,-8.629,351.27,1.0
7.2666,128.177684,37.943248,6810.517036800001,15.123,-8.645,351.273,1.0
7.2833,128.177676,37.943294,6809.783992800001,15.147,-8.661,351.277,1.0
7.3,128.177667,37.943341,6809.049120000001,15.172,-8.678,351.281,1.0
7.3166,128.177658,37.943387,6808.3130280000005,15.197,-8.694,351.284,1.0
7.3333,128.177649,37.943433,6807.575412,15.223,-8.71,351.288,1.0
7.35,128.17764,37.943479,6806.8362720000005,15.25,-8.727,351.291,1.0
7.3666,128.177631,37.943525,6806.0953032,15.277,-8.743,351.295,1.0
7.3833,128.177622,37.943571,6805.3531152000005,15.305,-8.76,351.299,1.0
7.4,128.177613,37.943617,6804.609708,15.334,-8.777,351.302,1.0
7.4166,128.177604,37.943663,6803.864472,15.364,-8.793,351.306,1.0
7.4333,128.177595,37.94371,6803.117712,15.394,-8.81,351.309,1.0
7.45,128.177586,37.943756,6802.369428000001,15.425,-8.827,351.313,1.0
7.4666,128.177578,37.943802,6801.61962,15.457,-8.844,351.316,1.0
7.4833,128.177569,37.943848,6800.868288000001,15.49,-8.861,351.32,1.0
7.5,128.17756,37.943894,6800.1154320000005,15.524,-8.878,351.323,1.0
7.5166,128.177551,37.94394,6799.361356800001,15.559,-8.895,351.327,1.0
7.5333,128.177542,37.943987,6798.6054527999995,15.594,-8.912,351.33,1.0
7.55,128.177533,37.944033,6797.8480248000005,15.631,-8.929,351.333,1.0
7.5666,128.177524,37.944079,6797.0890728,15.668,-8.946,351.337,1.0
7.5833,128.177515,37.944125,6796.328596800001,15.707,-8.964,351.34,1.0
7.6,128.177506,37.944171,6795.5665968,15.746,-8.981,351.343,1.0
7.6166,128.177498,37.944218,6794.8027680000005,15.787,-8.998,351.347,1.0
7.6333,128.177489,37.944264,6794.037720000001,15.829,-9.016,351.35,1.0
7.65,128.17748,37.94431,6793.2708432,15.871,-9.033,351.353,1.0
7.6666,128.177471,37.944356,6792.502747200001,15.915,-9.05,351.357,1.0
7.6833,128.177462,37.944403,6791.7328224,15.96,-9.068,351.36,1.0
7.7,128.177453,37.944449,6790.9613736,16.006,-9.085,351.363,1.0
7.7166,128.177444,37.944495,6790.188400800001,16.053,-9.103,351.366,1.0
7.7333,128.177436,37.944541,6789.413904,16.101,-9.12,351.37,1.0
7.75,128.177427,37.944588,6788.637883200001,16.151,-9.138,351.373,1.0
7.7666,128.177418,37.944634,6787.860033600001,16.201,-9.155,351.376,1.0
7.7833,128.177409,37.94468,6787.0806600000005,16.253,-9.173,351.379,1.0
7.8,128.1774,37.944726,6786.2997624,16.306,-9.19,351.382,1.0
7.8166,128.177391,37.944773,6785.5173408,16.361,-9.208,351.386,1.0
7.8333,128.177383,37.944819,6784.7330904,16.417,-9.225,351.389,1.0
7.85,128.177374,37.944865,6783.947316,16.474,-9.243,351.392,1.0
7.8666,128.177365,37.944912,6783.1600176,16.533,-9.26,351.395,1.0
7.8833,128.177356,37.944958,6782.3708904000005,16.592,-9.278,351.398,1.0
7.9,128.177347,37.945004,6781.580544,16.654,-9.295,351.401,1.0
7.9166,128.177339,37.94505,6780.7883688,16.716,-9.313,351.405,1.0
7.9333,128.17733,37.945097,6779.994364800001,16.781,-9.33,351.408,1.0
7.95,128.177321,37.945143,6779.1988368,16.846,-9.348,351.411,1.0
7.9666,128.177312,37.945189,6778.4017848,16.913,-9.366,351.414,1.0
7.9833,128.177303,37.945236,6777.6032088,16.982,-9.383,351.417,1.0
8.0,128.177295,37.945282,6776.802804,17.052,-9.401,351.42,1.0
8.0166,128.177286,37.945328,6776.000875199999,17.123,-9.419,351.423,1.0
8.0333,128.177277,37.945375,6775.197117600001,17.196,-9.436,351.426,1.0
8.05,128.177268,37.945421,6774.391836000001,17.27,-9.454,351.429,1.0
8.0666,128.177259,37.945468,6773.5850304,17.346,-9.472,351.432,1.0
8.0833,128.177251,37.945514,6772.776396,17.422,-9.49,351.434,1.0
8.1,128.177242,37.94556,6771.966237600001,17.5,-9.508,351.437,1.0
8.1166,128.177233,37.945607,6771.154250400001,17.579,-9.526,351.44,1.0
8.1333,128.177224,37.945653,6770.3407392,17.66,-9.545,351.443,1.0
8.15,128.177216,37.945699,6769.5253992,17.742,-9.563,351.445,1.0
8.1666,128.177207,37.945746,6768.7085352,17.825,-9.581,351.448,1.0
8.1833,128.177198,37.945792,6767.889842400001,17.909,-9.6,351.451,1.0
8.2,128.177189,37.945839,6767.0696256,17.995,-9.618,351.453,1.0
8.2166,128.177181,37.945885,6766.2478848,18.082,-9.637,351.456,1.0
8.2333,128.177172,37.945932,6765.424010400001,18.171,-9.655,351.458,1.0
8.25,128.177163,37.945978,6764.5989168,18.26,-9.674,351.461,1.0
8.2666,128.177154,37.946024,6763.7716896,18.352,-9.693,351.463,1.0
8.2833,128.177146,37.946071,6762.9429384000005,18.444,-9.711,351.465,1.0
8.3,128.177137,37.946117,6762.1126632000005,18.539,-9.73,351.468,1.0
8.3166,128.177128,37.946164,6761.2805592,18.634,-9.749,351.47,1.0
8.3333,128.177119,37.94621,6760.4466264,18.731,-9.768,351.472,1.0
8.35,128.177111,37.946257,6759.610864800001,18.829,-9.787,351.474,1.0
8.3666,128.177102,37.946303,6758.773579200001,18.929,-9.807,351.476,1.0
8.3833,128.177093,37.94635,6757.9347696,19.029,-9.826,351.479,1.0
8.4,128.177085,37.946396,6757.093826400001,19.132,-9.845,351.481,1.0
8.4166,128.177076,37.946443,6756.2513592000005,19.235,-9.865,351.483,1.0
8.4333,128.177067,37.946489,6755.4070632,19.34,-9.884,351.484,1.0
8.45,128.177058,37.946536,6754.5612432,19.445,-9.904,351.486,1.0
8.4666,128.17705,37.946582,6753.7135944,19.552,-9.923,351.488,1.0
8.4833,128.177041,37.946629,6752.8641168,19.66,-9.943,351.49,1.0
8.5,128.177032,37.946675,6752.0128104000005,19.769,-9.963,351.492,1.0
8.5166,128.177024,37.946722,6751.1596752,19.878,-9.982,351.493,1.0
8.5333,128.177015,37.946768,6750.305016,19.989,-10.002,351.495,1.0
8.55,128.177006,37.946815,6749.448528000001,20.101,-10.022,351.496,1.0
8.5666,128.176998,37.946861,6748.590211200001,20.214,-10.042,351.498,1.0
8.5833,128.176989,37.946908,6747.730065600001,20.327,-10.062,351.5,1.0
8.6,128.17698,37.946954,6746.868396000001,20.442,-10.081,351.501,1.0
8.6166,128.176972,37.947001,6746.004592800001,20.557,-10.101,351.503,1.0
8.6333,128.176963,37.947047,6745.139265600001,20.673,-10.121,351.504,1.0
8.65,128.176954,37.947094,6744.2721096000005,20.789,-10.141,351.505,1.0
8.6666,128.176946,37.94714,6743.403124800001,20.906,-10.161,351.507,1.0
8.6833,128.176937,37.947187,6742.532311200001,21.024,-10.18,351.508,1.0
8.7,128.176928,37.947234,6741.659668800001,21.142,-10.2,351.509,1.0
8.7166,128.17692,37.94728,6740.7855024,21.261,-10.22,351.511,1.0
8.7333,128.176911,37.947327,6739.9092024,21.38,-10.239,351.512,1.0
8.75,128.176902,37.947373,6739.031378400001,21.499,-10.259,351.513,1.0
8.7666,128.176894,37.94742,6738.1517256,21.618,-10.278,351.515,1.0
8.7833,128.176885,37.947467,6737.270244,21.738,-10.298,351.516,1.0
8.8,128.176877,37.947513,6736.386628800001,21.858,-10.317,351.517,1.0
8.8166,128.176868,37.94756,6735.5014896,21.979,-10.337,351.518,1.0
8.8333,128.176859,37.947606,6734.6145216,22.099,-10.356,351.52,1.0
8.85,128.176851,37.947653,6733.7257248000005,22.22,-10.376,351.521,1.0
8.8666,128.176842,37.9477,6732.8350992000005,22.342,-10.395,351.522,1.0
8.8833,128.176833,37.947746,6731.9426448,22.464,-10.414,351.523,1.0
8.9,128.176825,37.947793,6731.0483616,22.586,-10.433,351.525,1.0
8.9166,128.176816,37.94784,6730.152249600001,22.709,-10.452,351.526,1.0
8.9333,128.176808,37.947886,6729.2543088,22.833,-10.472,351.527,1.0
8.95,128.176799,37.947933,6728.3545392,22.956,-10.491,351.528,1.0
8.9666,128.17679,37.947979,6727.452940800001,23.081,-10.51,351.53,1.0
8.9833,128.176782,37.948026,6726.5495136,23.206,-10.528,351.531,1.0
9.0,128.176773,37.948073,6725.6439528,23.331,-10.547,351.532,1.0
9.0166,128.176765,37.948119,6724.736868,23.456,-10.566,351.534,1.0
9.0333,128.176756,37.948166,6723.827954400001,23.582,-10.585,351.535,1.0
9.05,128.176748,37.948213,6722.9169071999995,23.709,-10.603,351.536,1.0
9.0666,128.176739,37.94826,6722.004336,23.836,-10.622,351.537,1.0
9.0833,128.17673,37.948306,6721.0896312,23.963,-10.64,351.539,1.0
9.1,128.176722,37.948353,6720.1734024,24.09,-10.659,351.54,1.0
9.1166,128.176713,37.9484,6719.25504,24.218,-10.677,351.541,1.0
9.1333,128.176705,37.948446,6718.3348488,24.347,-10.696,351.543,1.0
9.15,128.176696,37.948493,6717.412828800001,24.476,-10.714,351.544,1.0
9.1666,128.176688,37.94854,6716.48898,24.605,-10.732,351.545,1.0
9.1833,128.176679,37.948587,6715.5633024,24.734,-10.75,351.547,1.0
9.2,128.176671,37.948633,6714.6357960000005,24.864,-10.769,351.548,1.0
9.2166,128.176662,37.94868,6713.706460800001,24.994,-10.787,351.549,1.0
9.2333,128.176653,37.948727,6712.774992000001,25.124,-10.805,351.551,1.0
9.25,128.176645,37.948773,6711.8419992,25.255,-10.823,351.552,1.0
9.2666,128.176636,37.94882,6710.9068728,25.386,-10.841,351.553,1.0
9.2833,128.176628,37.948867,6709.9699176,25.517,-10.859,351.555,1.0
9.3,128.176619,37.948914,6709.0311336,25.649,-10.878,351.556,1.0
9.3166,128.176611,37.948961,6708.0905207999995,25.781,-10.896,351.557,1.0
9.3333,128.176602,37.949007,6707.148079200001,25.913,-10.914,351.558,1.0
9.35,128.176594,37.949054,6706.2038088,26.046,-10.932,351.56,1.0
9.3666,128.176585,37.949101,6705.257404800001,26.179,-10.95,351.561,1.0
9.3833,128.176577,37.949148,6704.3094768,26.313,-10.968,351.562,1.0
9.4,128.176568,37.949194,6703.3594152000005,26.447,-10.986,351.564,1.0
9.4166,128.17656,37.949241,6702.407524800001,26.581,-11.004,351.565,1.0
9.4333,128.176551,37.949288,6701.453805600001,26.716,-11.021,351.566,1.0
9.45,128.176543,37.949335,6700.4982576,26.851,-11.039,351.567,1.0
9.4666,128.176534,37.949382,6699.540576,26.986,-11.057,351.569,1.0
9.4833,128.176526,37.949428,6698.581370400001,27.122,-11.075,351.57,1.0
9.5,128.176518,37.949475,6697.6200312,27.259,-11.093,351.571,1.0
9.5166,128.176509,37.949522,6696.6568632,27.396,-11.111,351.572,1.0
9.5333,128.176501,37.949569,6695.6918663999995,27.533,-11.128,351.574,1.0
9.55,128.176492,37.949616,6694.724736,27.671,-11.146,351.575,1.0
9.5666,128.176484,37.949663,6693.7560816000005,27.809,-11.164,351.576,1.0
9.5833,128.176475,37.94971,6692.7852936,27.947,-11.182,351.577,1.0
9.6,128.176467,37.949756,6691.8126768,28.086,-11.2,351.579,1.0
9.6166,128.176458,37.949803,6690.8382312,28.226,-11.217,351.58,1.0
9.6333,128.17645,37.94985,6689.861956800001,28.366,-11.235,351.581,1.0
9.65,128.176442,37.949897,6688.8835488,28.506,-11.253,351.582,1.0
9.6666,128.176433,37.949944,6687.903312,28.647,-11.271,351.583,1.0
9.6833,128.176425,37.949991,6686.9212464,28.788,-11.289,351.584,1.0
9.7,128.176416,37.950038,6685.937352000001,28.93,-11.306,351.586,1.0
9.7166,128.176408,37.950085,6684.9516288,29.072,-11.324,351.587,1.0
9.7333,128.1764,37.950131,6683.963772,29.214,-11.342,351.588,1.0
9.75,128.176391,37.950178,6682.9740864000005,29.357,-11.36,351.589,1.0
9.7666,128.176383,37.950225,6681.982572,29.501,-11.378,351.59,1.0
9.7833,128.176374,37.950272,6680.988924,29.645,-11.395,351.591,1.0
9.8,128.176366,37.950319,6679.993752000001,29.789,-11.413,351.592,1.0
9.8166,128.176358,37.950366,6678.9964464,29.934,-11.431,351.593,1.0
9.8333,128.176349,37.950413,6677.9970072,30.079,-11.449,351.594,1.0
9.85,128.176341,37.95046,6676.9960439999995,30.224,-11.467,351.595,1.0
9.8666,128.176332,37.950507,6675.9929472,30.37,-11.484,351.596,1.0
9.8833,128.176324,37.950554,6674.9880216,30.517,-11.502,351.597,1.0
9.9,128.176316,37.950601,6673.9812672,30.664,-11.52,351.598,1.0
9.9166,128.176307,37.950648,6672.9723792,30.811,-11.538,351.599,1.0
9.9333,128.176299,37.950695,6671.9616624,30.959,-11.555,351.6,1.0
9.95,128.176291,37.950742,6670.9491168,31.107,-11.573,351.601,1.0
9.9666,128.176282,37.950788,6669.934437600001,31.256,-11.591,351.603,1.0
9.9833,128.176274,37.950835,6668.9182344,31.405,-11.608,351.604,1.0
10.0,128.176266,37.950882,6667.899897600001,31.554,-11.626,351.605,1.0
10.0166,128.176257,37.950929,6666.8794272000005,31.704,-11.644,351.606,1.0
10.0333,128.176249,37.950976,6665.857128000001,31.855,-11.661,351.607,1.0
10.05,128.176241,37.951023,6664.8330000000005,32.006,-11.679,351.608,1.0
10.0666,128.176232,37.95107,6663.8070431999995,32.157,-11.696,351.609,1.0
10.0833,128.176224,37.951117,6662.7789528,32.309,-11.714,351.61,1.0
10.1,128.176216,37.951164,6661.749033600001,32.461,-11.731,351.611,1.0
10.1166,128.176208,37.951211,6660.7172856,32.613,-11.749,351.612,1.0
10.1333,128.176199,37.951258,6659.683404,32.766,-11.766,351.613,1.0
10.15,128.176191,37.951305,6658.6476936,32.919,-11.784,351.614,1.0
10.1666,128.176183,37.951353,6657.6098496,33.073,-11.801,351.615,1.0
10.1833,128.176174,37.9514,6656.5701768,33.227,-11.819,351.616,1.0
10.2,128.176166,37.951447,6655.5286752,33.382,-11.836,351.617,1.0
10.2166,128.176158,37.951494,6654.4853448,33.537,-11.854,351.618,1.0
10.2333,128.17615,37.951541,6653.4398808000005,33.692,-11.871,351.619,1.0
10.25,128.176141,37.951588,6652.392283200001,33.848,-11.889,351.62,1.0
10.2666,128.176133,37.951635,6651.3431616,34.004,-11.906,351.621,1.0
10.2833,128.176125,37.951682,6650.291906400001,34.16,-11.923,351.622,1.0
10.3,128.176117,37.951729,6649.2385176,34.317,-11.941,351.623,1.0
10.3166,128.176108,37.951776,6648.183300000001,34.474,-11.958,351.624,1.0
10.3333,128.1761,37.951823,6647.1262536,34.631,-11.975,351.626,1.0
10.35,128.176092,37.95187,6646.0670736,34.789,-11.993,351.627,1.0
10.3666,128.176084,37.951917,6645.006064800001,34.948,-12.01,351.628,1.0
10.3833,128.176075,37.951964,6643.9432272,35.106,-12.028,351.629,1.0
10.4,128.176067,37.952011,6642.878256000001,35.265,-12.045,351.63,1.0
10.4166,128.176059,37.952059,6641.8111512000005,35.425,-12.062,351.631,1.0
10.4333,128.176051,37.952106,6640.7425224,35.584,-12.079,351.632,1.0
10.45,128.176043,37.952153,6639.6714552,35.744,-12.097,351.633,1.0
10.4666,128.176034,37.9522,6638.5988640000005,35.905,-12.114,351.634,1.0
10.4833,128.176026,37.952247,6637.5241392,36.066,-12.131,351.635,1.0
10.5,128.176018,37.952294,6636.4472808,36.227,-12.148,351.636,1.0
10.5166,128.17601,37.952341,6635.3685936,36.389,-12.166,351.637,1.0
10.5333,128.176002,37.952388,6634.2880776,36.55,-12.183,351.638,1.0
10.55,128.175994,37.952436,6633.205428,36.713,-12.2,351.639,1.0
10.5666,128.175985,37.952483,6632.1206448,36.875,-12.217,351.641,1.0
10.5833,128.175977,37.95253,6631.0340328,37.038,-12.234,351.642,1.0
10.6,128.175969,37.952577,6629.945592000001,37.202,-12.251,351.643,1.0
10.6166,128.175961,37.952624,6628.8550176,37.366,-12.269,351.644,1.0
10.6333,128.175953,37.952671,6627.7626144000005,37.53,-12.286,351.645,1.0
10.65,128.175945,37.952718,6626.6680776,37.694,-12.303,351.646,1.0
10.6666,128.175937,37.952766,6625.571712,37.859,-12.32,351.647,1.0
10.6833,128.175928,37.952813,6624.4732128000005,38.024,-12.337,351.648,1.0
10.7,128.17592,37.95286,6623.37258,38.189,-12.354,351.65,1.0
10.7166,128.175912,37.952907,6622.270423200001,38.355,-12.371,351.651,1.0
10.7333,128.175904,37.952954,6621.165828,38.521,-12.388,351.652,1.0
10.75,128.175896,37.953002,6620.0594040000005,38.688,-12.405,351.653,1.0
10.7666,128.175888,37.953049,6618.951151200001,38.855,-12.422,351.654,1.0
10.7833,128.17588,37.953096,6617.8407648,39.022,-12.439,351.655,1.0
10.8,128.175872,37.953143,6616.7282448000005,39.19,-12.456,351.657,1.0
10.8166,128.175864,37.95319,6615.613896000001,39.357,-12.473,351.658,1.0
10.8333,128.175856,37.953238,6614.4977184,39.526,-12.49,351.659,1.0
10.85,128.175848,37.953285,6613.3791024,39.694,-12.507,351.66,1.0
10.8666,128.175839,37.953332,6612.2589624,39.863,-12.524,351.661,1.0
10.8833,128.175831,37.953379,6611.136384000001,40.032,-12.541,351.663,1.0
10.9,128.175823,37.953427,6610.0119768,40.202,-12.558,351.664,1.0
10.9166,128.175815,37.953474,6608.8857408,40.372,-12.575,351.665,1.0
10.9333,128.175807,37.953521,6607.7573712,40.542,-12.592,351.666,1.0
10.95,128.175799,37.953568,6606.626868,40.713,-12.608,351.668,1.0
10.9666,128.175791,37.953616,6605.494536,40.884,-12.625,351.669,1.0
10.9833,128.175783,37.953663,6604.360070400001,41.055,-12.642,351.67,1.0
11.0,128.175775,37.95371,6603.223776,41.226,-12.659,351.672,1.0
11.0166,128.175767,37.953757,6602.085348,41.398,-12.676,351.673,1.0
11.0333,128.175759,37.953805,6600.9447864,41.571,-12.693,351.674,1.0
11.05,128.175751,37.953852,6599.802396,41.743,-12.709,351.676,1.0
11.0666,128.175743,37.953899,6598.657872,41.916,-12.726,351.677,1.0
11.0833,128.175735,37.953947,6597.5112144,42.09,-12.743,351.678,1.0
11.1,128.175727,37.953994,6596.362728,42.263,-12.76,351.68,1.0
11.1166,128.175719,37.954041,6595.212108,42.437,-12.776,351.681,1.0
11.1333,128.175711,37.954088,6594.0596592,42.612,-12.793,351.682,1.0
11.15,128.175703,37.954136,6592.905076800001,42.786,-12.81,351.684,1.0
11.1666,128.175695,37.954183,6591.748360800001,42.961,-12.827,351.685,1.0
11.1833,128.175687,37.95423,6590.589511200001,43.137,-12.843,351.687,1.0
11.2,128.175679,37.954278,6589.4288328,43.312,-12.86,351.688,1.0
11.2166,128.175671,37.954325,6588.2660208,43.488,-12.877,351.689,1.0
11.2333,128.175664,37.954372,6587.10138,43.665,-12.893,351.691,1.0
11.25,128.175656,37.95442,6585.9346056,43.842,-12.91,351.692,1.0
11.2666,128.175648,37.954467,6584.765697600001,44.019,-12.927,351.694,1.0
11.2833,128.17564,37.954514,6583.594656000001,44.196,-12.943,351.695,1.0
11.3,128.175632,37.954562,6582.4217856000005,44.374,-12.96,351.697,1.0
11.3166,128.175624,37.954609,6581.2467816,44.552,-12.977,351.698,1.0
11.3333,128.175616,37.954656,6580.069644,44.73,-12.993,351.7,1.0
11.35,128.175608,37.954704,6578.8906776,44.909,-13.01,351.701,1.0
11.3666,128.1756,37.954751,6577.709272800001,45.088,-13.026,351.703,1.0
11.3833,128.175592,37.954799,6576.5260392,45.268,-13.043,351.704,1.0
11.4,128.175584,37.954846,6575.3409768,45.447,-13.06,351.706,1.0
11.4166,128.175577,37.954893,6574.153476,45.628,-13.076,351.708,1.0
11.4333,128.175569,37.954941,6572.964146400001,45.808,-13.093,351.709,1.0
11.45,128.175561,37.954988,6571.772683200001,45.989,-13.109,351.711,1.0
11.4666,128.175553,37.955036,6570.5790864,46.17,-13.126,351.712,1.0
11.4833,128.175545,37.955083,6569.383660800001,46.351,-13.142,351.714,1.0
11.5,128.175537,37.95513,6568.1857968,46.533,-13.159,351.716,1.0
11.5166,128.175529,37.955178,6566.9861040000005,46.715,-13.175,351.717,1.0
11.5333,128.175522,37.955225,6565.7845824000005,46.898,-13.192,351.719,1.0
11.55,128.175514,37.955273,6564.5806224,47.08,-13.208,351.72,1.0
11.5666,128.175506,37.95532,6563.374528800001,47.263,-13.225,351.722,1.0
11.5833,128.175498,37.955367,6562.166606400001,47.447,-13.241,351.724,1.0
11.6,128.17549,37.955415,6560.9565504,47.631,-13.258,351.726,1.0
11.6166,128.175483,37.955462,6559.7443608,47.815,-13.274,351.727,1.0
11.6333,128.175475,37.95551,6558.5300376000005,47.999,-13.291,351.729,1.0
11.65,128.175467,37.955557,6557.3138856000005,48.184,-13.307,351.731,1.0
11.6666,128.175459,37.955605,6556.095295200001,48.369,-13.324,351.733,1.0
11.6833,128.175451,37.955652,6554.874876,48.554,-13.34,351.734,1.0
11.7,128.175444,37.955699,6553.652323200001,48.74,-13.356,351.736,1.0
11.7166,128.175436,37.955747,6552.4276368,48.926,-13.373,351.738,1.0
11.7333,128.175428,37.955794,6551.2008168,49.113,-13.389,351.74,1.0
11.75,128.17542,37.955842,6549.9718632,49.299,-13.406,351.742,1.0
11.7666,128.175413,37.955889,6548.740776,49.487,-13.422,351.743,1.0
11.7833,128.175405,37.955937,6547.507860000001,49.674,-13.438,351.745,1.0
11.8,128.175397,37.955984,6546.272505600001,49.862,-13.455,351.747,1.0
11.8166,128.175389,37.956032,6545.0353224,50.05,-13.471,351.749,1.0
11.8333,128.175382,37.956079,6543.7960056,50.238,-13.488,351.751,1.0
11.85,128.175374,37.956127,6542.5545552,50.427,-13.504,351.753,1.0
11.8666,128.175366,37.956174,6541.3109712,50.616,-13.52,351.755,1.0
11.8833,128.175358,37.956222,6540.0652536,50.805,-13.537,351.757,1.0
11.9,128.175351,37.956269,6538.8174024,50.995,-13.553,351.759,1.0
11.9166,128.175343,37.956317,6537.5674176,51.185,-13.569,351.761,1.0
11.9333,128.175335,37.956364,6536.3152992000005,51.375,-13.586,351.763,1.0
11.95,128.175328,37.956412,6535.061047200001,51.566,-13.602,351.765,1.0
11.9666,128.17532,37.956459,6533.8049664,51.757,-13.618,351.767,1.0
11.9833,128.175312,37.956507,6532.5464472,51.948,-13.634,351.769,1.0
12.0,128.175305,37.956554,6531.2857944,52.14,-13.651,351.771,1.0
12.0166,128.175297,37.956602,6530.0233128,52.331,-13.667,351.773,1.0
12.0333,128.175289,37.956649,6528.7583928,52.524,-13.683,351.775,1.0
12.05,128.175282,37.956697,6527.4913392,52.716,-13.7,351.777,1.0
12.0666,128.175274,37.956745,6526.222456800001,52.909,-13.716,351.779,1.0
12.0833,128.175266,37.956792,6524.951136000001,53.102,-13.732,351.782,1.0
12.1,128.175259,37.95684,6523.6776816,53.296,-13.748,351.784,1.0
12.1166,128.175251,37.956887,6522.4023984,53.489,-13.765,351.786,1.0
12.1333,128.175243,37.956935,6521.1246768,53.683,-13.781,351.788,1.0
12.15,128.175236,37.956982,6519.8448216,53.878,-13.797,351.79,1.0
12.1666,128.175228,37.95703,6518.563137600001,54.073,-13.813,351.793,1.0
12.1833,128.175221,37.957078,6517.279015200001,54.268,-13.83,351.795,1.0
12.2,128.175213,37.957125,6515.9927592,54.463,-13.846,351.797,1.0
12.2166,128.175205,37.957173,6514.704369600001,54.659,-13.862,351.799,1.0
12.2333,128.175198,37.95722,6513.413846400001,54.854,-13.878,351.802,1.0
12.25,128.17519,37.957268,6512.1211896,55.051,-13.894,351.804,1.0
12.2666,128.175183,37.957315,6510.8263992,55.247,-13.911,351.806,1.0
12.2833,128.175175,37.957363,6509.5294752,55.444,-13.927,351.809,1.0
12.3,128.175168,37.957411,6508.2301128,55.641,-13.943,351.811,1.0
12.3166,128.17516,37.957458,6506.9289216,55.839,-13.959,351.814,1.0
12.3333,128.175153,37.957506,6505.625292000001,56.036,-13.975,351.816,1.0
12.35,128.175145,37.957553,6504.3198336000005,56.235,-13.992,351.818,1.0
12.3666,128.175137,37.957601,6503.0119368000005,56.433,-14.008,351.821,1.0
12.3833,128.17513,37.957649,6501.701906400001,56.632,-14.024,351.823,1.0
12.4,128.175122,37.957696,6500.389742400001,56.83,-14.04,351.826,1.0
12.4166,128.175115,37.957744,6499.0754448,57.03,-14.056,351.828,1.0
12.4333,128.175107,37.957792,6497.7590136,57.229,-14.073,351.831,1.0
12.45,128.1751,37.957839,6496.440144,57.429,-14.089,351.833,1.0
12.4666,128.175092,37.957887,6495.1194456,57.629,-14.105,351.836,1.0
12.4833,128.175085,37.957935,6493.796308800001,57.83,-14.121,351.839,1.0
12.5,128.175077,37.957982,6492.471038400001,58.03,-14.137,351.841,1.0
12.5166,128.17507,37.95803,6491.143634399999,58.231,-14.153,351.844,1.0
12.5333,128.175062,37.958077,6489.814096800001,58.433,-14.169,351.847,1.0
12.55,128.175055,37.958125,6488.4821208,58.634,-14.186,351.849,1.0
12.5666,128.175048,37.958173,6487.148316,58.836,-14.202,351.852,1.0
12.5833,128.17504,37.95822,6485.8120728,59.038,-14.218,351.855,1.0
12.6,128.175033,37.958268,6484.473696,59.241,-14.234,351.857,1.0
12.6166,128.175025,37.958316,6483.1328808,59.444,-14.25,351.86,1.0
12.6333,128.175018,37.958363,6481.7902368000005,59.647,-14.266,351.863,1.0
12.65,128.17501,37.958411,6480.4451544,59.85,-14.282,351.866,1.0
12.6666,128.175003,37.958459,6479.097938400001,60.053,-14.299,351.868,1.0
12.6833,128.174995,37.958507,6477.7485888,60.257,-14.315,351.871,1.0
12.7,128.174988,37.958554,6476.3968008,60.462,-14.331,351.874,1.0
12.7166,128.174981,37.958602,6475.042879200001,60.666,-14.347,351.877,1.0
12.7333,128.174973,37.95865,6473.686824,60.871,-14.363,351.88,1.0
12.75,128.174966,37.958697,6472.3286352000005,61.076,-14.379,351.883,1.0
12.7666,128.174958,37.958745,6470.968008,61.281,-14.395,351.886,1.0
12.7833,128.174951,37.958793,6469.605247200001,61.487,-14.412,351.889,1.0
12.8,128.174944,37.95884,6468.2403527999995,61.693,-14.428,351.892,1.0
12.8166,128.174936,37.958888,6466.873324800001,61.899,-14.444,351.895,1.0
12.8333,128.174929,37.958936,6465.5038584,62.105,-14.46,351.898,1.0
12.85,128.174922,37.958984,6464.1322584,62.312,-14.476,351.901,1.0
12.8666,128.174914,37.959031,6462.7585248000005,62.519,-14.492,351.904,1.0
12.8833,128.174907,37.959079,6461.3823528,62.726,-14.508,351.907,1.0
12.9,128.1749,37.959127,6460.004047200001,62.934,-14.525,351.91,1.0
12.9166,128.174892,37.959175,6458.6233032,63.142,-14.541,351.913,1.0
12.9333,128.174885,37.959222,6457.2407304,63.35,-14.557,351.916,1.0
12.95,128.174878,37.95927,6455.855414400001,63.558,-14.573,351.919,1.0
12.9666,128.17487,37.959318,6454.468269600001,63.767,-14.589,351.922,1.0
12.9833,128.174863,37.959366,6453.0786864,63.976,-14.605,351.926,1.0
13.0,128.174856,37.959413,6451.6869696,64.185,-14.621,351.929,1.0
13.0166,128.174848,37.959461,6450.292814400001,64.394,-14.638,351.932,1.0
13.0333,128.174841,37.959509,6448.8965256,64.604,-14.654,351.935,1.0
13.0499,128.174834,37.959557,6447.4981032,64.814,-14.67,351.938,1.0
13.0666,128.174826,37.959604,6446.097242400001,65.024,-14.686,351.942,1.0
13.0833,128.174819,37.959652,6444.694248,65.235,-14.702,351.945,1.0
13.1,128.174812,37.9597,6443.28912,65.446,-14.718,351.948,1.0
13.1166,128.174805,37.959748,6441.8815536,65.656,-14.735,351.952,1.0
13.1333,128.174797,37.959795,6440.4715488,65.868,-14.751,351.955,1.0
13.15,128.17479,37.959843,6439.059410400001,66.079,-14.767,351.959,1.0
13.1666,128.174783,37.959891,6437.645138400001,66.291,-14.783,351.962,1.0
13.1833,128.174776,37.959939,6436.228428,66.503,-14.799,351.965,1.0
13.2,128.174768,37.959987,6434.8095840000005,66.715,-14.816,351.969,1.0
13.2166,128.174761,37.960034,6433.388606400001,66.928,-14.832,351.972,1.0
13.2333,128.174754,37.960082,6431.9651904,67.14,-14.848,351.976,1.0
13.25,128.174747,37.96013,6430.539336,67.353,-14.864,351.979,1.0
13.2666,128.17474,37.960178,6429.111347999999,67.566,-14.88,351.983,1.0
13.2833,128.174732,37.960226,6427.6809216,67.78,-14.897,351.986,1.0
13.3,128.174725,37.960273,6426.2483616,67.994,-14.913,351.99,1.0
13.3166,128.174718,37.960321,6424.813668000001,68.207,-14.929,351.994,1.0
13.3333,128.174711,37.960369,6423.376536000001,68.422,-14.945,351.997,1.0
13.35,128.174704,37.960417,6421.937270400001,68.636,-14.961,352.001,1.0
13.3666,128.174696,37.960465,6420.4955664,68.851,-14.978,352.005,1.0
13.3833,128.174689,37.960512,6419.051424,69.066,-14.994,352.008,1.0
13.4,128.174682,37.96056,6417.605148,69.281,-15.01,352.012,1.0
13.4166,128.174675,37.960608,6416.156433600001,69.496,-15.027,352.016,1.0
13.4333,128.174668,37.960656,6414.7055856,69.712,-15.043,352.019,1.0
13.45,128.174661,37.960704,6413.252604,69.927,-15.059,352.023,1.0
13.4666,128.174653,37.960752,6411.797184000001,70.143,-15.075,352.027,1.0
13.4833,128.174646,37.960799,6410.3393256,70.36,-15.092,352.031,1.0
13.5,128.174639,37.960847,6408.879028800001,70.576,-15.108,352.034,1.0
13.5166,128.174632,37.960895,6407.4169032,70.793,-15.124,352.038,1.0
13.5333,128.174625,37.960943,6405.9520344,71.01,-15.141,352.042,1.0
13.55,128.174618,37.960991,6404.4850320000005,71.227,-15.157,352.046,1.0
13.5666,128.174611,37.961039,6403.0155912,71.444,-15.173,352.05,1.0
13.5833,128.174604,37.961087,6401.5440168,71.662,-15.19,352.054,1.0
13.6,128.174597,37.961134,6400.070004,71.88,-15.206,352.058,1.0
13.6166,128.174589,37.961182,6398.5938576,72.098,-15.222,352.062,1.0
13.6333,128.174582,37.96123,6397.115272800001,72.316,-15.239,352.066,1.0
13.65,128.174575,37.961278,6395.634249600001,72.534,-15.255,352.07,1.0
13.6666,128.174568,37.961326,6394.151092800001,72.753,-15.272,352.074,1.0
13.6833,128.174561,37.961374,6392.665497600001,72.972,-15.288,352.078,1.0
13.7,128.174554,37.961422,6391.1777688,73.191,-15.304,352.082,1.0
13.7166,128.174547,37.96147,6389.687601600001,73.41,-15.321,352.086,1.0
13.7333,128.17454,37.961517,6388.194996,73.63,-15.337,352.09,1.0
13.75,128.174533,37.961565,6386.700256800001,73.849,-15.354,352.094,1.0
13.7666,128.174526,37.961613,6385.202774400001,74.069,-15.37,352.098,1.0
13.7833,128.174519,37.961661,6383.7034632,74.289,-15.387,352.102,1.0
13.8,128.174512,37.961709,6382.2014088000005,74.509,-15.403,352.106,1.0
13.8166,128.174505,37.961757,6380.6972208,74.73,-15.42,352.111,1.0
13.8333,128.174498,37.961805,6379.1905944,74.951,-15.436,352.115,1.0
13.85,128.174491,37.961853,6377.681834399999,75.171,-15.453,352.119,1.0
13.8666,128.174484,37.961901,6376.170636,75.392,-15.469,352.123,1.0
13.8833,128.174477,37.961949,6374.6569992,75.614,-15.486,352.128,1.0
13.9,128.17447,37.961996,6373.141228800001,75.835,-15.502,352.132,1.0
13.9166,128.174463,37.962044,6371.622715200001,76.057,-15.519,352.136,1.0
13.9333,128.174456,37.962092,6370.102068,76.278,-15.535,352.141,1.0
13.95,128.174449,37.96214,6368.5792872,76.5,-15.552,352.145,1.0
13.9666,128.174442,37.962188,6367.0537632000005,76.722,-15.569,352.149,1.0
13.9833,128.174435,37.962236,6365.526105600001,76.945,-15.585,352.154,1.0
14.0,128.174428,37.962284,6363.9963144,77.167,-15.602,352.158,1.0
14.0166,128.174421,37.962332,6362.46378,77.39,-15.618,352.162,1.0
14.0333,128.174414,37.96238,6360.929112,77.612,-15.635,352.167,1.0
14.05,128.174407,37.962428,6359.392005600001,77.835,-15.652,352.171,1.0
14.0666,128.1744,37.962476,6357.852460800001,78.058,-15.668,352.176,1.0
14.0833,128.174393,37.962524,6356.3104776,78.282,-15.685,352.18,1.0
14.1,128.174386,37.962572,6354.766360800001,78.505,-15.702,352.185,1.0
14.1166,128.174379,37.96262,6353.219805600001,78.729,-15.718,352.189,1.0
14.1333,128.174372,37.962667,6351.670812,78.952,-15.735,352.194,1.0
14.15,128.174365,37.962715,6350.1196848,79.176,-15.752,352.199,1.0
14.1666,128.174358,37.962763,6348.565814400001,79.4,-15.769,352.203,1.0
14.1833,128.174352,37.962811,6347.009810400001,79.624,-15.785,352.208,1.0
14.2,128.174345,37.962859,6345.451368,79.849,-15.802,352.212,1.0
14.2166,128.174338,37.962907,6343.8904872,80.073,-15.819,352.217,1.0
14.2333,128.174331,37.962955,6342.327472800001,80.298,-15.836,352.222,1.0
14.25,128.174324,37.963003,6340.7617152,80.523,-15.853,352.226,1.0
14.2666,128.174317,37.963051,6339.193824000001,80.747,-15.87,352.231,1.0
14.2833,128.17431,37.963099,6337.6234944,80.973,-15.886,352.236,1.0
14.3,128.174303,37.963147,6336.0507264,81.198,-15.903,352.241,1.0
14.3166,128.174297,37.963195,6334.475824800001,81.423,-15.92,352.245,1.0
14.3333,128.17429,37.963243,6332.89818,81.648,-15.937,352.25,1.0
14.35,128.174283,37.963291,6331.3184016000005,81.874,-15.954,352.255,1.0
14.3666,128.174276,37.963339,6329.7361848,82.1,-15.971,352.26,1.0
14.3833,128.174269,37.963387,6328.1515296,82.325,-15.988,352.264,1.0
14.4,128.174262,37.963435,6326.564436000001,82.551,-16.005,352.269,1.0
14.4166,128.174255,37.963483,6324.974904000001,82.777,-16.022,352.274,1.0
14.4333,128.174249,37.963531,6323.383238400001,83.004,-16.039,352.279,1.0
14.45,128.174242,37.963579,6321.7891344,83.23,-16.056,352.283,1.0
14.4666,128.174235,37.963627,6320.1922872000005,83.456,-16.073,352.288,1.0
14.4833,128.174228,37.963675,6318.593306400001,83.683,-16.09,352.293,1.0
14.5,128.174221,37.963723,6316.991887200001,83.91,-16.108,352.298,1.0
14.5166,128.174214,37.963771,6315.3880296,84.136,-16.125,352.303,1.0
14.5333,128.174208,37.963819,6313.782038400001,84.363,-16.142,352.308,1.0
14.55,128.174201,37.963867,6312.173304,84.59,-16.159,352.313,1.0
14.5666,128.174194,37.963915,6310.562436,84.818,-16.176,352.317,1.0
14.5833,128.174187,37.963963,6308.948824800001,85.045,-16.193,352.322,1.0
14.6,128.174181,37.964011,6307.333079999999,85.272,-16.211,352.327,1.0
