Time,Longitude,Latitude,Altitude,Roll (deg),Pitch (deg),Yaw (deg),Health
0.0,128.181873,37.923645,7000.495524000001,3.999,1.996,355.999,1.0
0.0166,128.181869,37.92369,7000.683890400001,3.999,1.987,355.999,1.0
0.0333,128.181865,37.923735,7000.871037600001,3.999,1.971,356.0,1.0
0.05,128.181861,37.92378,7001.0584896,3.988,1.953,356.004,1.0
0.0666,128.181857,37.923825,7001.245027200001,3.966,1.934,356.008,1.0
0.0833,128.181853,37.923869,7001.430650400001,3.937,1.915,356.013,1.0
0.1,128.181849,37.923914,7001.615664000001,3.902,1.896,356.019,1.0
0.1166,128.181845,37.923959,7001.8000680000005,3.863,1.877,356.025,1.0
0.1333,128.181841,37.924004,7001.9832528,3.819,1.859,356.031,1.0
0.15,128.181837,37.924049,7002.165828,3.773,1.84,356.037,1.0
0.1666,128.181833,37.924093,7002.3474888,3.724,1.822,356.044,1.0
0.1833,128.181829,37.924138,7002.52854,3.673,1.804,356.05,1.0
0.2,128.181825,37.924183,7002.708372,3.62,1.786,356.057,1.0
0.2166,128.181821,37.924228,7002.8872896,3.565,1.769,356.063,1.0
0.2333,128.181817,37.924272,7003.065597600001,3.509,1.751,356.07,1.0
0.25,128.181813,37.924317,7003.2426864,3.452,1.734,356.076,1.0
0.2666,128.18181,37.924362,7003.4188608,3.394,1.718,356.083,1.0
0.2833,128.181806,37.924407,7003.5941207999995,3.335,1.701,356.089,1.0
0.3,128.181802,37.924452,7003.7684664,3.275,1.685,356.096,1.0
0.3166,128.181798,37.924496,7003.941592800001,3.215,1.668,356.102,1.0
0.3333,128.181794,37.924541,7004.1141096,3.153,1.652,356.108,1.0
0.35,128.18179,37.924586,7004.2854072,3.091,1.636,356.115,1.0
0.3666,128.181786,37.924631,7004.4557904,3.029,1.621,356.121,1.0
0.3833,128.181782,37.924675,7004.6249544,2.966,1.605,356.128,1.0
0.4,128.181778,37.92472,7004.7935088,2.902,1.59,356.134,1.0
0.4166,128.181774,37.924765,7004.9605392,2.838,1.574,356.14,1.0
0.4333,128.18177,37.92481,7005.1269600000005,2.773,1.559,356.146,1.0
0.45,128.181766,37.924855,7005.292161599999,2.708,1.544,356.153,1.0
0.4666,128.181762,37.924899,7005.4564488,2.642,1.529,356.159,1.0
0.4833,128.181758,37.924944,7005.6195168,2.576,1.515,356.165,1.0
0.5,128.181754,37.924989,7005.781670400001,2.509,1.5,356.171,1.0
0.5166,128.181751,37.925034,7005.9426048000005,2.442,1.485,356.177,1.0
0.5333,128.181747,37.925078,7006.102624800001,2.375,1.471,356.183,1.0
0.55,128.181743,37.925123,7006.2617304,2.307,1.456,356.189,1.0
0.5666,128.181739,37.925168,7006.4196168,2.238,1.442,356.195,1.0
0.5833,128.181735,37.925213,7006.576284000001,2.17,1.428,356.201,1.0
0.6,128.181731,37.925258,7006.7320368,2.101,1.414,356.207,1.0
0.6166,128.181727,37.925302,7006.886570400001,2.031,1.4,356.213,1.0
0.6333,128.181723,37.925347,7007.0401896,1.961,1.386,356.219,1.0
0.65,128.181719,37.925392,7007.1925896,1.891,1.372,356.224,1.0
0.6666,128.181715,37.925437,7007.3440752,1.82,1.358,356.23,1.0
0.6833,128.181711,37.925482,7007.494341600001,1.75,1.344,356.236,1.0
0.7,128.181707,37.925526,7007.6436936,1.678,1.33,356.242,1.0
0.7166,128.181704,37.925571,7007.7918264,1.606,1.316,356.247,1.0
0.7333,128.1817,37.925616,7007.9387400000005,1.534,1.303,356.253,1.0
0.75,128.181696,37.925661,7008.0847392,1.462,1.289,356.258,1.0
0.7666,128.181692,37.925705,7008.229519200001,1.389,1.276,356.264,1.0
0.7833,128.181688,37.92575,7008.37308,1.316,1.262,356.269,1.0
0.8,128.181684,37.925795,7008.5157264,1.243,1.248,356.275,1.0
0.8166,128.18168,37.92584,7008.6571536,1.169,1.235,356.28,1.0
0.8333,128.181676,37.925885,7008.7973616,1.095,1.222,356.286,1.0
0.85,128.181672,37.925929,7008.9366552,1.02,1.208,356.291,1.0
0.8666,128.181668,37.925974,7009.0747296,0.945,1.195,356.296,1.0
0.8833,128.181665,37.926019,7009.2118896,0.87,1.182,356.302,1.0
0.9,128.181661,37.926064,7009.3478304,0.795,1.168,356.307,1.0
0.9166,128.181657,37.926108,7009.482552,0.719,1.155,356.312,1.0
0.9333,128.181653,37.926153,7009.6160544,0.643,1.142,356.318,1.0
0.95,128.181649,37.926198,7009.748642400001,0.566,1.128,356.323,1.0
0.9666,128.181645,37.926243,7009.879706400001,0.489,1.115,356.328,1.0
0.9833,128.181641,37.926288,7010.0101608,0.412,1.102,356.333,1.0
1.0,128.181637,37.926332,7010.139091200001,0.335,1.089,356.338,1.0
1.0166,128.181633,37.926377,7010.2671072,0.257,1.076,356.343,1.0
1.0333,128.18163,37.926422,7010.3939040000005,0.179,1.063,356.348,1.0
1.05,128.181626,37.926467,7010.5194816,0.101,1.05,356.353,1.0
1.0666,128.181622,37.926512,7010.6441448000005,0.022,1.036,356.358,1.0
1.0833,128.181618,37.926556,7010.7672840000005,-0.056,1.023,356.363,1.0
1.1,128.181614,37.926601,7010.8895088,-0.135,1.01,356.368,1.0
1.1166,128.18161,37.926646,7011.010819200001,-0.215,0.997,356.373,1.0
1.1333,128.181606,37.926691,7011.1306056,-0.295,0.984,356.378,1.0
1.15,128.181602,37.926736,7011.2494776,-0.375,0.971,356.382,1.0
1.1666,128.181598,37.92678,7011.3671304,-0.456,0.958,356.387,1.0
1.1833,128.181595,37.926825,7011.483564,-0.537,0.945,356.392,1.0
1.2,128.181591,37.92687,7011.598778400001,-0.618,0.932,356.397,1.0
1.2166,128.181587,37.926915,7011.713078400001,-0.699,0.919,356.401,1.0
1.2333,128.181583,37.926959,7011.826159200001,-0.781,0.906,356.406,1.0
1.25,128.181579,37.927004,7011.9380208,-0.863,0.893,356.411,1.0
1.2666,128.181575,37.927049,7012.0486632,-0.945,0.881,356.415,1.0
1.2833,128.181571,37.927094,7012.158086400001,-1.028,0.868,356.42,1.0
1.3,128.181567,37.927139,7012.266595200001,-1.111,0.855,356.425,1.0
1.3166,128.181564,37.927184,7012.3738848,-1.194,0.842,356.429,1.0
1.3333,128.18156,37.927228,7012.4799552,-1.278,0.829,356.434,1.0
1.35,128.181556,37.927273,7012.584806400001,-1.362,0.816,356.438,1.0
1.3666,128.181552,37.927318,7012.6884384,-1.446,0.803,356.443,1.0
1.3833,128.181548,37.927363,7012.7908512,-1.53,0.79,356.447,1.0
1.4,128.181544,37.927408,7012.892349600001,-1.615,0.777,356.452,1.0
1.4166,128.18154,37.927452,7012.992628800001,-1.7,0.764,356.456,1.0
1.4333,128.181536,37.927497,7013.0916888,-1.785,0.752,356.46,1.0
1.45,128.181533,37.927542,7013.1895296,-1.871,0.739,356.465,1.0
1.4666,128.181529,37.927587,7013.286151200001,-1.956,0.726,356.469,1.0
1.4833,128.181525,37.927632,7013.3818584,-2.043,0.713,356.473,1.0
1.5,128.181521,37.927676,7013.476041600001,-2.129,0.7,356.478,1.0
1.5166,128.181517,37.927721,7013.569310400001,-2.216,0.687,356.482,1.0
1.5333,128.181513,37.927766,7013.661360000001,-2.303,0.675,356.486,1.0
1.55,128.181509,37.927811,7013.7521904000005,-2.39,0.662,356.49,1.0
1.5666,128.181505,37.927856,7013.8418016000005,-2.477,0.649,356.494,1.0
1.5833,128.181502,37.927901,7013.9301936,-2.565,0.636,356.499,1.0
1.6,128.181498,37.927945,7014.0176712,-2.653,0.623,356.503,1.0
1.6166,128.181494,37.92799,7014.103624800001,-2.742,0.611,356.507,1.0
1.6333,128.18149,37.928035,7014.188664,-2.83,0.598,356.511,1.0
1.65,128.181486,37.92808,7014.272484000001,-2.919,0.585,356.515,1.0
1.6666,128.181482,37.928125,7014.3550847999995,-3.009,0.572,356.519,1.0
1.6833,128.181478,37.928169,7014.4364663999995,-3.098,0.559,356.523,1.0
1.7,128.181475,37.928214,7014.516628800001,-3.188,0.547,356.527,1.0
1.7166,128.181471,37.928259,7014.595572,-3.278,0.534,356.531,1.0
1.7333,128.181467,37.928304,7014.673600800001,-3.368,0.521,356.535,1.0
1.75,128.181463,37.928349,7014.750105600001,-3.459,0.508,356.539,1.0
1.7666,128.181459,37.928394,7014.825696000001,-3.55,0.496,356.543,1.0
1.7833,128.181455,37.928438,7014.8997624,-3.641,0.483,356.547,1.0
1.8,128.181451,37.928483,7014.9729144,-3.732,0.47,356.551,1.0
1.8166,128.181447,37.928528,7015.044847200001,-3.824,0.457,356.554,1.0
1.8333,128.181444,37.928573,7015.115560800001,-3.916,0.445,356.558,1.0
1.85,128.18144,37.928618,7015.1850552000005,-4.008,0.432,356.562,1.0
1.8666,128.181436,37.928663,7015.2533304,-4.101,0.419,356.566,1.0
1.8833,128.181432,37.928708,7015.320386400001,-4.194,0.406,356.569,1.0
1.9,128.181428,37.928752,7015.3862232,-4.287,0.394,356.573,1.0
1.9166,128.181424,37.928797,7015.449926400001,-4.358,0.381,356.578,1.0
1.9333,128.18142,37.928842,7015.511496,-4.408,0.37,356.585,1.0
1.95,128.181417,37.928887,7015.5712368,-4.438,0.358,356.592,1.0
1.9666,128.181413,37.928932,7015.6294536000005,-4.452,0.347,356.599,1.0
1.9833,128.181409,37.928977,7015.6861464,-4.45,0.336,356.606,1.0
2.0,128.181405,37.929022,7015.741010400001,-4.435,0.325,356.612,1.0
2.0166,128.181401,37.929066,7015.7943504,-4.41,0.314,356.618,1.0
2.0333,128.181397,37.929111,7015.8464711999995,-4.376,0.302,356.623,1.0
2.05,128.181393,37.929156,7015.8967632,-4.335,0.29,356.629,1.0
2.0666,128.18139,37.929201,7015.945836,-4.288,0.278,356.633,1.0
2.0833,128.181386,37.929246,7015.9933848,-4.236,0.266,356.637,1.0
2.1,128.181382,37.929291,7016.039714400001,-4.18,0.254,356.642,1.0
2.1166,128.181378,37.929336,7016.084520000001,-4.121,0.242,356.645,1.0
2.1333,128.181374,37.929381,7016.1281064,-4.06,0.229,356.649,1.0
2.15,128.18137,37.929425,7016.1704736,-3.997,0.216,356.652,1.0
2.1666,128.181366,37.92947,7016.211012,-3.932,0.203,356.656,1.0
2.1833,128.181363,37.929515,7016.250636000001,-3.866,0.19,356.659,1.0
2.2,128.181359,37.92956,7016.288736,-3.799,0.177,356.662,1.0
2.2166,128.181355,37.929605,7016.3256168,-3.732,0.163,356.665,1.0
2.2333,128.181351,37.92965,7016.361278400001,-3.664,0.15,356.668,1.0
2.25,128.181347,37.929695,7016.3957208,-3.595,0.136,356.67,1.0
2.2666,128.181343,37.92974,7016.4286392,-3.526,0.123,356.673,1.0
2.2833,128.181339,37.929785,7016.460338400001,-3.457,0.109,356.676,1.0
2.3,128.181336,37.92983,7016.490513600001,-3.388,0.095,356.678,1.0
2.3166,128.181332,37.929875,7016.519774400001,-3.318,0.081,356.681,1.0
2.3333,128.181328,37.929919,7016.547511200001,-3.249,0.067,356.683,1.0
2.35,128.181324,37.929964,7016.574028800001,-3.18,0.053,356.686,1.0
2.3666,128.18132,37.930009,7016.599022400001,-3.11,0.038,356.688,1.0
2.3833,128.181316,37.930054,7016.623101600001,-3.041,0.024,356.691,1.0
2.4,128.181312,37.930099,7016.645656800001,-2.971,0.01,356.693,1.0
2.4166,128.181309,37.930144,7016.666992800001,-2.902,-0.004,356.695,1.0
2.4333,128.181305,37.930189,7016.6871096,-2.833,-0.018,356.697,1.0
2.45,128.181301,37.930234,7016.7057024,-2.763,-0.033,356.7,1.0
2.4666,128.181297,37.930279,7016.723076,-2.694,-0.047,356.702,1.0
2.4833,128.181293,37.930324,7016.7395352,-2.625,-0.062,356.704,1.0
2.5,128.181289,37.930369,7016.754165600001,-2.556,-0.077,356.706,1.0
2.5166,128.181285,37.930414,7016.767881600001,-2.487,-0.092,356.708,1.0
2.5333,128.181282,37.930459,7016.780378400001,-2.418,-0.106,356.71,1.0
2.55,128.181278,37.930504,7016.7913512000005,-2.349,-0.121,356.712,1.0
2.5666,128.181274,37.930549,7016.801104800001,-2.28,-0.136,356.714,1.0
2.5833,128.18127,37.930594,7016.8096392,-2.211,-0.151,356.716,1.0
2.6,128.181266,37.930639,7016.8166496,-2.143,-0.166,356.718,1.0
2.6166,128.181262,37.930683,7016.8227456,-2.074,-0.181,356.72,1.0
2.6333,128.181258,37.930728,7016.8273176,-2.005,-0.196,356.721,1.0
2.65,128.181255,37.930773,7016.830670400001,-1.937,-0.212,356.723,1.0
2.6666,128.181251,37.930818,7016.8324992,-1.868,-0.227,356.725,1.0
2.6833,128.181247,37.930863,7016.8334136,-1.799,-0.242,356.727,1.0
2.7,128.181243,37.930908,7016.832804000001,-1.731,-0.257,356.729,1.0
2.7166,128.181239,37.930953,7016.8309752,-1.662,-0.273,356.73,1.0
2.7333,128.181235,37.930998,7016.8279272,-1.594,-0.288,356.732,1.0
2.75,128.181232,37.931043,7016.823660000001,-1.525,-0.303,356.734,1.0
2.7666,128.181228,37.931088,7016.817868800001,-1.457,-0.319,356.735,1.0
2.7833,128.181224,37.931133,7016.8108584,-1.388,-0.334,356.737,1.0
2.8,128.18122,37.931178,7016.802628800001,-1.319,-0.349,356.738,1.0
2.8166,128.181216,37.931223,7016.79318,-1.251,-0.365,356.74,1.0
2.8333,128.181212,37.931268,7016.782512,-1.182,-0.38,356.741,1.0
2.85,128.181209,37.931313,7016.7703200000005,-1.114,-0.396,356.743,1.0
2.8666,128.181205,37.931358,7016.7569088,-1.045,-0.411,356.744,1.0
2.8833,128.181201,37.931403,7016.742278400001,-0.976,-0.427,356.746,1.0
2.9,128.181197,37.931448,7016.726124000001,-0.907,-0.442,356.747,1.0
2.9166,128.181193,37.931493,7016.709055200001,-0.839,-0.458,356.749,1.0
2.9333,128.181189,37.931538,7016.6904624,-0.77,-0.474,356.75,1.0
2.95,128.181186,37.931583,7016.6706504,-0.701,-0.489,356.751,1.0
2.9666,128.181182,37.931628,7016.6496192,-0.632,-0.505,356.753,1.0
2.9833,128.181178,37.931674,7016.627064,-0.563,-0.521,356.754,1.0
3.0,128.181174,37.931719,7016.6032896,-0.494,-0.536,356.755,1.0
3.0166,128.18117,37.931764,7016.578296000001,-0.425,-0.552,356.757,1.0
3.0333,128.181166,37.931809,7016.552083200001,-0.356,-0.568,356.758,1.0
3.05,128.181163,37.931854,7016.5243464000005,-0.286,-0.584,356.759,1.0
3.0666,128.181159,37.931899,7016.4956952,-0.217,-0.599,356.761,1.0
3.0833,128.181155,37.931944,7016.465215200001,-0.147,-0.615,356.762,1.0
3.1,128.181151,37.931989,7016.4338208,-0.078,-0.631,356.763,1.0
3.1166,128.181147,37.932034,7016.4012072,-0.008,-0.647,356.764,1.0
3.1333,128.181144,37.932079,7016.367069600001,0.06,-0.662,356.765,1.0
3.15,128.18114,37.932124,7016.3317128,0.13,-0.678,356.767,1.0
3.1666,128.181136,37.932169,7016.2951368,0.2,-0.694,356.768,1.0
3.1833,128.181132,37.932214,7016.257036800001,0.27,-0.71,356.769,1.0
3.2,128.181128,37.932259,7016.2177176000005,0.34,-0.726,356.77,1.0
3.2166,128.181124,37.932304,7016.177179200001,0.411,-0.742,356.771,1.0
3.2333,128.181121,37.932349,7016.1354216,0.481,-0.758,356.772,1.0
3.25,128.181117,37.932395,7016.09214,0.552,-0.773,356.773,1.0
3.2666,128.181113,37.93244,7016.0476392,0.622,-0.789,356.774,1.0
3.2833,128.181109,37.932485,7016.001919200001,0.693,-0.805,356.775,1.0
3.3,128.181105,37.93253,7015.9549799999995,0.764,-0.821,356.776,1.0
3.3166,128.181102,37.932575,7015.9065168,0.835,-0.837,356.778,1.0
3.3333,128.181098,37.93262,7015.8568344,0.906,-0.853,356.779,1.0
3.35,128.181094,37.932665,7015.805932800001,0.978,-0.869,356.78,1.0
3.3666,128.18109,37.93271,7015.7535072,1.049,-0.885,356.781,1.0
3.3833,128.181086,37.932755,7015.6998624,1.121,-0.901,356.782,1.0
3.4,128.181083,37.932801,7015.6449984,1.192,-0.917,356.783,1.0
3.4166,128.181079,37.932846,7015.588915200001,1.264,-0.933,356.784,1.0
3.4333,128.181075,37.932891,7015.5313080000005,1.336,-0.949,356.785,1.0
3.45,128.181071,37.932936,7015.472481600001,1.409,-0.965,356.786,1.0
3.4666,128.181068,37.932981,7015.4124360000005,1.481,-0.981,356.786,1.0
3.4833,128.181064,37.933026,7015.3511712,1.554,-0.997,356.787,1.0
3.5,128.18106,37.933071,7015.2883824,1.627,-1.013,356.788,1.0
3.5166,128.181056,37.933117,7015.224374400001,1.7,-1.029,356.789,1.0
3.5333,128.181052,37.933162,7015.158842400001,1.773,-1.045,356.79,1.0
3.55,128.181049,37.933207,7015.092396000001,1.847,-1.061,356.791,1.0
3.5666,128.181045,37.933252,7015.0244256,1.92,-1.078,356.792,1.0
3.5833,128.181041,37.933297,7014.9549312,1.994,-1.094,356.793,1.0
3.6,128.181037,37.933342,7014.884522400001,2.068,-1.11,356.794,1.0
3.6166,128.181034,37.933388,7014.8125896,2.142,-1.126,356.795,1.0
3.6333,128.18103,37.933433,7014.7391328,2.217,-1.142,356.796,1.0
3.65,128.181026,37.933478,7014.6647616,2.291,-1.158,356.796,1.0
3.6666,128.181022,37.933523,7014.5888664,2.366,-1.175,356.797,1.0
3.6833,128.181019,37.933568,7014.511752000001,2.441,-1.191,356.798,1.0
3.7,128.181015,37.933614,7014.4331136,2.516,-1.207,356.799,1.0
3.7166,128.181011,37.933659,7014.353560800001,2.591,-1.223,356.8,1.0
3.7333,128.181007,37.933704,7014.272179200001,2.666,-1.24,356.801,1.0
3.75,128.181004,37.933749,7014.189883200001,2.742,-1.256,356.802,1.0
3.7666,128.181,37.933794,7014.1060632,2.817,-1.272,356.802,1.0
3.7833,128.180996,37.93384,7014.021024000001,2.893,-1.289,356.803,1.0
3.8,128.180992,37.933885,7013.934765600001,2.969,-1.305,356.804,1.0
3.8166,128.180989,37.93393,7013.846983200001,3.045,-1.321,356.805,1.0
3.8333,128.180985,37.933975,7013.757981600001,3.121,-1.338,356.806,1.0
3.85,128.180981,37.93402,7013.667760800001,3.197,-1.354,356.806,1.0
3.8666,128.180977,37.934066,7013.576016,3.273,-1.371,356.807,1.0
3.8833,128.180974,37.934111,7013.4830520000005,3.35,-1.387,356.808,1.0
3.9,128.18097,37.934156,7013.388868800001,3.426,-1.404,356.809,1.0
3.9166,128.180966,37.934201,7013.2931616,3.502,-1.42,356.809,1.0
3.9333,128.180962,37.934247,7013.1962352,3.579,-1.437,356.81,1.0
3.95,128.180959,37.934292,7013.0977848,3.655,-1.453,356.811,1.0
3.9666,128.180955,37.934337,7012.998420000001,3.732,-1.47,356.812,1.0
3.9833,128.180951,37.934383,7012.8975312,3.808,-1.487,356.812,1.0
4.0,128.180947,37.934428,7012.7951184,3.885,-1.504,356.813,1.0
4.0166,128.180944,37.934473,7012.691791200001,3.961,-1.52,356.814,1.0
4.0333,128.18094,37.934518,7012.5866352,4.038,-1.537,356.814,1.0
4.05,128.180936,37.934564,7012.480564800001,4.114,-1.554,356.815,1.0
4.0666,128.180933,37.934609,7012.372970400001,4.191,-1.571,356.816,1.0
4.0833,128.180929,37.934654,7012.264156800001,4.267,-1.588,356.817,1.0
4.1,128.180925,37.9347,7012.153819200001,4.343,-1.605,356.817,1.0
4.1166,128.180921,37.934745,7012.0422624,4.42,-1.622,356.818,1.0
4.1333,128.180918,37.93479,7011.9294864,4.496,-1.639,356.819,1.0
4.15,128.180914,37.934835,7011.8151864,4.573,-1.656,356.819,1.0
4.1666,128.18091,37.934881,7011.6996672000005,4.649,-1.673,356.82,1.0
4.1833,128.180907,37.934926,7011.5829288,4.726,-1.691,356.821,1.0
4.2,128.180903,37.934971,7011.4646664,4.802,-1.708,356.821,1.0
4.2166,128.180899,37.935017,7011.34488,4.879,-1.725,356.822,1.0
4.2333,128.180896,37.935062,7011.2241792,4.955,-1.743,356.823,1.0
4.25,128.180892,37.935107,7011.1016496,5.032,-1.76,356.823,1.0
4.2666,128.180888,37.935153,7010.9782056,5.109,-1.777,356.824,1.0
4.2833,128.180885,37.935198,7010.8532376,5.185,-1.795,356.824,1.0
4.3,128.180881,37.935244,7010.7267456,5.262,-1.812,356.825,1.0
4.3166,128.180877,37.935289,7010.5990344,5.339,-1.83,356.826,1.0
4.3333,128.180874,37.935334,7010.470104,5.416,-1.847,356.826,1.0
4.35,128.18087,37.93538,7010.3396496000005,5.493,-1.865,356.827,1.0
4.3666,128.180866,37.935425,7010.207976,5.57,-1.883,356.828,1.0
4.3833,128.180863,37.93547,7010.0747784000005,5.647,-1.9,356.828,1.0
4.4,128.180859,37.935516,7009.9403616,5.724,-1.918,356.829,1.0
4.4166,128.180855,37.935561,7009.8044208,5.801,-1.936,356.83,1.0
4.4333,128.180852,37.935607,7009.667260800001,5.879,-1.953,356.83,1.0
4.45,128.180848,37.935652,7009.5285768,5.956,-1.971,356.831,1.0
4.4666,128.180844,37.935697,7009.3886736,6.034,-1.989,356.831,1.0
4.4833,128.180841,37.935743,7009.2472464,6.111,-2.007,356.832,1.0
4.5,128.180837,37.935788,7009.104295200001,6.189,-2.024,356.833,1.0
4.5166,128.180833,37.935834,7008.960124800001,6.267,-2.042,356.833,1.0
4.5333,128.18083,37.935879,7008.8147352,6.345,-2.06,356.834,1.0
4.55,128.180826,37.935924,7008.6678216,6.423,-2.078,356.835,1.0
4.5666,128.180822,37.93597,7008.5196888,6.501,-2.096,356.835,1.0
4.5833,128.180819,37.936015,7008.3697272,6.579,-2.114,356.836,1.0
4.6,128.180815,37.936061,7008.2188512,6.657,-2.132,356.836,1.0
4.6166,128.180811,37.936106,7008.0664512,6.736,-2.15,356.837,1.0
4.6333,128.180808,37.936152,7007.9125272,6.814,-2.168,356.838,1.0
4.65,128.180804,37.936197,7007.757079200001,6.893,-2.186,356.838,1.0
4.6666,128.180801,37.936243,7007.600412,6.971,-2.204,356.839,1.0
4.6833,128.180797,37.936288,7007.4425255999995,7.05,-2.222,356.839,1.0
4.7,128.180793,37.936334,7007.283115200001,7.129,-2.24,356.84,1.0
4.7166,128.18079,37.936379,7007.1221808,7.208,-2.259,356.841,1.0
4.7333,128.180786,37.936425,7006.9597224,7.287,-2.277,356.841,1.0
4.75,128.180783,37.93647,7006.7960448,7.366,-2.295,356.842,1.0
4.7666,128.180779,37.936516,7006.6311479999995,7.444,-2.313,356.842,1.0
4.7833,128.180775,37.936561,7006.4644224,7.523,-2.331,356.843,1.0
4.8,128.180772,37.936607,7006.296477600001,7.603,-2.35,356.844,1.0
4.8166,128.180768,37.936652,7006.1270088,7.682,-2.368,356.844,1.0
4.8333,128.180765,37.936698,7005.9563208,7.761,-2.386,356.845,1.0
4.85,128.180761,37.936743,7005.7841088000005,7.84,-2.404,356.845,1.0
4.8666,128.180757,37.936789,7005.610372800001,7.919,-2.423,356.846,1.0
4.8833,128.180754,37.936834,7005.435417600001,7.998,-2.441,356.846,1.0
4.9,128.18075,37.93688,7005.258938400001,8.077,-2.459,356.847,1.0
4.9166,128.180747,37.936925,7005.0809352,8.157,-2.478,356.848,1.0
4.9333,128.180743,37.936971,7004.9017128000005,8.236,-2.496,356.848,1.0
4.95,128.180739,37.937016,7004.7209664,8.315,-2.514,356.849,1.0
4.9666,128.180736,37.937062,7004.5386960000005,8.394,-2.533,356.849,1.0
4.9833,128.180732,37.937108,7004.354901600001,8.473,-2.551,356.85,1.0
5.0,128.180729,37.937153,7004.169888,8.553,-2.569,356.85,1.0
5.0166,128.180725,37.937199,7003.983350400001,8.632,-2.588,356.851,1.0
5.0333,128.180722,37.937244,7003.7952888,8.711,-2.606,356.852,1.0
5.05,128.180718,37.93729,7003.6057032,8.79,-2.625,356.852,1.0
5.0666,128.180715,37.937335,7003.4148984,8.869,-2.643,356.853,1.0
5.0833,128.180711,37.937381,7003.2225696000005,8.948,-2.662,356.853,1.0
5.1,128.180707,37.937427,7003.0287168,9.027,-2.68,356.854,1.0
5.1166,128.180704,37.937472,7002.83334,9.107,-2.699,356.854,1.0
5.1333,128.1807,37.937518,7002.636744,9.186,-2.717,356.855,1.0
5.15,128.180697,37.937563,7002.4383192000005,9.265,-2.735,356.856,1.0
5.1666,128.180693,37.937609,7002.2386752,9.344,-2.754,356.856,1.0
5.1833,128.18069,37.937655,7002.0375072,9.423,-2.772,356.857,1.0
5.2,128.180686,37.9377,7001.835120000001,9.502,-2.791,356.857,1.0
5.2166,128.180683,37.937746,7001.630904000001,9.581,-2.81,356.858,1.0
5.2333,128.180679,37.937792,7001.4254688,9.66,-2.828,356.858,1.0
5.25,128.180676,37.937837,7001.2185096,9.739,-2.847,356.859,1.0
5.2666,128.180672,37.937883,7001.0100264,9.818,-2.865,356.86,1.0
5.2833,128.180669,37.937929,7000.800019200001,9.897,-2.884,356.86,1.0
5.3,128.180665,37.937974,7000.588488,9.976,-2.903,356.861,1.0
5.3166,128.180662,37.93802,7000.3754328,10.055,-2.921,356.861,1.0
5.3333,128.180658,37.938066,7000.1611584,10.134,-2.94,356.862,1.0
5.35,128.180655,37.938111,6999.945055200001,10.213,-2.958,356.862,1.0
5.3666,128.180651,37.938157,6999.727732800001,10.292,-2.977,356.863,1.0
5.3833,128.180648,37.938203,6999.5088864,10.37,-2.996,356.864,1.0
5.4,128.180644,37.938248,6999.288516,10.449,-3.014,356.864,1.0
5.4166,128.180641,37.938294,6999.0666216,10.528,-3.033,356.865,1.0
5.4333,128.180637,37.93834,6998.8432032,10.607,-3.052,356.865,1.0
5.45,128.180634,37.938386,6998.618260800001,10.686,-3.07,356.866,1.0
5.4666,128.18063,37.938431,6998.3917944,10.765,-3.089,356.867,1.0
5.4833,128.180627,37.938477,6998.164108800001,10.843,-3.107,356.867,1.0
5.5,128.180623,37.938523,6997.9345944,10.922,-3.126,356.868,1.0
5.5166,128.18062,37.938569,6997.703556,11.001,-3.145,356.868,1.0
5.5333,128.180616,37.938614,6997.4712984,11.08,-3.163,356.869,1.0
5.55,128.180613,37.93866,6997.237212,11.159,-3.182,356.87,1.0
5.5666,128.180609,37.938706,6997.001906400001,11.238,-3.201,356.87,1.0
5.5833,128.180606,37.938752,6996.764772,11.317,-3.219,356.871,1.0
5.6,128.180603,37.938797,6996.526418400001,11.396,-3.238,356.872,1.0
5.6166,128.180599,37.938843,6996.286540800001,11.475,-3.256,356.872,1.0
5.6333,128.180596,37.938889,6996.0448344,11.554,-3.275,356.873,1.0
5.65,128.180592,37.938935,6995.8019088,11.632,-3.294,356.874,1.0
5.6666,128.180589,37.93898,6995.5571544,11.711,-3.312,356.874,1.0
5.6833,128.180585,37.939026,6995.3111808,11.791,-3.331,356.875,1.0
5.7,128.180582,37.939072,6995.063378400001,11.87,-3.35,356.875,1.0
5.7166,128.180578,37.939118,6994.8143568000005,11.949,-3.368,356.876,1.0
5.7333,128.180575,37.939164,6994.563506400001,12.028,-3.387,356.877,1.0
5.75,128.180572,37.93921,6994.311436800001,12.107,-3.406,356.877,1.0
5.7666,128.180568,37.939255,6994.057538400001,12.186,-3.425,356.878,1.0
5.7833,128.180565,37.939301,6993.802116,12.265,-3.443,356.879,1.0
5.8,128.180561,37.939347,6993.545474400001,12.344,-3.462,356.879,1.0
5.8166,128.180558,37.939393,6993.287004,12.424,-3.481,356.88,1.0
5.8333,128.180555,37.939439,6993.0270096,12.503,-3.499,356.881,1.0
5.85,128.180551,37.939485,6992.765491200001,12.582,-3.518,356.881,1.0
5.8666,128.180548,37.93953,6992.5024488,12.661,-3.537,356.882,1.0
5.8833,128.180544,37.939576,6992.237882400001,12.741,-3.556,356.883,1.0
5.9,128.180541,37.939622,6991.9714872,12.82,-3.575,356.883,1.0
5.9166,128.180538,37.939668,6991.703872800001,12.9,-3.593,356.884,1.0
5.9333,128.180534,37.939714,6991.4347344,12.979,-3.612,356.885,1.0
5.95,128.180531,37.93976,6991.1637672,13.059,-3.631,356.885,1.0
5.9666,128.180528,37.939806,6990.891276,13.138,-3.65,356.886,1.0
5.9833,128.180524,37.939852,6990.617260800001,13.218,-3.668,356.887,1.0
6.0,128.180521,37.939897,6990.3417216,13.298,-3.687,356.887,1.0
6.0166,128.180517,37.939943,6990.064658400001,13.378,-3.706,356.888,1.0
6.0333,128.180514,37.939989,6989.7860712,13.457,-3.725,356.889,1.0
6.05,128.180511,37.940035,6989.505655200001,13.537,-3.744,356.89,1.0
6.0666,128.180507,37.940081,6989.224020000001,13.618,-3.762,356.89,1.0
6.0833,128.180504,37.940127,6988.9405560000005,13.698,-3.781,356.891,1.0
6.1,128.180501,37.940173,6988.655568,13.778,-3.8,356.892,1.0
6.1166,128.180497,37.940219,6988.3690560000005,13.858,-3.819,356.892,1.0
6.1333,128.180494,37.940265,6988.080715200001,13.939,-3.838,356.893,1.0
6.15,128.180491,37.940311,6987.7911552000005,14.019,-3.856,356.894,1.0
6.1666,128.180487,37.940357,6987.4997664,14.1,-3.875,356.895,1.0
6.1833,128.180484,37.940403,6987.2068536,14.181,-3.894,356.895,1.0
6.2,128.180481,37.940449,6986.9124168,14.262,-3.913,356.896,1.0
6.2166,128.180477,37.940495,6986.616151200001,14.343,-3.931,356.897,1.0
6.2333,128.180474,37.940541,6986.3186663999995,14.424,-3.95,356.898,1.0
6.25,128.180471,37.940587,6986.0193528,14.505,-3.969,356.898,1.0
6.2666,128.180467,37.940633,6985.718515200001,14.587,-3.988,356.899,1.0
6.2833,128.180464,37.940679,6985.4158488,14.668,-4.006,356.9,1.0
6.3,128.180461,37.940725,6985.1119632,14.75,-4.025,356.901,1.0
6.3166,128.180458,37.940771,6984.8062488000005,14.832,-4.044,356.902,1.0
6.3333,128.180454,37.940817,6984.498705600001,14.914,-4.062,356.902,1.0
6.35,128.180451,37.940863,6984.1899432,14.996,-4.081,356.903,1.0
6.3666,128.180448,37.940909,6983.879352000001,15.079,-4.1,356.904,1.0
6.3833,128.180444,37.940955,6983.5672368000005,15.161,-4.119,356.905,1.0
6.4,128.180441,37.941001,6983.2545119999995,15.229,-4.135,356.905,1.0
6.4166,128.180438,37.941047,6982.940568,15.281,-4.151,356.905,1.0
6.4333,128.180435,37.941093,6982.6251,15.321,-4.165,356.905,1.0
6.45,128.180431,37.941139,6982.3087176,15.348,-4.178,356.906,1.0
6.4666,128.180428,37.941185,6981.990811200001,15.366,-4.191,356.906,1.0
6.4833,128.180425,37.941231,6981.6713808,15.375,-4.204,356.907,1.0
6.5,128.180422,37.941277,6981.3507312,15.378,-4.217,356.909,1.0
6.5166,128.180418,37.941323,6981.0288624,15.375,-4.23,356.91,1.0
6.5333,128.180415,37.941369,6980.7054696000005,15.367,-4.243,356.912,1.0
6.55,128.180412,37.941415,6980.3805528,15.356,-4.256,356.914,1.0
6.5666,128.180409,37.941461,6980.054112,15.343,-4.269,356.917,1.0
6.5833,128.180405,37.941507,6979.726452000001,15.327,-4.283,356.919,1.0
6.6,128.180402,37.941553,6979.397268000001,15.309,-4.296,356.922,1.0
6.6166,128.180399,37.941599,6979.06656,15.29,-4.31,356.924,1.0
6.6333,128.180396,37.941646,6978.7346328,15.271,-4.323,356.927,1.0
6.65,128.180393,37.941692,6978.4011816,15.25,-4.337,356.93,1.0
6.6666,128.180389,37.941738,6978.066206400001,15.229,-4.35,356.932,1.0
6.6833,128.180386,37.941784,6977.7297072,15.208,-4.364,356.935,1.0
6.7,128.180383,37.94183,6977.3919888,15.187,-4.378,356.938,1.0
6.7166,128.18038,37.941876,6977.052441600001,15.165,-4.392,356.941,1.0
6.7333,128.180377,37.941922,6976.7116752,15.143,-4.406,356.944,1.0
6.75,128.180373,37.941968,6976.3696896,15.122,-4.42,356.947,1.0
6.7666,128.18037,37.942014,6976.0258752,15.1,-4.435,356.95,1.0
6.7833,128.180367,37.942061,6975.6808416,15.079,-4.449,356.953,1.0
6.8,128.180364,37.942107,6975.3342840000005,15.057,-4.463,356.956,1.0
6.8166,128.180361,37.942153,6974.9865072,15.036,-4.477,356.959,1.0
6.8333,128.180358,37.942199,6974.636901600001,15.015,-4.492,356.962,1.0
6.85,128.180354,37.942245,6974.2860768,14.994,-4.506,356.966,1.0
6.8666,128.180351,37.942291,6973.934032800001,14.973,-4.521,356.969,1.0
6.8833,128.180348,37.942338,6973.58016,14.952,-4.535,356.972,1.0
6.9,128.180345,37.942384,6973.225068000001,14.932,-4.55,356.975,1.0
6.9166,128.180342,37.94243,6972.868452000001,14.912,-4.565,356.978,1.0
6.9333,128.180339,37.942476,6972.5106168,14.892,-4.579,356.981,1.0
6.95,128.180336,37.942522,6972.1512576,14.872,-4.594,356.985,1.0
6.9666,128.180333,37.942569,6971.7903744000005,14.852,-4.608,356.988,1.0
6.9833,128.180329,37.942615,6971.428272,14.832,-4.623,356.991,1.0
7.0,128.180326,37.942661,6971.0646456,14.813,-4.638,356.995,1.0
7.0166,128.180323,37.942707,6970.6994952000005,14.794,-4.653,356.998,1.0
7.0333,128.18032,37.942753,6970.3328208,14.775,-4.667,357.001,1.0
7.05,128.180317,37.9428,6969.964927200001,14.756,-4.682,357.005,1.0
7.0666,128.180314,37.942846,6969.595814400001,14.737,-4.697,357.008,1.0
7.0833,128.180311,37.942892,6969.2248728,14.719,-4.712,357.011,1.0
7.1,128.180308,37.942938,6968.852712,14.7,-4.726,357.015,1.0
7.1166,128.180305,37.942985,6968.479332000001,14.682,-4.741,357.018,1.0
7.1333,128.180302,37.943031,6968.104123200001,14.664,-4.756,357.022,1.0
7.15,128.180298,37.943077,6967.7276952,14.646,-4.771,357.025,1.0
7.1666,128.180295,37.943123,6967.350048,14.629,-4.786,357.028,1.0
7.1833,128.180292,37.94317,6966.9708768,14.611,-4.8,357.032,1.0
7.2,128.180289,37.943216,6966.5901816000005,14.594,-4.815,357.035,1.0
7.2166,128.180286,37.943262,6966.2082672,14.576,-4.83,357.039,1.0
7.2333,128.180283,37.943308,6965.8248288,14.559,-4.845,357.043,1.0
7.25,128.18028,37.943355,6965.4398664,14.542,-4.859,357.046,1.0
7.2666,128.180277,37.943401,6965.0536848,14.525,-4.874,357.05,1.0
7.2833,128.180274,37.943447,6964.665979200001,14.508,-4.889,357.053,1.0
7.3,128.180271,37.943494,6964.276749600001,14.492,-4.904,357.057,1.0
7.3166,128.180268,37.94354,6963.886300800001,14.475,-4.918,357.061,1.0
7.3333,128.180265,37.943586,6963.4946328000005,14.459,-4.933,357.064,1.0
7.35,128.180262,37.943632,6963.1014408,14.443,-4.948,357.068,1.0
7.3666,128.180259,37.943679,6962.706724800001,14.427,-4.963,357.072,1.0
7.3833,128.180256,37.943725,6962.3104848,14.412,-4.977,357.075,1.0
7.4,128.180253,37.943771,6961.9130256,14.396,-4.992,357.079,1.0
7.4166,128.18025,37.943818,6961.514347200001,14.381,-5.007,357.083,1.0
7.4333,128.180247,37.943864,6961.11384,14.365,-5.021,357.086,1.0
7.45,128.180244,37.94391,6960.7124184,14.35,-5.036,357.09,1.0
7.4666,128.180241,37.943957,6960.309168000001,14.335,-5.051,357.094,1.0
7.4833,128.180238,37.944003,6959.9046984,14.32,-5.065,357.098,1.0
7.5,128.180235,37.94405,6959.4990096,14.306,-5.08,357.101,1.0
7.5166,128.180232,37.944096,6959.0917968,14.291,-5.095,357.105,1.0
7.5333,128.180229,37.944142,6958.68306,14.276,-5.109,357.109,1.0
7.55,128.180226,37.944189,6958.273104,14.262,-5.124,357.113,1.0
7.5666,128.180223,37.944235,6957.861624000001,14.247,-5.138,357.117,1.0
7.5833,128.18022,37.944281,6957.448924800001,14.233,-5.153,357.12,1.0
7.6,128.180217,37.944328,6957.0347016000005,14.219,-5.168,357.124,1.0
7.6166,128.180214,37.944374,6956.6189544,14.206,-5.182,357.128,1.0
7.6333,128.180211,37.944421,6956.201988000001,14.192,-5.197,357.132,1.0
7.65,128.180208,37.944467,6955.783497600001,14.178,-5.212,357.136,1.0
7.6666,128.180205,37.944513,6955.363788000001,14.165,-5.226,357.14,1.0
7.6833,128.180202,37.94456,6954.9425544000005,14.152,-5.241,357.143,1.0
7.7,128.180199,37.944606,6954.520101600001,14.14,-5.256,357.147,1.0
7.7166,128.180196,37.944653,6954.096124800001,14.127,-5.271,357.151,1.0
7.7333,128.180193,37.944699,6953.670928800001,14.116,-5.285,357.155,1.0
7.75,128.18019,37.944746,6953.244208800001,14.104,-5.3,357.159,1.0
7.7666,128.180187,37.944792,6952.815964800001,14.093,-5.315,357.163,1.0
7.7833,128.180185,37.944838,6952.386501600001,14.083,-5.329,357.167,1.0
7.8,128.180182,37.944885,6951.9555144000005,14.073,-5.344,357.171,1.0
7.8166,128.180179,37.944931,6951.5230032,14.063,-5.359,357.175,1.0
7.8333,128.180176,37.944978,6951.089577600001,14.054,-5.373,357.179,1.0
7.85,128.180173,37.945024,6950.6543232,14.045,-5.387,357.183,1.0
7.8666,128.18017,37.945071,6950.217849600001,14.036,-5.401,357.187,1.0
7.8833,128.180167,37.945117,6949.780156800001,14.027,-5.415,357.191,1.0
7.9,128.180164,37.945164,6949.34094,14.018,-5.429,357.195,1.0
7.9166,128.180161,37.94521,6948.9001992,14.01,-5.443,357.199,1.0
7.9333,128.180158,37.945257,6948.4582392,14.003,-5.457,357.203,1.0
7.95,128.180156,37.945303,6948.014755200001,13.997,-5.471,357.207,1.0
7.9666,128.180153,37.94535,6947.570052000001,13.991,-5.486,357.211,1.0
7.9833,128.18015,37.945396,6947.123824800001,13.986,-5.5,357.216,1.0
8.0,128.180147,37.945443,6946.676073600001,13.982,-5.515,357.22,1.0
8.0166,128.180144,37.945489,6946.2271032,13.979,-5.529,357.224,1.0
8.0333,128.180141,37.945536,6945.7766088,13.977,-5.544,357.228,1.0
8.05,128.180138,37.945582,6945.3248952,13.975,-5.559,357.232,1.0
8.0666,128.180135,37.945629,6944.8716576,13.975,-5.575,357.235,1.0
8.0833,128.180133,37.945675,6944.416896000001,13.975,-5.59,357.239,1.0
8.1,128.18013,37.945722,6943.960915200001,13.976,-5.606,357.243,1.0
8.1166,128.180127,37.945768,6943.5037152,13.978,-5.621,357.247,1.0
8.1333,128.180124,37.945815,6943.0446864000005,13.981,-5.637,357.251,1.0
8.15,128.180121,37.945862,6942.584438400001,13.985,-5.653,357.254,1.0
8.1666,128.180118,37.945908,6942.1226664,13.989,-5.669,357.258,1.0
8.1833,128.180116,37.945955,6941.6596752,13.995,-5.686,357.262,1.0
8.2,128.180113,37.946001,6941.19516,14.002,-5.702,357.265,1.0
8.2166,128.18011,37.946048,6940.7291208,14.009,-5.719,357.269,1.0
8.2333,128.180107,37.946094,6940.2618624,14.019,-5.736,357.272,1.0
8.25,128.180104,37.946141,6939.7930799999995,14.029,-5.753,357.276,1.0
8.2666,128.180102,37.946188,6939.322468800001,14.041,-5.771,357.279,1.0
8.2833,128.180099,37.946234,6938.8509432,14.054,-5.789,357.283,1.0
8.3,128.180096,37.946281,6938.3775888,14.069,-5.807,357.286,1.0
8.3166,128.180093,37.946327,6937.902710400001,14.085,-5.826,357.289,1.0
8.3333,128.18009,37.946374,6937.4266128,14.103,-5.845,357.292,1.0
8.35,128.180088,37.946421,6936.948991200001,14.123,-5.864,357.295,1.0
8.3666,128.180085,37.946467,6936.469540800001,14.145,-5.884,357.298,1.0
8.3833,128.180082,37.946514,6935.9888712,14.169,-5.904,357.301,1.0
8.4,128.180079,37.94656,6935.5066776,14.195,-5.925,357.304,1.0
8.4166,128.180076,37.946607,6935.0226552,14.224,-5.945,357.307,1.0
8.4333,128.180074,37.946654,6934.5371088,14.256,-5.966,357.31,1.0
8.45,128.180071,37.9467,6934.050038400001,14.292,-5.987,357.312,1.0
8.4666,128.180068,37.946747,6933.561444,14.33,-6.008,357.315,1.0
8.4833,128.180065,37.946794,6933.0713256,14.372,-6.029,357.318,1.0
8.5,128.180063,37.94684,6932.579378400001,14.417,-6.05,357.321,1.0
8.5166,128.18006,37.946887,6932.0856023999995,14.467,-6.072,357.324,1.0
8.5333,128.180057,37.946934,6931.5906072,14.52,-6.093,357.326,1.0
8.55,128.180054,37.94698,6931.093783200001,14.576,-6.115,357.329,1.0
8.5666,128.180052,37.947027,6930.5951304,14.637,-6.137,357.332,1.0
8.5833,128.180049,37.947074,6930.0949536,14.701,-6.158,357.334,1.0
8.6,128.180046,37.94712,6929.5929479999995,14.768,-6.18,357.337,1.0
8.6166,128.180043,37.947167,6929.089418400001,14.839,-6.201,357.34,1.0
8.6333,128.180041,37.947214,6928.584364800001,14.913,-6.222,357.342,1.0
8.65,128.180038,37.947261,6928.0771776,14.991,-6.244,357.345,1.0
8.6666,128.180035,37.947307,6927.5687712,15.072,-6.265,357.348,1.0
8.6833,128.180032,37.947354,6927.058231200001,15.155,-6.286,357.35,1.0
8.7,128.18003,37.947401,6926.5461672,15.242,-6.307,357.353,1.0
8.7166,128.180027,37.947447,6926.0322744000005,15.331,-6.328,357.355,1.0
8.7333,128.180024,37.947494,6925.5168576,15.424,-6.349,357.358,1.0
8.75,128.180022,37.947541,6924.999612,15.519,-6.37,357.36,1.0
8.7666,128.180019,37.947588,6924.480842400001,15.616,-6.39,357.363,1.0
8.7833,128.180016,37.947634,6923.9599392,15.716,-6.411,357.365,1.0
8.8,128.180013,37.947681,6923.4375119999995,15.818,-6.431,357.368,1.0
8.8166,128.180011,37.947728,6922.913560800001,15.922,-6.452,357.37,1.0
8.8333,128.180008,37.947775,6922.387476,16.028,-6.472,357.373,1.0
8.85,128.180005,37.947821,6921.860172000001,16.135,-6.492,357.375,1.0
8.8666,128.180003,37.947868,6921.3307343999995,16.244,-6.512,357.377,1.0
8.8833,128.18,37.947915,6920.7997728,16.355,-6.532,357.379,1.0
8.9,128.179997,37.947962,6920.266677600001,16.467,-6.552,357.382,1.0
8.9166,128.179995,37.948008,6919.732363200001,16.58,-6.572,357.384,1.0
8.9333,128.179992,37.948055,6919.195915200001,16.694,-6.592,357.386,1.0
8.95,128.179989,37.948102,6918.6579432,16.81,-6.612,357.388,1.0
8.9666,128.179987,37.948149,6918.118142400001,16.927,-6.632,357.39,1.0
8.9833,128.179984,37.948196,6917.5765128,17.044,-6.652,357.392,1.0
9.0,128.179981,37.948242,6917.033359200001,17.163,-6.672,357.394,1.0
9.0166,128.179979,37.948289,6916.4883768,17.283,-6.692,357.396,1.0
9.0333,128.179976,37.948336,6915.941565600001,17.404,-6.711,357.398,1.0
9.05,128.179973,37.948383,6915.3929256,17.525,-6.731,357.4,1.0
9.0666,128.179971,37.94843,6914.842456800001,17.647,-6.751,357.401,1.0
9.0833,128.179968,37.948477,6914.290464000001,17.77,-6.771,357.403,1.0
9.1,128.179965,37.948523,6913.736642400001,17.894,-6.79,357.405,1.0
9.1166,128.179963,37.94857,6913.1809920000005,18.019,-6.81,357.407,1.0
9.1333,128.17996,37.948617,6912.6235128,18.144,-6.83,357.408,1.0
9.15,128.179958,37.948664,6912.0642048,18.27,-6.849,357.41,1.0
9.1666,128.179955,37.948711,6911.503372800001,18.396,-6.869,357.412,1.0
9.1833,128.179952,37.948758,6910.940712,18.523,-6.888,357.413,1.0
9.2,128.17995,37.948805,6910.3762224,18.651,-6.908,357.415,1.0
9.2166,128.179947,37.948851,6909.809904000001,18.779,-6.927,357.416,1.0
9.2333,128.179945,37.948898,6909.241756800001,18.907,-6.946,357.418,1.0
9.25,128.179942,37.948945,6908.6720856,19.037,-6.966,357.419,1.0
9.2666,128.179939,37.948992,6908.1002808,19.166,-6.985,357.421,1.0
9.2833,128.179937,37.949039,6907.526952000001,19.296,-7.004,357.423,1.0
9.3,128.179934,37.949086,6906.9517944,19.427,-7.023,357.424,1.0
9.3166,128.179932,37.949133,6906.3748080000005,19.558,-7.043,357.425,1.0
9.3333,128.179929,37.94918,6905.795992800001,19.689,-7.062,357.427,1.0
9.35,128.179926,37.949227,6905.2153488,19.821,-7.081,357.428,1.0
9.3666,128.179924,37.949273,6904.632876,19.953,-7.1,357.43,1.0
9.3833,128.179921,37.94932,6904.048879200001,20.085,-7.119,357.431,1.0
9.4,128.179919,37.949367,6903.4627488,20.218,-7.138,357.433,1.0
9.4166,128.179916,37.949414,6902.8750944,20.352,-7.157,357.434,1.0
9.4333,128.179914,37.949461,6902.285611200001,20.486,-7.176,357.435,1.0
9.45,128.179911,37.949508,6901.6939944000005,20.62,-7.195,357.437,1.0
9.4666,128.179908,37.949555,6901.1008536,20.754,-7.213,357.438,1.0
9.4833,128.179906,37.949602,6900.505884000001,20.889,-7.232,357.439,1.0
9.5,128.179903,37.949649,6899.9090856,21.025,-7.251,357.44,1.0
9.5166,128.179901,37.949696,6899.3104584,21.161,-7.27,357.441,1.0
9.5333,128.179898,37.949743,6898.7100024,21.297,-7.289,357.443,1.0
9.55,128.179896,37.94979,6898.108022400001,21.433,-7.308,357.444,1.0
9.5666,128.179893,37.949837,6897.5039088,21.57,-7.327,357.445,1.0
9.5833,128.179891,37.949884,6896.8979664,21.707,-7.346,357.446,1.0
9.6,128.179888,37.949931,6896.2905,21.845,-7.365,357.447,1.0
9.6166,128.179886,37.949978,6895.6809,21.983,-7.384,357.448,1.0
9.6333,128.179883,37.950025,6895.0694712,22.121,-7.403,357.449,1.0
9.65,128.179881,37.950072,6894.4565184,22.26,-7.421,357.45,1.0
9.6666,128.179878,37.950119,6893.841432,22.399,-7.44,357.451,1.0
9.6833,128.179876,37.950166,6893.2248216,22.538,-7.459,357.452,1.0
9.7,128.179873,37.950213,6892.6060776,22.678,-7.478,357.453,1.0
9.7166,128.179871,37.95026,6891.985809600001,22.818,-7.497,357.454,1.0
9.7333,128.179868,37.950307,6891.3637128,22.959,-7.516,357.455,1.0
9.75,128.179866,37.950354,6890.7394824,23.1,-7.534,357.456,1.0
9.7666,128.179863,37.950401,6890.113728,23.241,-7.553,357.457,1.0
9.7833,128.179861,37.950448,6889.48584,23.382,-7.572,357.458,1.0
9.8,128.179858,37.950495,6888.856428000001,23.524,-7.591,357.459,1.0
9.8166,128.179856,37.950542,6888.224882400001,23.666,-7.61,357.46,1.0
9.8333,128.179853,37.950589,6887.5918128,23.809,-7.628,357.461,1.0
9.85,128.179851,37.950636,6886.956609600001,23.952,-7.647,357.462,1.0
9.8666,128.179849,37.950683,6886.3198824,24.095,-7.666,357.462,1.0
9.8833,128.179846,37.95073,6885.6810216,24.238,-7.684,357.463,1.0
9.9,128.179844,37.950777,6885.0403320000005,24.382,-7.703,357.464,1.0
9.9166,128.179841,37.950824,6884.3981184,24.527,-7.722,357.465,1.0
9.9333,128.179839,37.950872,6883.7537712,24.671,-7.741,357.466,1.0
9.95,128.179836,37.950919,6883.1075952,24.816,-7.759,357.466,1.0
9.9666,128.179834,37.950966,6882.4595904,24.961,-7.778,357.467,1.0
9.9833,128.179832,37.951013,6881.809756800001,25.107,-7.797,357.468,1.0
10.0,128.179829,37.95106,6881.1580944,25.253,-7.815,357.469,1.0
10.0166,128.179827,37.951107,6880.5046032,25.399,-7.834,357.469,1.0
10.0333,128.179824,37.951154,6879.849283200001,25.546,-7.852,357.47,1.0
10.05,128.179822,37.951201,6879.1921344,25.693,-7.871,357.471,1.0
10.0666,128.17982,37.951248,6878.533156800001,25.84,-7.89,357.472,1.0
10.0833,128.179817,37.951295,6877.8720456,25.987,-7.908,357.472,1.0
10.1,128.179815,37.951343,6877.209410400001,26.135,-7.927,357.473,1.0
10.1166,128.179812,37.95139,6876.5446416,26.284,-7.945,357.474,1.0
10.1333,128.17981,37.951437,6875.878044,26.432,-7.964,357.474,1.0
10.15,128.179808,37.951484,6875.2099224,26.581,-7.982,357.475,1.0
10.1666,128.179805,37.951531,6874.5396672,26.73,-8.001,357.476,1.0
10.1833,128.179803,37.951578,6873.867583200001,26.88,-8.019,357.476,1.0
10.2,128.179801,37.951625,6873.193365600001,27.03,-8.038,357.477,1.0
10.2166,128.179798,37.951673,6872.517624000001,27.18,-8.056,357.478,1.0
10.2333,128.179796,37.95172,6871.8400536,27.331,-8.075,357.478,1.0
10.25,128.179794,37.951767,6871.160349600001,27.482,-8.093,357.479,1.0
10.2666,128.179791,37.951814,6870.4788168000005,27.633,-8.112,357.479,1.0
10.2833,128.179789,37.951861,6869.7954552,27.784,-8.13,357.48,1.0
10.3,128.179787,37.951908,6869.110264800001,27.936,-8.148,357.481,1.0
10.3166,128.179784,37.951956,6868.4232456,28.089,-8.167,357.481,1.0
10.3333,128.179782,37.952003,6867.734397600001,28.241,-8.185,357.482,1.0
10.35,128.17978,37.95205,6867.0434159999995,28.394,-8.204,357.483,1.0
10.3666,128.179777,37.952097,6866.350605600001,28.547,-8.222,357.483,1.0
10.3833,128.179775,37.952144,6865.6562711999995,28.701,-8.24,357.484,1.0
10.4,128.179773,37.952192,6864.9598032,28.855,-8.258,357.484,1.0
10.4166,128.179771,37.952239,6864.261201600001,29.009,-8.277,357.485,1.0
10.4333,128.179768,37.952286,6863.561076,29.163,-8.295,357.486,1.0
10.45,128.179766,37.952333,6862.8588168,29.318,-8.313,357.486,1.0
10.4666,128.179764,37.952381,6862.154728800001,29.474,-8.332,357.487,1.0
10.4833,128.179762,37.952428,6861.448812,29.629,-8.35,357.487,1.0
10.5,128.179759,37.952475,6860.7410664,29.785,-8.368,357.488,1.0
10.5166,128.179757,37.952522,6860.031492000001,29.941,-8.386,357.489,1.0
10.5333,128.179755,37.95257,6859.319784000001,30.098,-8.404,357.489,1.0
10.55,128.179753,37.952617,6858.6062472,30.255,-8.422,357.49,1.0
10.5666,128.17975,37.952664,6857.8908816,30.412,-8.441,357.49,1.0
10.5833,128.179748,37.952711,6857.1736872,30.569,-8.459,357.491,1.0
10.6,128.179746,37.952759,6856.4543592,30.727,-8.477,357.491,1.0
10.6166,128.179744,37.952806,6855.7332024,30.885,-8.495,357.492,1.0
10.6333,128.179741,37.952853,6855.0102168,31.044,-8.513,357.493,1.0
10.65,128.179739,37.9529,6854.2854024,31.203,-8.531,357.493,1.0
10.6666,128.179737,37.952948,6853.5584544,31.362,-8.549,357.494,1.0
10.6833,128.179735,37.952995,6852.829677600001,31.521,-8.567,357.494,1.0
10.7,128.179733,37.953042,6852.099072,31.681,-8.585,357.495,1.0
10.7166,128.17973,37.95309,6851.366637600001,31.841,-8.603,357.496,1.0
10.7333,128.179728,37.953137,6850.6320696,32.002,-8.621,357.496,1.0
10.75,128.179726,37.953184,6849.8956728,32.163,-8.639,357.497,1.0
10.7666,128.179724,37.953231,6849.157447200001,32.324,-8.657,357.498,1.0
10.7833,128.179722,37.953279,6848.417088000001,32.485,-8.675,357.498,1.0
10.8,128.179719,37.953326,6847.6749,32.647,-8.693,357.499,1.0
10.8166,128.179717,37.953373,6846.930883200001,32.809,-8.711,357.499,1.0
10.8333,128.179715,37.953421,6846.1850376,32.972,-8.729,357.5,1.0
10.85,128.179713,37.953468,6845.4370584,33.134,-8.747,357.501,1.0
10.8666,128.179711,37.953515,6844.6872504,33.298,-8.765,357.501,1.0
10.8833,128.179709,37.953563,6843.935613600001,33.461,-8.783,357.502,1.0
10.9,128.179707,37.95361,6843.1818432,33.625,-8.8,357.503,1.0
10.9166,128.179705,37.953657,6842.426244,33.789,-8.818,357.503,1.0
10.9333,128.179702,37.953705,6841.668815999999,33.954,-8.836,357.504,1.0
10.95,128.1797,37.953752,6840.9092544000005,34.118,-8.854,357.505,1.0
10.9666,128.179698,37.9538,6840.1478640000005,34.284,-8.872,357.505,1.0
10.9833,128.179696,37.953847,6839.3843400000005,34.449,-8.889,357.506,1.0
11.0,128.179694,37.953894,6838.619292,34.615,-8.907,357.507,1.0
11.0166,128.179692,37.953942,6837.8518056,34.781,-8.925,357.507,1.0
11.0333,128.17969,37.953989,6837.0827952,34.948,-8.943,357.508,1.0
11.05,128.179688,37.954036,6836.311651200001,35.115,-8.96,357.509,1.0
11.0666,128.179686,37.954084,6835.5386784,35.282,-8.978,357.509,1.0
11.0833,128.179684,37.954131,6834.763572,35.449,-8.996,357.51,1.0
11.1,128.179682,37.954179,6833.9866368,35.617,-9.014,357.511,1.0
11.1166,128.179679,37.954226,6833.207872800001,35.785,-9.031,357.511,1.0
11.1333,128.179677,37.954273,6832.4269752,35.954,-9.049,357.512,1.0
11.15,128.179675,37.954321,6831.6442488,36.123,-9.067,357.513,1.0
11.1666,128.179673,37.954368,6830.8593888,36.292,-9.084,357.514,1.0
11.1833,128.179671,37.954416,6830.072700000001,36.462,-9.102,357.514,1.0
11.2,128.179669,37.954463,6829.284182400001,36.632,-9.119,357.515,1.0
11.2166,128.179667,37.954511,6828.4935312,36.802,-9.137,357.516,1.0
11.2333,128.179665,37.954558,6827.701051200001,36.973,-9.155,357.517,1.0
11.25,128.179663,37.954605,6826.906437600001,37.144,-9.172,357.517,1.0
11.2666,128.179661,37.954653,6826.1099952,37.315,-9.19,357.518,1.0
11.2833,128.179659,37.9547,6825.3114192,37.487,-9.207,357.519,1.0
11.3,128.179657,37.954748,6824.511014400001,37.659,-9.225,357.52,1.0
11.3166,128.179655,37.954795,6823.708476,37.832,-9.242,357.521,1.0
11.3333,128.179653,37.954843,6822.9041088,38.004,-9.26,357.522,1.0
11.35,128.179651,37.95489,6822.0979128,38.178,-9.277,357.522,1.0
11.3666,128.179649,37.954938,6821.2895832,38.351,-9.295,357.523,1.0
11.3833,128.179647,37.954985,6820.479424800001,38.525,-9.312,357.524,1.0
11.4,128.179645,37.955033,6819.6671328,38.699,-9.329,357.525,1.0
11.4166,128.179643,37.95508,6818.8527072,38.874,-9.347,357.526,1.0
11.4333,128.179642,37.955128,6818.0364528,39.048,-9.364,357.527,1.0
11.45,128.17964,37.955175,6817.218369600001,39.224,-9.382,357.528,1.0
11.4666,128.179638,37.955223,6816.3981527999995,39.399,-9.399,357.529,1.0
11.4833,128.179636,37.95527,6815.5761072,39.575,-9.416,357.53,1.0
11.5,128.179634,37.955318,6814.751928000001,39.752,-9.434,357.53,1.0
11.5166,128.179632,37.955365,6813.925615200001,39.928,-9.451,357.531,1.0
11.5333,128.17963,37.955413,6813.097473600001,40.105,-9.468,357.532,1.0
11.55,128.179628,37.95546,6812.2675032,40.283,-9.486,357.533,1.0
11.5666,128.179626,37.955508,6811.435399200001,40.46,-9.503,357.534,1.0
11.5833,128.179624,37.955555,6810.6011616,40.639,-9.52,357.535,1.0
11.6,128.179622,37.955603,6809.7650952,40.817,-9.538,357.536,1.0
11.6166,128.179621,37.95565,6808.9268952,40.996,-9.555,357.537,1.0
11.6333,128.179619,37.955698,6808.0868664,41.175,-9.572,357.538,1.0
11.65,128.179617,37.955745,6807.244704000001,41.355,-9.589,357.54,1.0
11.6666,128.179615,37.955793,6806.400408,41.535,-9.607,357.541,1.0
11.6833,128.179613,37.95584,6805.554283200001,41.715,-9.624,357.542,1.0
11.7,128.179611,37.955888,6804.7063296,41.896,-9.641,357.543,1.0
11.7166,128.179609,37.955935,6803.8559376,42.077,-9.658,357.544,1.0
11.7333,128.179608,37.955983,6803.0040216,42.258,-9.675,357.545,1.0
11.75,128.179606,37.956031,6802.1496672,42.44,-9.692,357.546,1.0
11.7666,128.179604,37.956078,6801.293484000001,42.622,-9.71,357.547,1.0
11.7833,128.179602,37.956126,6800.4351672,42.805,-9.727,357.548,1.0
11.8,128.1796,37.956173,6799.5750216,42.988,-9.744,357.55,1.0
11.8166,128.179598,37.956221,6798.712742400001,43.171,-9.761,357.551,1.0
11.8333,128.179597,37.956268,6797.8483295999995,43.355,-9.778,357.552,1.0
11.85,128.179595,37.956316,6796.982088000001,43.539,-9.795,357.553,1.0
11.8666,128.179593,37.956364,6796.1137128,43.723,-9.812,357.555,1.0
11.8833,128.179591,37.956411,6795.2435088,43.908,-9.829,357.556,1.0
11.9,128.17959,37.956459,6794.3711712,44.093,-9.846,357.557,1.0
11.9166,128.179588,37.956506,6793.496395200001,44.28,-9.863,357.559,1.0
11.9333,128.179586,37.956554,6792.6200952,44.467,-9.88,357.56,1.0
11.95,128.179584,37.956602,6791.741356800001,44.656,-9.897,357.562,1.0
11.9666,128.179583,37.956649,6790.8607896,44.846,-9.913,357.564,1.0
11.9833,128.179581,37.956697,6789.9780888,45.037,-9.93,357.566,1.0
12.0,128.179579,37.956745,6789.0935592000005,45.228,-9.947,357.567,1.0
12.0166,128.179577,37.956792,6788.206591200001,45.42,-9.963,357.569,1.0
12.0333,128.179576,37.95684,6787.3177944,45.613,-9.98,357.571,1.0
12.05,128.179574,37.956887,6786.427168800001,45.807,-9.996,357.573,1.0
12.0666,128.179572,37.956935,6785.5341048,46.001,-10.013,357.575,1.0
12.0833,128.17957,37.956983,6784.639212,46.195,-10.029,357.576,1.0
12.1,128.179569,37.95703,6783.7421856,46.391,-10.046,357.578,1.0
12.1166,128.179567,37.957078,6782.8430256,46.586,-10.063,357.58,1.0
12.1333,128.179565,37.957126,6781.9420368,46.782,-10.079,357.582,1.0
12.15,128.179564,37.957173,6781.0386096,46.978,-10.096,357.584,1.0
12.1666,128.179562,37.957221,6780.1336584,47.175,-10.112,357.585,1.0
12.1833,128.17956,37.957269,6779.2262688,47.372,-10.129,357.587,1.0
12.2,128.179559,37.957316,6778.3167456,47.569,-10.145,357.589,1.0
12.2166,128.179557,37.957364,6777.4053936,47.767,-10.162,357.591,1.0
12.2333,128.179555,37.957412,6776.491908,47.965,-10.179,357.593,1.0
12.25,128.179554,37.957459,6775.5762888,48.164,-10.195,357.595,1.0
12.2666,128.179552,37.957507,6774.658840800001,48.363,-10.212,357.596,1.0
12.2833,128.179551,37.957555,6773.738954400001,48.562,-10.228,357.598,1.0
12.3,128.179549,37.957602,6772.8172392,48.761,-10.245,357.6,1.0
12.3166,128.179547,37.95765,6771.8933904000005,48.961,-10.261,357.602,1.0
12.3333,128.179546,37.957698,6770.967408,49.162,-10.278,357.604,1.0
12.35,128.179544,37.957746,6770.039292,49.362,-10.294,357.606,1.0
12.3666,128.179542,37.957793,6769.109347200001,49.563,-10.311,357.608,1.0
12.3833,128.179541,37.957841,6768.1772688,49.765,-10.327,357.61,1.0
12.4,128.179539,37.957889,6767.242752000001,49.966,-10.344,357.612,1.0
12.4166,128.179538,37.957936,6766.306406400001,50.169,-10.36,357.614,1.0
12.4333,128.179536,37.957984,6765.368232000001,50.371,-10.377,357.616,1.0
12.45,128.179535,37.958032,6764.427619200001,50.574,-10.393,357.618,1.0
12.4666,128.179533,37.95808,6763.484872800001,50.777,-10.41,357.62,1.0
12.4833,128.179532,37.958127,6762.5402976000005,50.98,-10.426,357.622,1.0
12.5,128.17953,37.958175,6761.5932840000005,51.184,-10.443,357.624,1.0
12.5166,128.179528,37.958223,6760.6444416,51.389,-10.459,357.626,1.0
12.5333,128.179527,37.958271,6759.693465600001,51.593,-10.476,357.628,1.0
12.55,128.179525,37.958318,6758.740356,51.798,-10.492,357.63,1.0
12.5666,128.179524,37.958366,6757.7851128,52.003,-10.509,357.633,1.0
12.5833,128.179522,37.958414,6756.827736,52.209,-10.525,357.635,1.0
12.6,128.179521,37.958462,6755.8682256,52.415,-10.542,357.637,1.0
12.6166,128.179519,37.958509,6754.9065816,52.621,-10.558,357.639,1.0
12.6333,128.179518,37.958557,6753.9431088,52.828,-10.575,357.641,1.0
12.65,128.179516,37.958605,6752.977197600001,53.035,-10.591,357.644,1.0
12.6666,128.179515,37.958653,6752.0091528,53.242,-10.607,357.646,1.0
12.6833,128.179513,37.958701,6751.039279200001,53.45,-10.624,357.648,1.0
12.7,128.179512,37.958748,6750.0669672,53.658,-10.64,357.651,1.0
12.7166,128.179511,37.958796,6749.0928264,53.866,-10.657,357.653,1.0
12.7333,128.179509,37.958844,6748.1162472000005,54.075,-10.673,357.655,1.0
12.75,128.179508,37.958892,6747.1378392,54.284,-10.689,357.658,1.0
12.7666,128.179506,37.95894,6746.156992800001,54.494,-10.706,357.66,1.0
12.7833,128.179505,37.958987,6745.1743176,54.704,-10.722,357.663,1.0
12.8,128.179503,37.959035,6744.189204,54.914,-10.739,357.665,1.0
12.8166,128.179502,37.959083,6743.2022615999995,55.125,-10.755,357.668,1.0
12.8333,128.179501,37.959131,6742.2128808,55.336,-10.771,357.67,1.0
12.85,128.179499,37.959179,6741.2216712,55.547,-10.788,357.673,1.0
12.8666,128.179498,37.959226,6740.2280232,55.759,-10.804,357.675,1.0
12.8833,128.179496,37.959274,6739.232241600001,55.971,-10.821,357.678,1.0
12.9,128.179495,37.959322,6738.2346312,56.183,-10.837,357.681,1.0
12.9166,128.179494,37.95937,6737.2345824,56.396,-10.853,357.683,1.0
12.9333,128.179492,37.959418,6736.232400000001,56.609,-10.87,357.686,1.0
12.95,128.179491,37.959466,6735.228084000001,56.823,-10.886,357.689,1.0
12.9666,128.17949,37.959513,6734.2216344,57.037,-10.902,357.691,1.0
12.9833,128.179488,37.959561,6733.2130512,57.251,-10.919,357.694,1.0
13.0,128.179487,37.959609,6732.2023344,57.465,-10.935,357.697,1.0
13.0166,128.179486,37.959657,6731.189179200001,57.68,-10.951,357.7,1.0
13.0333,128.179484,37.959705,6730.1741952,57.896,-10.968,357.702,1.0
13.0499,128.179483,37.959753,6729.1567728,58.111,-10.984,357.705,1.0
13.0666,128.179482,37.959801,6728.1372168,58.327,-11.0,357.708,1.0
13.0833,128.17948,37.959848,6727.115832,58.544,-11.017,357.711,1.0
13.1,128.179479,37.959896,6726.0920088,58.761,-11.033,357.714,1.0
13.1166,128.179478,37.959944,6725.065747200001,58.978,-11.049,357.717,1.0
13.1333,128.179476,37.959992,6724.037656800001,59.195,-11.066,357.72,1.0
13.15,128.179475,37.96004,6723.007432800001,59.413,-11.082,357.723,1.0
13.1666,128.179474,37.960088,6721.974770400001,59.631,-11.098,357.726,1.0
13.1833,128.179473,37.960136,6720.939974400001,59.85,-11.115,357.729,1.0
13.2,128.179471,37.960184,6719.9030448,60.069,-11.131,357.732,1.0
13.2166,128.17947,37.960231,6718.8639816,60.288,-11.147,357.735,1.0
13.2333,128.179469,37.960279,6717.82248,60.508,-11.163,357.738,1.0
13.25,128.179468,37.960327,6716.7791496,60.728,-11.18,357.741,1.0
13.2666,128.179466,37.960375,6715.7333808,60.948,-11.196,357.745,1.0
13.2833,128.179465,37.960423,6714.685173600001,61.169,-11.212,357.748,1.0
13.3,128.179464,37.960471,6713.6351376,61.39,-11.229,357.751,1.0
13.3166,128.179463,37.960519,6712.5826632,61.611,-11.245,357.754,1.0
13.3333,128.179462,37.960567,6711.52836,61.833,-11.261,357.758,1.0
13.35,128.17946,37.960615,6710.4713136,62.055,-11.278,357.761,1.0
13.3666,128.179459,37.960663,6709.412438400001,62.277,-11.294,357.764,1.0
13.3833,128.179458,37.960711,6708.3511248,62.5,-11.31,357.768,1.0
13.4,128.179457,37.960758,6707.2876776,62.723,-11.327,357.771,1.0
13.4166,128.179456,37.960806,6706.222096800001,62.946,-11.343,357.775,1.0
13.4333,128.179455,37.960854,6705.1543824,63.17,-11.359,357.778,1.0
13.45,128.179453,37.960902,6704.0842296,63.394,-11.376,357.781,1.0
13.4666,128.179452,37.96095,6703.0119432,63.618,-11.392,357.785,1.0
13.4833,128.179451,37.960998,6701.9372184,63.843,-11.408,357.788,1.0
13.5,128.17945,37.961046,6700.860360000001,64.068,-11.425,357.792,1.0
13.5166,128.179449,37.961094,6699.781368,64.293,-11.441,357.796,1.0
13.5333,128.179448,37.961142,6698.700242400001,64.519,-11.457,357.799,1.0
13.55,128.179447,37.96119,6697.616678400001,64.745,-11.474,357.803,1.0
13.5666,128.179445,37.961238,6696.530676,64.971,-11.49,357.807,1.0
13.5833,128.179444,37.961286,6695.4428448,65.198,-11.507,357.81,1.0
13.6,128.179443,37.961334,6694.3525752,65.425,-11.523,357.814,1.0
13.6166,128.179442,37.961382,6693.260172,65.653,-11.539,357.818,1.0
13.6333,128.179441,37.96143,6692.1653304,65.88,-11.556,357.821,1.0
13.65,128.17944,37.961478,6691.068355200001,66.108,-11.572,357.825,1.0
13.6666,128.179439,37.961526,6689.9689416,66.337,-11.589,357.829,1.0
13.6833,128.179438,37.961574,6688.8673944,66.566,-11.605,357.833,1.0
13.7,128.179437,37.961622,6687.7637136,66.795,-11.621,357.837,1.0
13.7166,128.179436,37.96167,6686.6575944,67.024,-11.638,357.841,1.0
13.7333,128.179435,37.961718,6685.549341600001,67.254,-11.654,357.845,1.0
13.75,128.179434,37.961766,6684.4386504,67.484,-11.671,357.848,1.0
13.7666,128.179433,37.961814,6683.3258256,67.714,-11.687,357.852,1.0
13.7833,128.179432,37.961862,6682.2105624,67.944,-11.704,357.856,1.0
13.8,128.179431,37.96191,6681.093165600001,68.175,-11.72,357.861,1.0
13.8166,128.17943,37.961958,6679.9736352,68.406,-11.736,357.865,1.0
13.8333,128.179429,37.962006,6678.8516664,68.638,-11.753,357.869,1.0
13.85,128.179428,37.962054,6677.7272592,68.87,-11.769,357.873,1.0
13.8666,128.179427,37.962102,6676.6007184,69.102,-11.786,357.877,1.0
13.8833,128.179426,37.96215,6675.472044,69.334,-11.802,357.881,1.0
13.9,128.179425,37.962198,6674.3409312,69.567,-11.819,357.885,1.0
13.9166,128.179424,37.962246,6673.2076848,69.799,-11.835,357.89,1.0
13.9333,128.179423,37.962294,6672.0716952,70.033,-11.852,357.894,1.0
13.95,128.179422,37.962342,6670.9338768,70.266,-11.868,357.898,1.0
13.9666,128.179421,37.96239,6669.79362,70.5,-11.885,357.903,1.0
13.9833,128.17942,37.962438,6668.650924800001,70.734,-11.902,357.907,1.0
14.0,128.179419,37.962486,6667.506096,70.968,-11.918,357.911,1.0
14.0166,128.179418,37.962534,6666.358828800001,71.203,-11.935,357.916,1.0
14.0333,128.179417,37.962582,6665.209428,71.438,-11.951,357.92,1.0
14.05,128.179416,37.96263,6664.057588799999,71.673,-11.968,357.925,1.0
14.0666,128.179415,37.962678,6662.903616,71.908,-11.984,357.929,1.0
14.0833,128.179414,37.962726,6661.7472048,72.144,-12.001,357.934,1.0
14.1,128.179413,37.962774,6660.5883552000005,72.38,-12.018,357.938,1.0
14.1166,128.179413,37.962822,6659.427372,72.616,-12.034,357.943,1.0
14.1333,128.179412,37.96287,6658.263950400001,72.852,-12.051,357.948,1.0
14.15,128.179411,37.962918,6657.0980904,73.089,-12.068,357.952,1.0
14.1666,128.17941,37.962966,6655.930096800001,73.326,-12.084,357.957,1.0
14.1833,128.179409,37.963014,6654.759969600001,73.563,-12.101,357.962,1.0
14.2,128.179408,37.963063,6653.5870992,73.8,-12.118,357.967,1.0
14.2166,128.179407,37.963111,6652.4120952,74.038,-12.135,357.971,1.0
14.2333,128.179407,37.963159,6651.2349576,74.276,-12.151,357.976,1.0
14.25,128.179406,37.963207,6650.0550768,74.514,-12.168,357.981,1.0
14.2666,128.179405,37.963255,6648.8730624,74.753,-12.185,357.986,1.0
14.2833,128.179404,37.963303,6647.688914400001,74.992,-12.202,357.991,1.0
14.3,128.179403,37.963351,6646.502023200001,75.231,-12.218,357.996,1.0
14.3166,128.179402,37.963399,6645.3129984,75.47,-12.235,358.001,1.0
14.3333,128.179402,37.963447,6644.12184,75.709,-12.252,358.006,1.0
14.35,128.179401,37.963495,6642.927938400001,75.949,-12.269,358.011,1.0
14.3666,128.1794,37.963543,6641.7319032,76.189,-12.286,358.016,1.0
14.3833,128.179399,37.963591,6640.5334296,76.429,-12.303,358.021,1.0
14.4,128.179398,37.96364,6639.332822400001,76.67,-12.32,358.026,1.0
14.4166,128.179398,37.963688,6638.1294720000005,76.91,-12.336,358.031,1.0
14.4333,128.179397,37.963736,6636.924292800001,77.151,-12.353,358.036,1.0
14.45,128.179396,37.963784,6635.716370400001,77.392,-12.37,358.041,1.0
14.4666,128.179395,37.963832,6634.506009600001,77.634,-12.387,358.046,1.0
14.4833,128.179395,37.96388,6633.293515200001,77.875,-12.404,358.052,1.0
14.5,128.179394,37.963928,6632.0785824,78.117,-12.421,358.057,1.0
14.5166,128.179393,37.963976,6630.861211200001,78.359,-12.438,358.062,1.0
14.5333,128.179392,37.964024,6629.641706400001,78.601,-12.455,358.067,1.0
14.55,128.179392,37.964073,6628.4197632000005,78.844,-12.473,358.072,1.0
14.5666,128.179391,37.964121,6627.195076800001,79.086,-12.49,358.078,1.0
14.5833,128.17939,37.964169,6625.9685616,79.329,-12.507,358.083,1.0
14.6,128.179389,37.964217,6624.7393032,79.572,-12.524,358.088,1.0
14.6166,128.179389,37.964265,6623.5076064,79.816,-12.541,358.094,1.0
14.6333,128.179388,37.964313,6622.273776,80.059,-12.558,358.099,1.0
14.65,128.179387,37.964361,6621.0375072,80.303,-12.575,358.105,1.0
14.6666,128.179387,37.964409,6619.7988000000005,80.547,-12.593,358.11,1.0
14.6833,128.179386,37.964458,6618.5576544000005,80.791,-12.61,358.115,1.0
