Time,Longitude,Latitude,Altitude,Roll (deg),Pitch (deg),Yaw (deg),Health
0.0,128.181895,37.923645,6999.7975320000005,4.0,-2.003,6.999,1.0
0.0166,128.181902,37.92369,6999.636597600001,4.0,-2.012,6.999,1.0
0.0333,128.181909,37.923734,6999.4762728000005,3.986,-2.027,7.0,1.0
0.05,128.181915,37.923779,6999.3141192,3.966,-2.042,7.003,1.0
0.0666,128.181922,37.923823,6999.151965600001,3.939,-2.057,7.008,1.0
0.0833,128.181929,37.923868,6998.988592800001,3.906,-2.071,7.014,1.0
0.1,128.181936,37.923912,6998.824610400001,3.869,-2.086,7.021,1.0
0.1166,128.181943,37.923957,6998.660018400001,3.83,-2.101,7.028,1.0
0.1333,128.18195,37.924002,6998.494207199999,3.79,-2.115,7.035,1.0
0.15,128.181957,37.924046,6998.3277864,3.748,-2.13,7.043,1.0
0.1666,128.181964,37.924091,6998.1604512,3.705,-2.144,7.05,1.0
0.1833,128.181971,37.924135,6997.992506400001,3.661,-2.158,7.058,1.0
0.2,128.181978,37.92418,6997.823342400001,3.616,-2.172,7.065,1.0
0.2166,128.181985,37.924224,6997.6535688,3.57,-2.186,7.072,1.0
0.2333,128.181992,37.924269,6997.482576,3.524,-2.2,7.08,1.0
0.25,128.181999,37.924313,6997.310973600001,3.477,-2.213,7.087,1.0
0.2666,128.182006,37.924358,6997.138456800001,3.429,-2.227,7.094,1.0
0.2833,128.182013,37.924403,6996.9650255999995,3.381,-2.24,7.102,1.0
0.3,128.18202,37.924447,6996.79068,3.332,-2.254,7.109,1.0
0.3166,128.182027,37.924492,6996.615420000001,3.283,-2.267,7.116,1.0
0.3333,128.182034,37.924536,6996.4392456000005,3.233,-2.28,7.123,1.0
0.35,128.182041,37.924581,6996.262156800001,3.183,-2.293,7.13,1.0
0.3666,128.182048,37.924625,6996.0841536,3.132,-2.306,7.137,1.0
0.3833,128.182055,37.92467,6995.9052360000005,3.08,-2.319,7.144,1.0
0.4,128.182062,37.924714,6995.725404,3.028,-2.332,7.151,1.0
0.4166,128.182069,37.924759,6995.5446576,2.975,-2.344,7.157,1.0
0.4333,128.182076,37.924804,6995.3629968000005,2.922,-2.357,7.164,1.0
0.45,128.182083,37.924848,6995.1804216,2.869,-2.37,7.171,1.0
0.4666,128.18209,37.924893,6994.9966272,2.815,-2.382,7.177,1.0
0.4833,128.182096,37.924937,6994.8122232000005,2.76,-2.395,7.184,1.0
0.5,128.182103,37.924982,6994.6266000000005,2.705,-2.407,7.19,1.0
0.5166,128.18211,37.925026,6994.4400624,2.65,-2.42,7.197,1.0
0.5333,128.182117,37.925071,6994.252610400001,2.594,-2.432,7.203,1.0
0.55,128.182124,37.925115,6994.064244,2.537,-2.444,7.21,1.0
0.5666,128.182131,37.92516,6993.8749632,2.481,-2.457,7.216,1.0
0.5833,128.182138,37.925205,6993.6844632,2.423,-2.469,7.222,1.0
0.6,128.182145,37.925249,6993.4933536,2.366,-2.481,7.229,1.0
0.6166,128.182152,37.925294,6993.301024800001,2.307,-2.493,7.235,1.0
0.6333,128.182159,37.925338,6993.107781600001,2.249,-2.505,7.241,1.0
0.65,128.182166,37.925383,6992.913319200001,2.19,-2.518,7.247,1.0
0.6666,128.182173,37.925427,6992.7182472,2.13,-2.53,7.253,1.0
0.6833,128.18218,37.925472,6992.5219560000005,2.07,-2.542,7.259,1.0
0.7,128.182187,37.925516,6992.3247504,2.01,-2.554,7.265,1.0
0.7166,128.182194,37.925561,6992.1266304,1.949,-2.566,7.271,1.0
0.7333,128.182201,37.925606,6991.927291200001,1.888,-2.578,7.277,1.0
0.75,128.182208,37.92565,6991.727037600001,1.827,-2.59,7.283,1.0
0.7666,128.182215,37.925695,6991.525869600001,1.765,-2.602,7.289,1.0
0.7833,128.182222,37.925739,6991.323787200001,1.703,-2.613,7.295,1.0
0.8,128.182229,37.925784,6991.1204856,1.64,-2.625,7.3,1.0
0.8166,128.182236,37.925828,6990.9162696,1.577,-2.637,7.306,1.0
0.8333,128.182243,37.925873,6990.7111392,1.513,-2.649,7.312,1.0
0.85,128.18225,37.925918,6990.5047896,1.449,-2.661,7.317,1.0
0.8666,128.182257,37.925962,6990.2975256,1.385,-2.673,7.323,1.0
0.8833,128.182265,37.926007,6990.089347200001,1.32,-2.685,7.328,1.0
0.9,128.182272,37.926051,6989.8802544,1.255,-2.696,7.334,1.0
0.9166,128.182279,37.926096,6989.669942400001,1.19,-2.708,7.339,1.0
0.9333,128.182286,37.92614,6989.458716,1.124,-2.72,7.345,1.0
0.95,128.182293,37.926185,6989.246270400001,1.058,-2.732,7.35,1.0
0.9666,128.1823,37.926229,6989.0329104,0.991,-2.744,7.356,1.0
0.9833,128.182307,37.926274,6988.818636,0.924,-2.755,7.361,1.0
1.0,128.182314,37.926319,6988.603142400001,0.857,-2.767,7.366,1.0
1.0166,128.182321,37.926363,6988.3867344,0.789,-2.779,7.371,1.0
1.0333,128.182328,37.926408,6988.169412,0.721,-2.791,7.377,1.0
1.05,128.182335,37.926452,6987.950870400001,0.653,-2.802,7.382,1.0
1.0666,128.182342,37.926497,6987.7314144,0.584,-2.814,7.387,1.0
1.0833,128.182349,37.926541,6987.511044,0.515,-2.826,7.392,1.0
1.1,128.182356,37.926586,6987.2894544,0.446,-2.838,7.397,1.0
1.1166,128.182363,37.926631,6987.066950400001,0.376,-2.849,7.402,1.0
1.1333,128.18237,37.926675,6986.8432272,0.306,-2.861,7.407,1.0
1.15,128.182377,37.92672,6986.6185896,0.235,-2.873,7.412,1.0
1.1666,128.182384,37.926764,6986.393037600001,0.164,-2.885,7.417,1.0
1.1833,128.182391,37.926809,6986.1659616,0.095,-2.895,7.422,1.0
1.2,128.182398,37.926853,6985.938276,0.027,-2.903,7.427,1.0
1.2166,128.182405,37.926898,6985.7090664,-0.038,-2.911,7.431,1.0
1.2333,128.182412,37.926943,6985.479247200001,-0.103,-2.918,7.436,1.0
1.25,128.182419,37.926987,6985.248208800001,-0.167,-2.924,7.441,1.0
1.2666,128.182426,37.927032,6985.015951200001,-0.231,-2.93,7.445,1.0
1.2833,128.182433,37.927076,6984.783084000001,-0.295,-2.936,7.45,1.0
1.3,128.18244,37.927121,6984.548997600001,-0.358,-2.942,7.454,1.0
1.3166,128.182447,37.927165,6984.313692000001,-0.42,-2.948,7.458,1.0
1.3333,128.182454,37.92721,6984.0777768,-0.483,-2.955,7.462,1.0
1.35,128.182462,37.927255,6983.8406424,-0.546,-2.961,7.466,1.0
1.3666,128.182469,37.927299,6983.6022888,-0.609,-2.967,7.471,1.0
1.3833,128.182476,37.927344,6983.3633256,-0.672,-2.974,7.475,1.0
1.4,128.182483,37.927388,6983.1231431999995,-0.735,-2.981,7.479,1.0
1.4166,128.18249,37.927433,6982.882046400001,-0.798,-2.988,7.483,1.0
1.4333,128.182497,37.927478,6982.6400352,-0.862,-2.995,7.487,1.0
1.45,128.182504,37.927522,6982.3971096000005,-0.926,-3.002,7.491,1.0
1.4666,128.182511,37.927567,6982.1532696,-0.99,-3.009,7.494,1.0
1.4833,128.182518,37.927611,6981.908210400001,-1.054,-3.017,7.498,1.0
1.5,128.182525,37.927656,6981.662541600001,-1.118,-3.024,7.502,1.0
1.5166,128.182532,37.9277,6981.4156536,-1.183,-3.032,7.506,1.0
1.5333,128.182539,37.927745,6981.167851200001,-1.248,-3.04,7.51,1.0
1.55,128.182546,37.92779,6980.9191344,-1.314,-3.048,7.513,1.0
1.5666,128.182553,37.927834,6980.6695032,-1.38,-3.055,7.517,1.0
1.5833,128.18256,37.927879,6980.4189576,-1.446,-3.063,7.521,1.0
1.6,128.182567,37.927923,6980.167497600001,-1.512,-3.072,7.524,1.0
1.6166,128.182575,37.927968,6979.9148184000005,-1.579,-3.08,7.528,1.0
1.6333,128.182582,37.928013,6979.6615296,-1.646,-3.088,7.532,1.0
1.65,128.182589,37.928057,6979.4073264,-1.714,-3.096,7.535,1.0
1.6666,128.182596,37.928102,6979.151904,-1.781,-3.105,7.539,1.0
1.6833,128.182603,37.928146,6978.8955672,-1.849,-3.113,7.542,1.0
1.7,128.18261,37.928191,6978.638620799999,-1.918,-3.122,7.546,1.0
1.7166,128.182617,37.928236,6978.3804552,-1.986,-3.13,7.549,1.0
1.7333,128.182624,37.92828,6978.121375199999,-2.055,-3.139,7.553,1.0
1.75,128.182631,37.928325,6977.8616856,-2.125,-3.148,7.556,1.0
1.7666,128.182638,37.92837,6977.6007768,-2.195,-3.156,7.559,1.0
1.7833,128.182645,37.928414,6977.3389536,-2.265,-3.165,7.563,1.0
1.8,128.182652,37.928459,6977.0762159999995,-2.335,-3.174,7.566,1.0
1.8166,128.182659,37.928503,6976.812564000001,-2.406,-3.183,7.57,1.0
1.8333,128.182667,37.928548,6976.547997600001,-2.477,-3.192,7.573,1.0
1.85,128.182674,37.928593,6976.2825168,-2.548,-3.201,7.576,1.0
1.8666,128.182681,37.928637,6976.0161216,-2.62,-3.21,7.579,1.0
1.8833,128.182688,37.928682,6975.748812,-2.692,-3.219,7.583,1.0
1.9,128.182695,37.928727,6975.480588,-2.764,-3.228,7.586,1.0
1.9166,128.182702,37.928771,6975.2114496,-2.837,-3.237,7.589,1.0
1.9333,128.182709,37.928816,6974.941396800001,-2.91,-3.246,7.592,1.0
1.95,128.182716,37.928861,6974.6704296,-2.983,-3.255,7.595,1.0
1.9666,128.182723,37.928905,6974.3982432,-3.057,-3.264,7.598,1.0
1.9833,128.18273,37.92895,6974.125447200001,-3.131,-3.273,7.602,1.0
2.0,128.182737,37.928994,6973.8517368,-3.205,-3.283,7.605,1.0
2.0166,128.182745,37.929039,6973.577112,-3.28,-3.292,7.608,1.0
2.0333,128.182752,37.929084,6973.301268,-3.355,-3.301,7.611,1.0
2.05,128.182759,37.929128,6973.024814400001,-3.43,-3.31,7.614,1.0
2.0666,128.182766,37.929173,6972.747446400001,-3.506,-3.32,7.617,1.0
2.0833,128.182773,37.929218,6972.4688592,-3.582,-3.329,7.62,1.0
2.1,128.18278,37.929262,6972.1896624,-3.658,-3.338,7.623,1.0
2.1166,128.182787,37.929307,6971.9095512,-3.734,-3.348,7.626,1.0
2.1333,128.182794,37.929352,6971.6282208,-3.811,-3.357,7.628,1.0
2.15,128.182801,37.929396,6971.3462808,-3.888,-3.367,7.631,1.0
2.1666,128.182808,37.929441,6971.0631216,-3.966,-3.376,7.634,1.0
2.1833,128.182815,37.929486,6970.779047999999,-4.044,-3.385,7.637,1.0
2.2,128.182823,37.92953,6970.494364800001,-4.122,-3.395,7.64,1.0
2.2166,128.18283,37.929575,6970.2084624,-4.2,-3.404,7.643,1.0
2.2333,128.182837,37.92962,6969.9216456,-4.279,-3.414,7.645,1.0
2.25,128.182844,37.929664,6969.6342192,-4.358,-3.423,7.648,1.0
2.2666,128.182851,37.929709,6969.3455736000005,-4.437,-3.433,7.651,1.0
2.2833,128.182858,37.929754,6969.0560136,-4.517,-3.442,7.654,1.0
2.3,128.182865,37.929798,6968.7655392,-4.597,-3.452,7.656,1.0
2.3166,128.182872,37.929843,6968.4741504,-4.677,-3.461,7.659,1.0
2.3333,128.182879,37.929888,6968.1818472,-4.758,-3.471,7.662,1.0
2.35,128.182886,37.929932,6967.8886296,-4.839,-3.48,7.664,1.0
2.3666,128.182894,37.929977,6967.594497600001,-4.92,-3.49,7.667,1.0
2.3833,128.182901,37.930022,6967.2994512000005,-5.002,-3.499,7.669,1.0
2.4,128.182908,37.930067,6967.0034904,-5.084,-3.509,7.672,1.0
2.4166,128.182915,37.930111,6966.706310400001,-5.166,-3.518,7.675,1.0
2.4333,128.182922,37.930156,6966.4085208,-5.249,-3.528,7.677,1.0
2.45,128.182929,37.930201,6966.1098168,-5.332,-3.537,7.68,1.0
2.4666,128.182936,37.930245,6965.8098936,-5.415,-3.547,7.682,1.0
2.4833,128.182943,37.93029,6965.509360800001,-5.499,-3.556,7.685,1.0
2.5,128.18295,37.930335,6965.2076088,-5.583,-3.566,7.687,1.0
2.5166,128.182958,37.93038,6964.9049424,-5.667,-3.575,7.689,1.0
2.5333,128.182965,37.930424,6964.6016664,-5.752,-3.585,7.692,1.0
2.55,128.182972,37.930469,6964.2971712,-5.837,-3.594,7.694,1.0
2.5666,128.182979,37.930514,6963.9917616,-5.922,-3.604,7.697,1.0
2.5833,128.182986,37.930558,6963.685437600001,-6.008,-3.614,7.699,1.0
2.6,128.182993,37.930603,6963.3781992,-6.094,-3.623,7.701,1.0
2.6166,128.183,37.930648,6963.0700464,-6.18,-3.633,7.703,1.0
2.6333,128.183007,37.930693,6962.760979200001,-6.266,-3.642,7.706,1.0
2.65,128.183014,37.930737,6962.450692800001,-6.353,-3.652,7.708,1.0
2.6666,128.183021,37.930782,6962.139796800001,-6.441,-3.661,7.71,1.0
2.6833,128.183029,37.930827,6961.827681600001,-6.528,-3.671,7.712,1.0
2.7,128.183036,37.930872,6961.514956800001,-6.616,-3.68,7.715,1.0
2.7166,128.183043,37.930916,6961.2010128,-6.705,-3.69,7.717,1.0
2.7333,128.18305,37.930961,6960.8861544,-6.793,-3.699,7.719,1.0
2.75,128.183057,37.931006,6960.5703816000005,-6.882,-3.709,7.721,1.0
2.7666,128.183064,37.931051,6960.2536944,-6.971,-3.718,7.723,1.0
2.7833,128.183071,37.931095,6959.936092800001,-7.061,-3.728,7.725,1.0
2.8,128.183078,37.93114,6959.6175768,-7.151,-3.738,7.727,1.0
2.8166,128.183085,37.931185,6959.2978416000005,-7.241,-3.747,7.729,1.0
2.8333,128.183092,37.93123,6958.977496800001,-7.332,-3.757,7.731,1.0
2.85,128.1831,37.931274,6958.6559328,-7.423,-3.766,7.733,1.0
2.8666,128.183107,37.931319,6958.333759200001,-7.514,-3.776,7.735,1.0
2.8833,128.183114,37.931364,6958.0103664,-7.606,-3.785,7.737,1.0
2.9,128.183121,37.931409,6957.6860592,-7.698,-3.795,7.739,1.0
2.9166,128.183128,37.931454,6957.360837600001,-7.79,-3.804,7.741,1.0
2.9333,128.183135,37.931498,6957.034396800001,-7.883,-3.814,7.743,1.0
2.95,128.183142,37.931543,6956.7073464000005,-7.976,-3.823,7.745,1.0
2.9666,128.183149,37.931588,6956.3790768,-8.069,-3.833,7.747,1.0
2.9833,128.183156,37.931633,6956.0501976000005,-8.163,-3.842,7.749,1.0
3.0,128.183164,37.931678,6955.7200992,-8.257,-3.852,7.751,1.0
3.0166,128.183171,37.931722,6955.3890864,-8.351,-3.861,7.752,1.0
3.0333,128.183178,37.931767,6955.057159200001,-8.446,-3.871,7.754,1.0
3.05,128.183185,37.931812,6954.7240128,-8.541,-3.88,7.756,1.0
3.0666,128.183192,37.931857,6954.390256800001,-8.636,-3.89,7.758,1.0
3.0833,128.183199,37.931902,6954.0552816,-8.732,-3.899,7.759,1.0
3.1,128.183206,37.931946,6953.719696800001,-8.828,-3.909,7.761,1.0
3.1166,128.183213,37.931991,6953.382892800001,-8.924,-3.919,7.763,1.0
3.1333,128.18322,37.932036,6953.0448696,-9.021,-3.928,7.765,1.0
3.15,128.183227,37.932081,6952.706236800001,-9.118,-3.938,7.766,1.0
3.1666,128.183234,37.932126,6952.3666896,-9.216,-3.947,7.768,1.0
3.1833,128.183242,37.932171,6952.025923200001,-9.314,-3.957,7.769,1.0
3.2,128.183249,37.932215,6951.684242400001,-9.412,-3.966,7.771,1.0
3.2166,128.183256,37.93226,6951.341647200001,-9.51,-3.976,7.773,1.0
3.2333,128.183263,37.932305,6950.9981376000005,-9.609,-3.985,7.774,1.0
3.25,128.18327,37.93235,6950.653713600001,-9.709,-3.995,7.776,1.0
3.2666,128.183277,37.932395,6950.308070400001,-9.808,-4.004,7.777,1.0
3.2833,128.183284,37.93244,6949.9615128000005,-9.908,-4.014,7.779,1.0
3.3,128.183291,37.932484,6949.6140408,-10.009,-4.023,7.78,1.0
3.3166,128.183298,37.932529,6949.2656544,-10.11,-4.033,7.781,1.0
3.3333,128.183305,37.932574,6948.9160488,-10.211,-4.042,7.783,1.0
3.35,128.183312,37.932619,6948.565833600001,-10.312,-4.052,7.784,1.0
3.3666,128.18332,37.932664,6948.2143992,-10.414,-4.061,7.786,1.0
3.3833,128.183327,37.932709,6947.8620504,-10.516,-4.071,7.787,1.0
3.4,128.183334,37.932754,6947.5087872,-10.619,-4.08,7.788,1.0
3.4166,128.183341,37.932799,6947.1543048,-10.722,-4.089,7.79,1.0
3.4333,128.183348,37.932843,6946.798908,-10.825,-4.099,7.791,1.0
3.45,128.183355,37.932888,6946.4425968000005,-10.929,-4.109,7.792,1.0
3.4666,128.183362,37.932933,6946.0853712,-11.032,-4.118,7.793,1.0
3.4833,128.183369,37.932978,6945.7269264,-11.137,-4.128,7.795,1.0
3.5,128.183376,37.933023,6945.3675672,-11.241,-4.137,7.796,1.0
3.5166,128.183383,37.933068,6945.0072936,-11.345,-4.147,7.797,1.0
3.5333,128.18339,37.933113,6944.646105600001,-11.45,-4.156,7.798,1.0
3.55,128.183397,37.933158,6944.2836984,-11.555,-4.166,7.799,1.0
3.5666,128.183405,37.933203,6943.920376800001,-11.66,-4.176,7.801,1.0
3.5833,128.183412,37.933248,6943.5561408,-11.766,-4.186,7.802,1.0
3.6,128.183419,37.933293,6943.1906856000005,-11.871,-4.195,7.803,1.0
3.6166,128.183426,37.933337,6942.8246208,-11.977,-4.205,7.804,1.0
3.6333,128.183433,37.933382,6942.457032,-12.083,-4.215,7.805,1.0
3.65,128.18344,37.933427,6942.088833600001,-12.19,-4.225,7.806,1.0
3.6666,128.183447,37.933472,6941.719416,-12.296,-4.234,7.807,1.0
3.6833,128.183454,37.933517,6941.349084000001,-12.403,-4.244,7.809,1.0
3.7,128.183461,37.933562,6940.9775328000005,-12.509,-4.254,7.81,1.0
3.7166,128.183468,37.933607,6940.605372,-12.617,-4.264,7.811,1.0
3.7333,128.183475,37.933652,6940.2316872,-12.724,-4.274,7.812,1.0
3.75,128.183482,37.933697,6939.8573928000005,-12.831,-4.284,7.813,1.0
3.7666,128.183489,37.933742,6939.481879200001,-12.939,-4.294,7.814,1.0
3.7833,128.183496,37.933787,6939.105451200001,-13.047,-4.304,7.815,1.0
3.8,128.183503,37.933832,6938.727804,-13.155,-4.314,7.816,1.0
3.8166,128.18351,37.933877,6938.349242400001,-13.263,-4.324,7.816,1.0
3.8333,128.183518,37.933922,6937.9694616,-13.371,-4.334,7.817,1.0
3.85,128.183525,37.933967,6937.5890712,-13.48,-4.343,7.818,1.0
3.8666,128.183532,37.934012,6937.207156800001,-13.589,-4.353,7.819,1.0
3.8833,128.183539,37.934057,6936.8246328000005,-13.698,-4.363,7.82,1.0
3.9,128.183546,37.934102,6936.4408896,-13.807,-4.373,7.821,1.0
3.9166,128.183553,37.934147,6936.0559272,-13.917,-4.384,7.822,1.0
3.9333,128.18356,37.934192,6935.6700504,-14.027,-4.394,7.822,1.0
3.95,128.183567,37.934237,6935.2832592,-14.137,-4.404,7.823,1.0
3.9666,128.183574,37.934282,6934.8952488,-14.247,-4.414,7.824,1.0
3.9833,128.183581,37.934327,6934.506324000001,-14.358,-4.424,7.825,1.0
4.0,128.183588,37.934372,6934.11618,-14.468,-4.434,7.825,1.0
4.0166,128.183595,37.934417,6933.7251216,-14.579,-4.444,7.826,1.0
4.0333,128.183602,37.934462,6933.332844,-14.69,-4.454,7.827,1.0
4.05,128.183609,37.934507,6932.939652000001,-14.802,-4.464,7.827,1.0
4.0666,128.183616,37.934552,6932.5452408,-14.914,-4.474,7.828,1.0
4.0833,128.183623,37.934597,6932.149915200001,-15.026,-4.484,7.829,1.0
4.1,128.18363,37.934642,6931.7536752,-15.138,-4.495,7.829,1.0
4.1166,128.183637,37.934687,6931.356216,-15.25,-4.505,7.83,1.0
4.1333,128.183644,37.934732,6930.9575376,-15.363,-4.515,7.83,1.0
4.15,128.183651,37.934777,6930.5579448,-15.476,-4.525,7.831,1.0
4.1666,128.183658,37.934822,6930.157132800001,-15.59,-4.535,7.832,1.0
4.1833,128.183665,37.934867,6929.7554064000005,-15.703,-4.546,7.832,1.0
4.2,128.183672,37.934913,6929.352460800001,-15.817,-4.556,7.833,1.0
4.2166,128.183679,37.934958,6928.9486008,-15.931,-4.566,7.833,1.0
4.2333,128.183686,37.935003,6928.5435216,-16.046,-4.577,7.834,1.0
4.25,128.183693,37.935048,6928.137528,-16.161,-4.587,7.834,1.0
4.2666,128.1837,37.935093,6927.7303152,-16.275,-4.597,7.834,1.0
4.2833,128.183707,37.935138,6927.321883200001,-16.391,-4.608,7.835,1.0
4.3,128.183714,37.935183,6926.9125368,-16.506,-4.618,7.835,1.0
4.3166,128.183721,37.935228,6926.5019712,-16.622,-4.629,7.836,1.0
4.3333,128.183728,37.935273,6926.0904912000005,-16.738,-4.639,7.836,1.0
4.35,128.183735,37.935318,6925.677792,-16.855,-4.649,7.836,1.0
4.3666,128.183742,37.935364,6925.263873600001,-16.971,-4.66,7.837,1.0
4.3833,128.183749,37.935409,6924.849040800001,-17.088,-4.67,7.837,1.0
4.4,128.183756,37.935454,6924.4329888,-17.206,-4.681,7.837,1.0
4.4166,128.183763,37.935499,6924.0160224,-17.323,-4.691,7.838,1.0
4.4333,128.18377,37.935544,6923.597836800001,-17.441,-4.702,7.838,1.0
4.45,128.183777,37.935589,6923.178432000001,-17.559,-4.712,7.838,1.0
4.4666,128.183784,37.935634,6922.757808,-17.677,-4.722,7.838,1.0
4.4833,128.183791,37.93568,6922.3362696,-17.796,-4.733,7.838,1.0
4.5,128.183798,37.935725,6921.913512,-17.915,-4.743,7.839,1.0
4.5166,128.183805,37.93577,6921.48984,-18.034,-4.754,7.839,1.0
4.5333,128.183812,37.935815,6921.064644,-18.153,-4.764,7.839,1.0
4.55,128.183819,37.93586,6920.638533600001,-18.273,-4.774,7.839,1.0
4.5666,128.183826,37.935905,6920.2115088,-18.393,-4.785,7.839,1.0
4.5833,128.183833,37.935951,6919.7829600000005,-18.513,-4.795,7.839,1.0
4.6,128.18384,37.935996,6919.3534968,-18.634,-4.806,7.839,1.0
4.6166,128.183847,37.936041,6918.922814400001,-18.754,-4.816,7.839,1.0
4.6333,128.183854,37.936086,6918.4909128,-18.875,-4.826,7.839,1.0
4.65,128.183861,37.936131,6918.0580968,-18.996,-4.837,7.839,1.0
4.6666,128.183868,37.936177,6917.6240616,-19.117,-4.847,7.839,1.0
4.6833,128.183875,37.936222,6917.1888072,-19.239,-4.858,7.839,1.0
4.7,128.183882,37.936267,6916.7523336,-19.361,-4.868,7.839,1.0
4.7166,128.183889,37.936312,6916.3146408,-19.483,-4.878,7.838,1.0
4.7333,128.183896,37.936357,6915.8760336000005,-19.605,-4.889,7.838,1.0
4.75,128.183903,37.936403,6915.436207199999,-19.727,-4.899,7.838,1.0
4.7666,128.18391,37.936448,6914.9951616,-19.85,-4.909,7.838,1.0
4.7833,128.183917,37.936493,6914.552896800001,-19.973,-4.919,7.837,1.0
4.8,128.183924,37.936538,6914.1094128,-20.096,-4.93,7.837,1.0
4.8166,128.18393,37.936584,6913.6650144000005,-20.219,-4.94,7.837,1.0
4.8333,128.183937,37.936629,6913.219092,-20.342,-4.95,7.836,1.0
4.85,128.183944,37.936674,6912.7722552000005,-20.466,-4.96,7.836,1.0
4.8666,128.183951,37.93672,6912.3241992,-20.59,-4.971,7.836,1.0
4.8833,128.183958,37.936765,6911.874924000001,-20.714,-4.981,7.835,1.0
4.9,128.183965,37.93681,6911.4244296,-20.838,-4.991,7.835,1.0
4.9166,128.183972,37.936855,6910.9730208,-20.963,-5.001,7.834,1.0
4.9333,128.183979,37.936901,6910.520088000001,-21.088,-5.011,7.834,1.0
4.95,128.183986,37.936946,6910.066240800001,-21.213,-5.022,7.833,1.0
4.9666,128.183993,37.936991,6909.610869600001,-21.338,-5.032,7.833,1.0
4.9833,128.184,37.937037,6909.154584000001,-21.464,-5.042,7.832,1.0
5.0,128.184007,37.937082,6908.697079200001,-21.589,-5.052,7.831,1.0
5.0166,128.184013,37.937127,6908.2383552,-21.715,-5.062,7.831,1.0
5.0333,128.18402,37.937173,6907.7781072,-21.842,-5.073,7.83,1.0
5.05,128.184027,37.937218,6907.317249600001,-21.968,-5.083,7.829,1.0
5.0666,128.184034,37.937263,6906.854868,-22.095,-5.093,7.828,1.0
5.0833,128.184041,37.937309,6906.3912672,-22.222,-5.103,7.828,1.0
5.1,128.184048,37.937354,6905.9264472,-22.349,-5.113,7.827,1.0
5.1166,128.184055,37.937399,6905.460408,-22.477,-5.123,7.826,1.0
5.1333,128.184062,37.937445,6904.9931496,-22.604,-5.133,7.825,1.0
5.15,128.184069,37.93749,6904.5249768,-22.732,-5.143,7.824,1.0
5.1666,128.184075,37.937535,6904.05528,-22.861,-5.153,7.823,1.0
5.1833,128.184082,37.937581,6903.5846688,-22.989,-5.163,7.822,1.0
5.2,128.184089,37.937626,6903.1125336000005,-23.118,-5.173,7.821,1.0
5.2166,128.184096,37.937672,6902.6391792,-23.247,-5.183,7.82,1.0
5.2333,128.184103,37.937717,6902.164910400001,-23.377,-5.194,7.819,1.0
5.25,128.18411,37.937762,6901.6891176,-23.506,-5.204,7.818,1.0
5.2666,128.184117,37.937808,6901.2121056000005,-23.636,-5.214,7.817,1.0
5.2833,128.184123,37.937853,6900.734179200001,-23.766,-5.224,7.816,1.0
5.3,128.18413,37.937899,6900.2547288000005,-23.897,-5.234,7.815,1.0
5.3166,128.184137,37.937944,6899.774364000001,-24.028,-5.244,7.813,1.0
5.3333,128.184144,37.937989,6899.2924752,-24.159,-5.254,7.812,1.0
5.35,128.184151,37.938035,6898.8093672,-24.29,-5.263,7.811,1.0
5.3666,128.184158,37.93808,6898.32504,-24.422,-5.273,7.809,1.0
5.3833,128.184165,37.938126,6897.8397984,-24.554,-5.283,7.808,1.0
5.4,128.184171,37.938171,6897.353032800001,-24.686,-5.293,7.807,1.0
5.4166,128.184178,37.938217,6896.865048,-24.819,-5.303,7.805,1.0
5.4333,128.184185,37.938262,6896.375844,-24.952,-5.313,7.804,1.0
5.45,128.184192,37.938308,6895.8854208,-25.086,-5.323,7.802,1.0
5.4666,128.184199,37.938353,6895.393778400001,-25.219,-5.333,7.801,1.0
5.4833,128.184205,37.938399,6894.9009168,-25.353,-5.343,7.799,1.0
5.5,128.184212,37.938444,6894.4065312,-25.488,-5.353,7.798,1.0
5.5166,128.184219,37.93849,6893.9112312,-25.623,-5.363,7.796,1.0
5.5333,128.184226,37.938535,6893.414712,-25.758,-5.373,7.794,1.0
5.55,128.184233,37.93858,6892.9166688000005,-25.893,-5.382,7.793,1.0
5.5666,128.184239,37.938626,6892.417711200001,-26.029,-5.392,7.791,1.0
5.5833,128.184246,37.938672,6891.9172296,-26.165,-5.402,7.789,1.0
5.6,128.184253,37.938717,6891.415528800001,-26.302,-5.412,7.787,1.0
5.6166,128.18426,37.938763,6890.9126088,-26.439,-5.422,7.786,1.0
5.6333,128.184267,37.938808,6890.408469600001,-26.576,-5.431,7.784,1.0
5.65,128.184273,37.938854,6889.903111200001,-26.714,-5.441,7.782,1.0
5.6666,128.18428,37.938899,6889.396228800001,-26.852,-5.451,7.78,1.0
5.6833,128.184287,37.938945,6888.888432000001,-26.991,-5.461,7.778,1.0
5.7,128.184294,37.93899,6888.379111200001,-27.13,-5.47,7.776,1.0
5.7166,128.1843,37.939036,6887.8688760000005,-27.269,-5.48,7.774,1.0
5.7333,128.184307,37.939081,6887.3571168,-27.409,-5.49,7.772,1.0
5.75,128.184314,37.939127,6886.844138400001,-27.549,-5.499,7.77,1.0
5.7666,128.184321,37.939172,6886.3299408,-27.69,-5.509,7.767,1.0
5.7833,128.184328,37.939218,6885.8142192000005,-27.831,-5.519,7.765,1.0
5.8,128.184334,37.939264,6885.297583200001,-27.972,-5.528,7.763,1.0
5.8166,128.184341,37.939309,6884.779423200001,-28.114,-5.538,7.761,1.0
5.8333,128.184348,37.939355,6884.260044,-28.257,-5.547,7.758,1.0
5.85,128.184354,37.9394,6883.7394456,-28.4,-5.557,7.756,1.0
5.8666,128.184361,37.939446,6883.217628,-28.543,-5.567,7.754,1.0
5.8833,128.184368,37.939492,6882.6942864,-28.687,-5.576,7.751,1.0
5.9,128.184375,37.939537,6882.1700304,-28.831,-5.586,7.749,1.0
5.9166,128.184381,37.939583,6881.644250400001,-28.976,-5.595,7.746,1.0
5.9333,128.184388,37.939629,6881.1172512,-29.121,-5.605,7.744,1.0
5.95,128.184395,37.939674,6880.5890328000005,-29.267,-5.614,7.741,1.0
5.9666,128.184401,37.93972,6880.0592904000005,-29.413,-5.624,7.738,1.0
5.9833,128.184408,37.939765,6879.528328800001,-29.56,-5.633,7.736,1.0
6.0,128.184415,37.939811,6878.9964528,-29.707,-5.643,7.733,1.0
6.0166,128.184422,37.939857,6878.462748,-29.855,-5.652,7.73,1.0
6.0333,128.184428,37.939902,6877.928128800001,-30.003,-5.662,7.727,1.0
6.05,128.184435,37.939948,6877.3919856,-30.152,-5.671,7.724,1.0
6.0666,128.184442,37.939994,6876.854928000001,-30.301,-5.68,7.721,1.0
6.0833,128.184448,37.940039,6876.316346400001,-30.451,-5.69,7.719,1.0
6.1,128.184455,37.940085,6875.7762408,-30.601,-5.699,7.716,1.0
6.1166,128.184462,37.940131,6875.2352208,-30.752,-5.709,7.713,1.0
6.1333,128.184468,37.940177,6874.6926768,-30.903,-5.718,7.71,1.0
6.15,128.184475,37.940222,6874.1489136,-31.055,-5.727,7.706,1.0
6.1666,128.184482,37.940268,6873.6036264,-31.208,-5.737,7.703,1.0
6.1833,128.184488,37.940314,6873.057424800001,-31.361,-5.746,7.7,1.0
6.2,128.184495,37.940359,6872.5096992,-31.515,-5.755,7.697,1.0
6.2166,128.184501,37.940405,6871.9604496,-31.669,-5.765,7.694,1.0
6.2333,128.184508,37.940451,6871.4102856,-31.824,-5.774,7.69,1.0
6.25,128.184515,37.940497,6870.858597600001,-31.979,-5.783,7.687,1.0
6.2666,128.184521,37.940542,6870.3056904000005,-32.135,-5.793,7.684,1.0
6.2833,128.184528,37.940588,6869.7512592,-32.292,-5.802,7.68,1.0
6.3,128.184535,37.940634,6869.1959136000005,-32.449,-5.811,7.677,1.0
6.3166,128.184541,37.94068,6868.639044,-32.607,-5.821,7.673,1.0
6.3333,128.184548,37.940725,6868.0806504,-32.765,-5.83,7.67,1.0
6.35,128.184554,37.940771,6867.5213424,-32.924,-5.839,7.666,1.0
6.3666,128.184561,37.940817,6866.960510400001,-33.084,-5.848,7.662,1.0
6.3833,128.184568,37.940863,6866.398154400001,-33.245,-5.858,7.659,1.0
6.4,128.184574,37.940908,6865.834884000001,-33.406,-5.867,7.655,1.0
6.4166,128.184581,37.940954,6865.2697848,-33.568,-5.876,7.651,1.0
6.4333,128.184587,37.941,6864.7037712,-33.73,-5.885,7.647,1.0
6.45,128.184594,37.941046,6864.136233600001,-33.893,-5.895,7.643,1.0
6.4666,128.1846,37.941092,6863.5674768,-34.057,-5.904,7.64,1.0
6.4833,128.184607,37.941137,6862.9975008,-34.222,-5.913,7.636,1.0
6.5,128.184614,37.941183,6862.4260008,-34.387,-5.922,7.632,1.0
6.5166,128.18462,37.941229,6861.853281600001,-34.554,-5.931,7.628,1.0
6.5333,128.184627,37.941275,6861.279038400001,-34.72,-5.941,7.624,1.0
6.55,128.184633,37.941321,6860.703576,-34.888,-5.95,7.619,1.0
6.5666,128.18464,37.941367,6860.1268944,-35.057,-5.959,7.615,1.0
6.5833,128.184646,37.941412,6859.5486888,-35.226,-5.968,7.611,1.0
6.6,128.184653,37.941458,6858.969264,-35.396,-5.977,7.607,1.0
6.6166,128.184659,37.941504,6858.388315200001,-35.567,-5.987,7.603,1.0
6.6333,128.184666,37.94155,6857.806147200001,-35.738,-5.996,7.598,1.0
6.65,128.184672,37.941596,6857.222760000001,-35.911,-6.005,7.594,1.0
6.6666,128.184679,37.941642,6856.6378488,-36.084,-6.014,7.589,1.0
6.6833,128.184685,37.941688,6856.0517184,-36.258,-6.023,7.585,1.0
6.7,128.184692,37.941734,6855.464064000001,-36.433,-6.033,7.58,1.0
6.7166,128.184698,37.941779,6854.8751904,-36.609,-6.042,7.576,1.0
6.7333,128.184705,37.941825,6854.284792800001,-36.786,-6.051,7.571,1.0
6.75,128.184711,37.941871,6853.693176,-36.964,-6.06,7.567,1.0
6.7666,128.184718,37.941917,6853.10034,-37.143,-6.069,7.562,1.0
6.7833,128.184724,37.941963,6852.50598,-37.323,-6.079,7.557,1.0
6.8,128.18473,37.942009,6851.9100960000005,-37.503,-6.088,7.553,1.0
6.8166,128.184737,37.942055,6851.312992800001,-37.685,-6.097,7.548,1.0
6.8333,128.184743,37.942101,6850.714670400001,-37.867,-6.106,7.543,1.0
6.85,128.18475,37.942147,6850.114824,-38.051,-6.115,7.538,1.0
6.8666,128.184756,37.942193,6849.5134536000005,-38.235,-6.125,7.533,1.0
6.8833,128.184763,37.942239,6848.910864,-38.42,-6.134,7.528,1.0
6.9,128.184769,37.942285,6848.307055200001,-38.606,-6.143,7.523,1.0
6.9166,128.184775,37.942331,6847.7017224,-38.794,-6.152,7.518,1.0
6.9333,128.184782,37.942377,6847.094865600001,-38.982,-6.161,7.513,1.0
6.95,128.184788,37.942423,6846.4867896,-39.171,-6.17,7.508,1.0
6.9666,128.184795,37.942468,6845.8771896,-39.361,-6.18,7.503,1.0
6.9833,128.184801,37.942514,6845.266370400001,-39.553,-6.189,7.497,1.0
7.0,128.184807,37.94256,6844.6540272,-39.745,-6.198,7.492,1.0
7.0166,128.184814,37.942606,6844.0404648,-39.938,-6.207,7.487,1.0
7.0333,128.18482,37.942652,6843.4253784,-40.132,-6.216,7.481,1.0
7.05,128.184827,37.942698,6842.808768,-40.327,-6.226,7.476,1.0
7.0666,128.184833,37.942744,6842.190938400001,-40.522,-6.235,7.47,1.0
7.0833,128.184839,37.94279,6841.5715848,-40.719,-6.244,7.465,1.0
7.1,128.184846,37.942836,6840.9507072,-40.916,-6.253,7.459,1.0
7.1166,128.184852,37.942883,6840.328610400001,-41.115,-6.262,7.454,1.0
7.1333,128.184858,37.942929,6839.7049896,-41.314,-6.271,7.448,1.0
7.15,128.184865,37.942975,6839.0801496,-41.514,-6.28,7.442,1.0
7.1666,128.184871,37.943021,6838.4537856,-41.715,-6.29,7.436,1.0
7.1833,128.184877,37.943067,6837.825897600001,-41.917,-6.299,7.431,1.0
7.2,128.184884,37.943113,6837.1964856,-42.12,-6.308,7.425,1.0
7.2166,128.18489,37.943159,6836.565854400001,-42.324,-6.317,7.419,1.0
7.2333,128.184896,37.943205,6835.9336992,-42.53,-6.326,7.413,1.0
7.25,128.184902,37.943251,6835.300020000001,-42.736,-6.335,7.406,1.0
7.2666,128.184909,37.943297,6834.6651216,-42.942,-6.344,7.4,1.0
7.2833,128.184915,37.943343,6834.0286992,-43.15,-6.353,7.394,1.0
7.3,128.184921,37.943389,6833.3907528,-43.359,-6.362,7.387,1.0
7.3166,128.184927,37.943435,6832.7512824000005,-43.568,-6.371,7.381,1.0
7.3333,128.184934,37.943481,6832.110592800001,-43.778,-6.379,7.374,1.0
7.35,128.18494,37.943527,6831.4683792000005,-43.989,-6.388,7.367,1.0
7.3666,128.184946,37.943574,6830.8246416,-44.201,-6.397,7.36,1.0
7.3833,128.184952,37.94362,6830.17938,-44.414,-6.406,7.353,1.0
7.4,128.184959,37.943666,6829.5325944,-44.627,-6.414,7.347,1.0
7.4166,128.184965,37.943712,6828.8845896,-44.841,-6.423,7.34,1.0
7.4333,128.184971,37.943758,6828.234756000001,-45.055,-6.432,7.333,1.0
7.45,128.184977,37.943804,6827.5837032,-45.27,-6.441,7.325,1.0
7.4666,128.184983,37.94385,6826.9311264,-45.486,-6.449,7.318,1.0
7.4833,128.18499,37.943896,6826.2770256,-45.703,-6.458,7.311,1.0
7.5,128.184996,37.943943,6825.621400800001,-45.92,-6.467,7.304,1.0
7.5166,128.185002,37.943989,6824.9645568000005,-46.138,-6.476,7.297,1.0
7.5333,128.185008,37.944035,6824.305884000001,-46.357,-6.485,7.289,1.0
7.55,128.185014,37.944081,6823.645687200001,-46.576,-6.494,7.282,1.0
7.5666,128.185021,37.944127,6822.9842712,-46.797,-6.502,7.275,1.0
7.5833,128.185027,37.944173,6822.3213312,-47.018,-6.511,7.267,1.0
7.6,128.185033,37.94422,6821.6565624,-47.239,-6.52,7.26,1.0
7.6166,128.185039,37.944266,6820.990574400001,-47.462,-6.529,7.252,1.0
7.6333,128.185045,37.944312,6820.3230624,-47.685,-6.538,7.245,1.0
7.65,128.185051,37.944358,6819.6540264000005,-47.909,-6.547,7.237,1.0
7.6666,128.185057,37.944404,6818.9831616,-48.134,-6.557,7.229,1.0
7.6833,128.185063,37.944451,6818.3110776,-48.359,-6.566,7.222,1.0
7.7,128.185069,37.944497,6817.6374696,-48.586,-6.575,7.214,1.0
7.7166,128.185076,37.944543,6816.962337600001,-48.813,-6.584,7.206,1.0
7.7333,128.185082,37.944589,6816.2853768,-49.04,-6.593,7.198,1.0
7.75,128.185088,37.944636,6815.607196800001,-49.269,-6.602,7.19,1.0
7.7666,128.185094,37.944682,6814.9274928,-49.498,-6.611,7.182,1.0
7.7833,128.1851,37.944728,6814.24596,-49.728,-6.62,7.174,1.0
7.8,128.185106,37.944774,6813.5632080000005,-49.959,-6.63,7.166,1.0
7.8166,128.185112,37.944821,6812.878627200001,-50.191,-6.639,7.158,1.0
7.8333,128.185118,37.944867,6812.192522400001,-50.423,-6.648,7.149,1.0
7.85,128.185124,37.944913,6811.5048936,-50.656,-6.657,7.141,1.0
7.8666,128.18513,37.944959,6810.815740800001,-50.89,-6.666,7.132,1.0
7.8833,128.185136,37.945006,6810.125064000001,-51.125,-6.676,7.124,1.0
7.9,128.185142,37.945052,6809.432863200001,-51.361,-6.685,7.115,1.0
7.9166,128.185148,37.945098,6808.7388336,-51.598,-6.694,7.107,1.0
7.9333,128.185154,37.945145,6808.0435848,-51.835,-6.703,7.098,1.0
7.95,128.18516,37.945191,6807.3465072,-52.073,-6.712,7.089,1.0
7.9666,128.185166,37.945237,6806.647905600001,-52.312,-6.722,7.081,1.0
7.9833,128.185172,37.945283,6805.9474752,-52.552,-6.731,7.072,1.0
8.0,128.185178,37.94533,6805.2458256,-52.792,-6.74,7.063,1.0
8.0166,128.185184,37.945376,6804.542347200001,-53.034,-6.75,7.054,1.0
8.0333,128.18519,37.945422,6803.8373448,-53.276,-6.759,7.045,1.0
8.05,128.185196,37.945469,6803.1305136,-53.518,-6.768,7.036,1.0
8.0666,128.185202,37.945515,6802.4224632000005,-53.762,-6.778,7.026,1.0
8.0833,128.185208,37.945561,6801.712584000001,-54.006,-6.787,7.017,1.0
8.1,128.185213,37.945608,6801.000876,-54.251,-6.796,7.008,1.0
8.1166,128.185219,37.945654,6800.2879488,-54.497,-6.806,6.998,1.0
8.1333,128.185225,37.9457,6799.5731928000005,-54.743,-6.815,6.989,1.0
8.15,128.185231,37.945747,6798.8569128,-54.991,-6.825,6.979,1.0
8.1666,128.185237,37.945793,6798.138804,-55.239,-6.834,6.969,1.0
8.1833,128.185243,37.94584,6797.4191712,-55.487,-6.843,6.96,1.0
8.2,128.185249,37.945886,6796.6977096,-55.737,-6.853,6.95,1.0
8.2166,128.185255,37.945932,6795.974724000001,-55.987,-6.863,6.94,1.0
8.2333,128.185261,37.945979,6795.250214400001,-56.238,-6.872,6.931,1.0
8.25,128.185266,37.946025,6794.523876,-56.491,-6.882,6.921,1.0
8.2666,128.185272,37.946072,6793.7960136,-56.744,-6.892,6.911,1.0
8.2833,128.185278,37.946118,6793.066627200001,-56.998,-6.902,6.901,1.0
8.3,128.185284,37.946164,6792.335412,-57.253,-6.912,6.892,1.0
8.3166,128.18529,37.946211,6791.602368000001,-57.51,-6.922,6.882,1.0
8.3333,128.185295,37.946257,6790.8678,-57.767,-6.933,6.873,1.0
8.35,128.185301,37.946304,6790.1314032,-58.025,-6.943,6.864,1.0
8.3666,128.185307,37.94635,6789.393482400001,-58.284,-6.954,6.855,1.0
8.3833,128.185313,37.946397,6788.6537328,-58.544,-6.965,6.846,1.0
8.4,128.185319,37.946443,6787.9121544,-58.804,-6.976,6.838,1.0
8.4166,128.185324,37.946489,6787.169052000001,-59.064,-6.987,6.83,1.0
8.4333,128.18533,37.946536,6786.4241208,-59.325,-6.998,6.822,1.0
8.45,128.185336,37.946582,6785.677665600001,-59.586,-7.01,6.814,1.0
8.4666,128.185342,37.946629,6784.9290768,-59.846,-7.022,6.807,1.0
8.4833,128.185347,37.946675,6784.178964000001,-60.106,-7.034,6.799,1.0
8.5,128.185353,37.946722,6783.4270224,-60.365,-7.046,6.793,1.0
8.5166,128.185359,37.946768,6782.6732520000005,-60.624,-7.058,6.786,1.0
8.5333,128.185364,37.946815,6781.9176528,-60.881,-7.07,6.779,1.0
8.55,128.18537,37.946861,6781.160224800001,-61.137,-7.083,6.773,1.0
8.5666,128.185376,37.946908,6780.401272800001,-61.392,-7.095,6.767,1.0
8.5833,128.185381,37.946954,6779.640187200001,-61.644,-7.108,6.761,1.0
8.6,128.185387,37.947001,6778.8772728,-61.895,-7.121,6.755,1.0
8.6166,128.185393,37.947047,6778.1125296,-62.144,-7.134,6.749,1.0
8.6333,128.185399,37.947094,6777.3459576,-62.391,-7.146,6.743,1.0
8.65,128.185404,37.94714,6776.577556800001,-62.637,-7.159,6.738,1.0
8.6666,128.18541,37.947187,6775.8070224,-62.88,-7.172,6.732,1.0
8.6833,128.185415,37.947233,6775.034964,-63.121,-7.185,6.727,1.0
8.7,128.185421,37.94728,6774.2607720000005,-63.361,-7.199,6.722,1.0
8.7166,128.185427,37.947327,6773.484751200001,-63.598,-7.212,6.716,1.0
8.7333,128.185432,37.947373,6772.7069016000005,-63.834,-7.225,6.711,1.0
8.75,128.185438,37.94742,6771.9272232,-64.068,-7.238,6.705,1.0
8.7666,128.185444,37.947466,6771.145411200001,-64.3,-7.251,6.7,1.0
8.7833,128.185449,37.947513,6770.361770400001,-64.53,-7.265,6.694,1.0
8.8,128.185455,37.947559,6769.5763008,-64.759,-7.278,6.689,1.0
8.8166,128.18546,37.947606,6768.788697600001,-64.986,-7.291,6.683,1.0
8.8333,128.185466,37.947653,6767.9992656,-65.211,-7.304,6.677,1.0
8.85,128.185472,37.947699,6767.208004800001,-65.434,-7.317,6.671,1.0
8.8666,128.185477,37.947746,6766.414610400001,-65.657,-7.331,6.665,1.0
8.8833,128.185483,37.947792,6765.6193872,-65.877,-7.344,6.659,1.0
8.9,128.185488,37.947839,6764.8223352,-66.097,-7.357,6.653,1.0
8.9166,128.185494,37.947886,6764.023149600001,-66.315,-7.371,6.647,1.0
8.9333,128.1855,37.947932,6763.2221352,-66.532,-7.384,6.641,1.0
8.95,128.185505,37.947979,6762.418987200001,-66.747,-7.397,6.635,1.0
8.9666,128.185511,37.948026,6761.614010400001,-66.961,-7.411,6.628,1.0
8.9833,128.185516,37.948072,6760.8069000000005,-67.175,-7.424,6.622,1.0
9.0,128.185522,37.948119,6759.9979608,-67.386,-7.437,6.616,1.0
9.0166,128.185527,37.948165,6759.186888000001,-67.597,-7.451,6.609,1.0
9.0333,128.185533,37.948212,6758.3739864,-67.807,-7.464,6.602,1.0
9.05,128.185538,37.948259,6757.5592560000005,-68.016,-7.478,6.596,1.0
9.0666,128.185544,37.948305,6756.7420872,-68.224,-7.491,6.589,1.0
9.0833,128.185549,37.948352,6755.9233944,-68.431,-7.505,6.583,1.0
9.1,128.185555,37.948399,6755.1022632,-68.637,-7.518,6.576,1.0
9.1166,128.18556,37.948446,6754.279608,-68.842,-7.532,6.569,1.0
9.1333,128.185566,37.948492,6753.4545144,-69.046,-7.546,6.562,1.0
9.15,128.185571,37.948539,6752.627592000001,-69.25,-7.559,6.556,1.0
9.1666,128.185577,37.948586,6751.7988408,-69.453,-7.573,6.549,1.0
9.1833,128.185582,37.948632,6750.967956,-69.655,-7.587,6.542,1.0
9.2,128.185588,37.948679,6750.134937600001,-69.857,-7.601,6.535,1.0
9.2166,128.185593,37.948726,6749.3000904,-70.058,-7.615,6.529,1.0
9.2333,128.185599,37.948773,6748.4631096,-70.259,-7.628,6.522,1.0
9.25,128.185604,37.948819,6747.6239952000005,-70.459,-7.642,6.515,1.0
9.2666,128.18561,37.948866,6746.783052000001,-70.658,-7.656,6.508,1.0
9.2833,128.185615,37.948913,6745.94028,-70.858,-7.67,6.501,1.0
9.3,128.185621,37.948959,6745.095069600001,-71.056,-7.685,6.494,1.0
9.3166,128.185626,37.949006,6744.2480304,-71.255,-7.699,6.487,1.0
9.3333,128.185632,37.949053,6743.3988576,-71.453,-7.713,6.48,1.0
9.35,128.185637,37.9491,6742.547856000001,-71.651,-7.727,6.473,1.0
9.3666,128.185643,37.949147,6741.6947208,-71.848,-7.741,6.466,1.0
9.3833,128.185648,37.949193,6740.839452000001,-72.045,-7.755,6.459,1.0
9.4,128.185653,37.94924,6739.9823544,-72.242,-7.769,6.452,1.0
9.4166,128.185659,37.949287,6739.1231232,-72.438,-7.784,6.444,1.0
9.4333,128.185664,37.949334,6738.2617584,-72.635,-7.798,6.437,1.0
9.45,128.18567,37.94938,6737.398564800001,-72.831,-7.812,6.429,1.0
9.4666,128.185675,37.949427,6736.533237600001,-73.027,-7.826,6.421,1.0
9.4833,128.185681,37.949474,6735.6657768000005,-73.222,-7.841,6.414,1.0
9.5,128.185686,37.949521,6734.7961824,-73.417,-7.855,6.406,1.0
9.5166,128.185691,37.949568,6733.9247592,-73.613,-7.869,6.398,1.0
9.5333,128.185697,37.949615,6733.0512024,-73.808,-7.884,6.39,1.0
9.55,128.185702,37.949661,6732.1758168,-74.003,-7.898,6.382,1.0
9.5666,128.185708,37.949708,6731.2979928,-74.198,-7.912,6.374,1.0
9.5833,128.185713,37.949755,6730.41834,-74.392,-7.927,6.366,1.0
9.6,128.185718,37.949802,6729.5365536,-74.587,-7.941,6.358,1.0
9.6166,128.185724,37.949849,6728.652633600001,-74.782,-7.956,6.35,1.0
9.6333,128.185729,37.949896,6727.7668848,-74.976,-7.971,6.342,1.0
9.65,128.185734,37.949942,6726.8790024,-75.171,-7.985,6.333,1.0
9.6666,128.18574,37.949989,6725.988986400001,-75.365,-8.0,6.325,1.0
9.6833,128.185745,37.950036,6725.0971416,-75.56,-8.014,6.317,1.0
9.7,128.185751,37.950083,6724.2028584,-75.755,-8.029,6.308,1.0
9.7166,128.185756,37.95013,6723.3067464000005,-75.949,-8.044,6.3,1.0
9.7333,128.185761,37.950177,6722.4085008,-76.144,-8.058,6.291,1.0
9.75,128.185767,37.950224,6721.5081216,-76.339,-8.073,6.282,1.0
9.7666,128.185772,37.950271,6720.6059136,-76.534,-8.088,6.274,1.0
9.7833,128.185777,37.950318,6719.701572,-76.729,-8.103,6.265,1.0
9.8,128.185783,37.950365,6718.7950968000005,-76.924,-8.118,6.256,1.0
9.8166,128.185788,37.950411,6717.886488000001,-77.12,-8.133,6.248,1.0
9.8333,128.185793,37.950458,6716.975745600001,-77.315,-8.148,6.239,1.0
9.85,128.185799,37.950505,6716.063174400001,-77.51,-8.163,6.23,1.0
9.8666,128.185804,37.950552,6715.148469600001,-77.706,-8.178,6.221,1.0
9.8833,128.185809,37.950599,6714.2316312,-77.902,-8.193,6.212,1.0
9.9,128.185815,37.950646,6713.312659200001,-78.098,-8.208,6.203,1.0
9.9166,128.18582,37.950693,6712.3915536,-78.294,-8.223,6.194,1.0
9.9333,128.185825,37.95074,6711.468619200001,-78.49,-8.238,6.185,1.0
9.95,128.18583,37.950787,6710.5435512,-78.686,-8.253,6.176,1.0
9.9666,128.185836,37.950834,6709.6160448,-78.882,-8.268,6.167,1.0
9.9833,128.185841,37.950881,6708.6870144,-79.079,-8.283,6.158,1.0
10.0,128.185846,37.950928,6707.7555456,-79.275,-8.299,6.149,1.0
10.0166,128.185852,37.950975,6706.8219432,-79.472,-8.314,6.14,1.0
10.0333,128.185857,37.951022,6705.886512,-79.669,-8.329,6.13,1.0
10.05,128.185862,37.951069,6704.9489472000005,-79.865,-8.345,6.121,1.0
10.0666,128.185867,37.951116,6704.0092488,-80.062,-8.36,6.112,1.0
10.0833,128.185873,37.951163,6703.0674168,-80.259,-8.376,6.103,1.0
10.1,128.185878,37.95121,6702.123451200001,-80.456,-8.391,6.093,1.0
10.1166,128.185883,37.951257,6701.177352000001,-80.653,-8.407,6.084,1.0
10.1333,128.185888,37.951304,6700.229424000001,-80.851,-8.422,6.075,1.0
10.15,128.185894,37.951351,6699.2793624,-81.048,-8.438,6.065,1.0
10.1666,128.185899,37.951398,6698.3268624,-81.245,-8.454,6.056,1.0
10.1833,128.185904,37.951445,6697.372533600001,-81.443,-8.469,6.046,1.0
10.2,128.185909,37.951492,6696.4160712,-81.64,-8.485,6.037,1.0
10.2166,128.185915,37.951539,6695.45778,-81.838,-8.501,6.027,1.0
10.2333,128.18592,37.951586,6694.4970504,-82.036,-8.516,6.018,1.0
10.25,128.185925,37.951633,6693.534187200001,-82.234,-8.532,6.008,1.0
10.2666,128.18593,37.95168,6692.5694952,-82.432,-8.548,5.999,1.0
10.2833,128.185935,37.951727,6691.602669600001,-82.63,-8.564,5.989,1.0
10.3,128.185941,37.951774,6690.6337104,-82.828,-8.58,5.98,1.0
10.3166,128.185946,37.951821,6689.6623128,-83.026,-8.596,5.97,1.0
10.3333,128.185951,37.951869,6688.689086400001,-83.224,-8.612,5.96,1.0
10.35,128.185956,37.951916,6687.7140312,-83.422,-8.628,5.951,1.0
10.3666,128.185961,37.951963,6686.736537600001,-83.621,-8.644,5.941,1.0
10.3833,128.185967,37.95201,6685.7569104,-83.819,-8.66,5.931,1.0
10.4,128.185972,37.952057,6684.7754544,-84.018,-8.676,5.921,1.0
10.4166,128.185977,37.952104,6683.791560000001,-84.216,-8.693,5.912,1.0
10.4333,128.185982,37.952151,6682.8058368,-84.415,-8.709,5.902,1.0
10.45,128.185987,37.952198,6681.8176752,-84.614,-8.725,5.892,1.0
10.4666,128.185993,37.952245,6680.8276848,-84.812,-8.741,5.882,1.0
10.4833,128.185998,37.952293,6679.835560800001,-85.011,-8.758,5.872,1.0
10.5,128.186003,37.95234,6678.8413032,-85.21,-8.774,5.862,1.0
10.5166,128.186008,37.952387,6677.844912,-85.409,-8.79,5.852,1.0
10.5333,128.186013,37.952434,6676.8463872,-85.608,-8.807,5.842,1.0
10.55,128.186018,37.952481,6675.845728800001,-85.807,-8.823,5.832,1.0
10.5666,128.186023,37.952528,6674.842936800001,-86.006,-8.84,5.822,1.0
10.5833,128.186029,37.952575,6673.8380112,-86.205,-8.857,5.812,1.0
10.6,128.186034,37.952623,6672.831256800001,-86.404,-8.873,5.802,1.0
10.6166,128.186039,37.95267,6671.822064000001,-86.603,-8.89,5.792,1.0
10.6333,128.186044,37.952717,6670.810737600001,-86.802,-8.906,5.782,1.0
10.65,128.186049,37.952764,6669.7975824000005,-87.002,-8.923,5.772,1.0
10.6666,128.186054,37.952811,6668.781988799999,-87.201,-8.94,5.762,1.0
10.6833,128.186059,37.952858,6667.7645664,-87.401,-8.957,5.752,1.0
10.7,128.186064,37.952906,6666.744705600001,-87.6,-8.974,5.742,1.0
10.7166,128.18607,37.952953,6665.723016,-87.799,-8.99,5.731,1.0
10.7333,128.186075,37.953,6664.699192800001,-87.999,-9.007,5.721,1.0
10.75,128.18608,37.953047,6663.6729312,-88.199,-9.024,5.711,1.0
10.7666,128.186085,37.953095,6662.644840800001,-88.398,-9.041,5.701,1.0
10.7833,128.18609,37.953142,6661.6146168,-88.598,-9.058,5.69,1.0
10.8,128.186095,37.953189,6660.5822592,-88.797,-9.075,5.68,1.0
10.8166,128.1861,37.953236,6659.5474632000005,-88.997,-9.093,5.67,1.0
10.8333,128.186105,37.953283,6658.5108384000005,-89.197,-9.11,5.66,1.0
10.85,128.18611,37.953331,6657.47208,-89.397,-9.127,5.649,1.0
10.8666,128.186115,37.953378,6656.4311880000005,-89.597,-9.144,5.639,1.0
10.8833,128.18612,37.953425,6655.3881624,-89.796,-9.161,5.629,1.0
10.9,128.186125,37.953472,6654.3430032,-89.996,-9.179,5.618,1.0
10.9166,128.186131,37.95352,6653.295405600001,-90.196,-9.196,5.608,1.0
10.9333,128.186136,37.953567,6652.245979200001,-90.396,-9.213,5.598,1.0
10.95,128.186141,37.953614,6651.194419200001,-90.596,-9.231,5.587,1.0
10.9666,128.186146,37.953662,6650.1407256,-90.796,-9.248,5.577,1.0
10.9833,128.186151,37.953709,6649.0848984,-90.996,-9.266,5.566,1.0
11.0,128.186156,37.953756,6648.026937600001,-91.196,-9.283,5.556,1.0
11.0166,128.186161,37.953803,6646.9668432,-91.396,-9.301,5.546,1.0
11.0333,128.186166,37.953851,6645.9043104,-91.596,-9.319,5.535,1.0
11.05,128.186171,37.953898,6644.8399488000005,-91.796,-9.336,5.525,1.0
11.0666,128.186176,37.953945,6643.7734536,-91.996,-9.354,5.514,1.0
11.0833,128.186181,37.953993,6642.704824800001,-92.196,-9.372,5.504,1.0
11.1,128.186186,37.95404,6641.6340624,-92.396,-9.389,5.493,1.0
11.1166,128.186191,37.954087,6640.5608616,-92.596,-9.407,5.483,1.0
11.1333,128.186196,37.954135,6639.485832,-92.796,-9.425,5.472,1.0
11.15,128.186201,37.954182,6638.408668800001,-92.996,-9.443,5.462,1.0
11.1666,128.186206,37.954229,6637.329372,-93.197,-9.461,5.451,1.0
11.1833,128.186211,37.954277,6636.247636800001,-93.397,-9.479,5.441,1.0
11.2,128.186216,37.954324,6635.1640728,-93.597,-9.497,5.43,1.0
11.2166,128.186221,37.954371,6634.078070400001,-93.797,-9.515,5.419,1.0
11.2333,128.186226,37.954419,6632.9902392,-93.997,-9.533,5.409,1.0
11.25,128.186231,37.954466,6631.899969600001,-94.197,-9.551,5.398,1.0
11.2666,128.186236,37.954513,6630.8078712,-94.397,-9.569,5.388,1.0
11.2833,128.186241,37.954561,6629.713334399999,-94.597,-9.588,5.377,1.0
11.3,128.186246,37.954608,6628.616968800001,-94.797,-9.606,5.367,1.0
11.3166,128.186251,37.954656,6627.518164800001,-94.997,-9.624,5.356,1.0
11.3333,128.186256,37.954703,6626.4172272000005,-95.197,-9.642,5.345,1.0
11.35,128.186261,37.95475,6625.314156,-95.397,-9.661,5.335,1.0
11.3666,128.186266,37.954798,6624.2089512,-95.597,-9.679,5.324,1.0
11.3833,128.186271,37.954845,6623.1019176,-95.796,-9.698,5.313,1.0
11.4,128.186275,37.954893,6621.992445600001,-95.996,-9.716,5.303,1.0
11.4166,128.18628,37.95494,6620.88084,-96.196,-9.735,5.292,1.0
11.4333,128.186285,37.954987,6619.766796000001,-96.396,-9.753,5.282,1.0
11.45,128.18629,37.955035,6618.650923200001,-96.596,-9.772,5.271,1.0
11.4666,128.186295,37.955082,6617.5329168,-96.796,-9.79,5.26,1.0
11.4833,128.1863,37.95513,6616.4127768,-96.996,-9.809,5.25,1.0
11.5,128.186305,37.955177,6615.2901984,-97.196,-9.828,5.239,1.0
11.5166,128.18631,37.955225,6614.1657912,-97.396,-9.847,5.228,1.0
11.5333,128.186315,37.955272,6613.0389456,-97.596,-9.865,5.218,1.0
11.55,128.18632,37.955319,6611.9102712,-97.796,-9.884,5.207,1.0
11.5666,128.186325,37.955367,6610.779158400001,-97.996,-9.903,5.196,1.0
11.5833,128.18633,37.955414,6609.645912,-98.196,-9.922,5.185,1.0
11.6,128.186335,37.955462,6608.510532,-98.396,-9.941,5.175,1.0
11.6166,128.186339,37.955509,6607.373018400001,-98.596,-9.96,5.164,1.0
11.6333,128.186344,37.955557,6606.2333712,-98.796,-9.979,5.153,1.0
11.65,128.186349,37.955604,6605.0915904,-98.996,-9.998,5.142,1.0
11.6666,128.186354,37.955652,6603.947676,-99.196,-10.017,5.132,1.0
11.6833,128.186359,37.955699,6602.801628,-99.396,-10.036,5.121,1.0
11.7,128.186364,37.955747,6601.653141600001,-99.596,-10.055,5.11,1.0
11.7166,128.186369,37.955794,6600.5028264,-99.797,-10.075,5.099,1.0
11.7333,128.186374,37.955842,6599.3500728,-99.997,-10.094,5.089,1.0
11.75,128.186378,37.955889,6598.1951856000005,-100.197,-10.113,5.078,1.0
11.7666,128.186383,37.955937,6597.0381648,-100.397,-10.133,5.067,1.0
11.7833,128.186388,37.955984,6595.879010400001,-100.597,-10.152,5.056,1.0
11.8,128.186393,37.956032,6594.717722400001,-100.797,-10.171,5.045,1.0
11.8166,128.186398,37.956079,6593.5543008,-100.998,-10.191,5.035,1.0
11.8333,128.186403,37.956127,6592.3887456,-101.198,-10.21,5.024,1.0
11.85,128.186407,37.956174,6591.220752000001,-101.398,-10.23,5.013,1.0
11.8666,128.186412,37.956222,6590.0509296,-101.598,-10.249,5.002,1.0
11.8833,128.186417,37.95627,6588.878668800001,-101.798,-10.269,4.991,1.0
11.9,128.186422,37.956317,6587.704274400001,-101.998,-10.289,4.981,1.0
11.9166,128.186427,37.956365,6586.528051200001,-102.198,-10.308,4.97,1.0
11.9333,128.186432,37.956412,6585.3493896,-102.399,-10.328,4.959,1.0
11.95,128.186436,37.95646,6584.1682896,-102.599,-10.348,4.948,1.0
11.9666,128.186441,37.956507,6582.9853608,-102.799,-10.368,4.937,1.0
11.9833,128.186446,37.956555,6581.8002983999995,-102.999,-10.388,4.927,1.0
12.0,128.186451,37.956602,6580.612797600001,-103.199,-10.407,4.916,1.0
12.0166,128.186456,37.95665,6579.423468,-103.399,-10.427,4.905,1.0
12.0333,128.18646,37.956698,6578.2317,-103.598,-10.447,4.894,1.0
12.05,128.186465,37.956745,6577.0377984,-103.798,-10.467,4.883,1.0
12.0666,128.18647,37.956793,6575.8417632,-103.998,-10.487,4.873,1.0
12.0833,128.186475,37.95684,6574.6435944,-104.198,-10.507,4.862,1.0
12.1,128.18648,37.956888,6573.442987200001,-104.398,-10.527,4.851,1.0
12.1166,128.186484,37.956936,6572.2405512000005,-104.597,-10.548,4.84,1.0
12.1333,128.186489,37.956983,6571.0356768,-104.797,-10.568,4.829,1.0
12.15,128.186494,37.957031,6569.828668800001,-104.997,-10.588,4.819,1.0
12.1666,128.186499,37.957079,6568.6195272,-105.196,-10.608,4.808,1.0
12.1833,128.186503,37.957126,6567.408252000001,-105.396,-10.629,4.797,1.0
12.2,128.186508,37.957174,6566.1948432,-105.595,-10.649,4.786,1.0
12.2166,128.186513,37.957221,6564.979300800001,-105.795,-10.669,4.776,1.0
12.2333,128.186518,37.957269,6563.7613200000005,-105.994,-10.69,4.765,1.0
12.25,128.186522,37.957317,6562.5412056000005,-106.194,-10.71,4.754,1.0
12.2666,128.186527,37.957364,6561.3189575999995,-106.393,-10.731,4.743,1.0
12.2833,128.186532,37.957412,6560.094576,-106.592,-10.751,4.732,1.0
12.3,128.186537,37.95746,6558.8680608,-106.791,-10.772,4.722,1.0
12.3166,128.186541,37.957507,6557.6394119999995,-106.991,-10.792,4.711,1.0
12.3333,128.186546,37.957555,6556.408324800001,-107.19,-10.813,4.7,1.0
12.35,128.186551,37.957603,6555.175408800001,-107.389,-10.833,4.689,1.0
12.3666,128.186555,37.95765,6553.9400544,-107.588,-10.854,4.679,1.0
12.3833,128.18656,37.957698,6552.7025664,-107.787,-10.875,4.668,1.0
12.4,128.186565,37.957746,6551.46264,-107.986,-10.896,4.657,1.0
12.4166,128.186569,37.957794,6550.2208848,-108.184,-10.916,4.647,1.0
12.4333,128.186574,37.957841,6548.9766912000005,-108.383,-10.937,4.636,1.0
12.45,128.186579,37.957889,6547.730668800001,-108.582,-10.958,4.625,1.0
12.4666,128.186584,37.957937,6546.482208,-108.78,-10.979,4.614,1.0
12.4833,128.186588,37.957984,6545.2313088,-108.979,-11.0,4.604,1.0
12.5,128.186593,37.958032,6543.9785808,-109.177,-11.021,4.593,1.0
12.5166,128.186598,37.95808,6542.7237192,-109.376,-11.042,4.582,1.0
12.5333,128.186602,37.958128,6541.466419200001,-109.574,-11.063,4.572,1.0
12.55,128.186607,37.958175,6540.2069856,-109.772,-11.084,4.561,1.0
12.5666,128.186612,37.958223,6538.945418400001,-109.97,-11.105,4.55,1.0
12.5833,128.186616,37.958271,6537.6817176,-110.168,-11.126,4.54,1.0
12.6,128.186621,37.958318,6536.4155784,-110.366,-11.148,4.529,1.0
12.6166,128.186626,37.958366,6535.1473056,-110.564,-11.169,4.518,1.0
12.6333,128.18663,37.958414,6533.877204,-110.762,-11.19,4.508,1.0
12.65,128.186635,37.958462,6532.6043592000005,-110.96,-11.211,4.497,1.0
12.6666,128.186639,37.95851,6531.3296856,-111.158,-11.233,4.486,1.0
12.6833,128.186644,37.958557,6530.052878400001,-111.355,-11.254,4.476,1.0
12.7,128.186649,37.958605,6528.773632800001,-111.553,-11.276,4.465,1.0
12.7166,128.186653,37.958653,6527.4922536,-111.75,-11.297,4.454,1.0
12.7333,128.186658,37.958701,6526.208740800001,-111.947,-11.318,4.444,1.0
12.75,128.186663,37.958748,6524.9230944,-112.144,-11.34,4.433,1.0
12.7666,128.186667,37.958796,6523.635009600001,-112.341,-11.361,4.423,1.0
12.7833,128.186672,37.958844,6522.3447912,-112.538,-11.383,4.412,1.0
12.8,128.186676,37.958892,6521.0524392,-112.735,-11.405,4.402,1.0
12.8166,128.186681,37.95894,6519.7579536,-112.932,-11.426,4.391,1.0
12.8333,128.186686,37.958987,6518.4613344,-113.129,-11.448,4.38,1.0
12.85,128.18669,37.959035,6517.162276800001,-113.325,-11.47,4.37,1.0
12.8666,128.186695,37.959083,6515.8610856000005,-113.522,-11.491,4.359,1.0
12.8833,128.186699,37.959131,6514.5577608,-113.718,-11.513,4.349,1.0
12.9,128.186704,37.959179,6513.2523024,-113.914,-11.535,4.338,1.0
12.9166,128.186709,37.959226,6511.9444056,-114.111,-11.557,4.328,1.0
12.9333,128.186713,37.959274,6510.6343752,-114.307,-11.579,4.317,1.0
12.95,128.186718,37.959322,6509.322211200001,-114.503,-11.601,4.307,1.0
12.9666,128.186722,37.95937,6508.0079136,-114.699,-11.623,4.296,1.0
12.9833,128.186727,37.959418,6506.691177600001,-114.894,-11.645,4.286,1.0
13.0,128.186731,37.959466,6505.372308,-115.09,-11.667,4.275,1.0
13.0166,128.186736,37.959514,6504.0513048,-115.286,-11.689,4.265,1.0
13.0333,128.186741,37.959561,6502.728168000001,-115.481,-11.711,4.254,1.0
13.0499,128.186745,37.959609,6501.402897600001,-115.677,-11.733,4.244,1.0
13.0666,128.18675,37.959657,6500.0751887999995,-115.872,-11.755,4.233,1.0
13.0833,128.186754,37.959705,6498.745346400001,-116.067,-11.777,4.223,1.0
13.1,128.186759,37.959753,6497.4133704000005,-116.262,-11.8,4.213,1.0
13.1166,128.186763,37.959801,6496.078956,-116.457,-11.822,4.202,1.0
13.1333,128.186768,37.959849,6494.742408,-116.652,-11.844,4.192,1.0
13.15,128.186772,37.959897,6493.4037264,-116.847,-11.867,4.181,1.0
13.1666,128.186777,37.959944,6492.062911200001,-117.042,-11.889,4.171,1.0
13.1833,128.186781,37.959992,6490.7196576,-117.237,-11.911,4.161,1.0
13.2,128.186786,37.96004,6489.374270400001,-117.431,-11.934,4.15,1.0
13.2166,128.18679,37.960088,6488.026749600001,-117.626,-11.956,4.14,1.0
13.2333,128.186795,37.960136,6486.6767904,-117.82,-11.979,4.129,1.0
13.25,128.186799,37.960184,6485.3250024,-118.015,-12.001,4.119,1.0
13.2666,128.186804,37.960232,6483.970776,-118.209,-12.024,4.109,1.0
13.2833,128.186808,37.96028,6482.6141112000005,-118.403,-12.047,4.098,1.0
13.3,128.186813,37.960328,6481.2556176,-118.597,-12.069,4.088,1.0
13.3166,128.186817,37.960376,6479.8946856,-118.791,-12.092,4.078,1.0
13.3333,128.186822,37.960424,6478.531620000001,-118.985,-12.115,4.068,1.0
13.35,128.186826,37.960472,6477.166115999999,-119.178,-12.137,4.057,1.0
13.3666,128.186831,37.960519,6475.798783200001,-119.372,-12.16,4.047,1.0
13.3833,128.186835,37.960567,6474.429012,-119.565,-12.183,4.037,1.0
13.4,128.186839,37.960615,6473.0568023999995,-119.759,-12.206,4.026,1.0
13.4166,128.186844,37.960663,6471.682764,-119.952,-12.229,4.016,1.0
13.4333,128.186848,37.960711,6470.306287200001,-120.145,-12.252,4.006,1.0
13.45,128.186853,37.960759,6468.927372,-120.338,-12.274,3.996,1.0
13.4666,128.186857,37.960807,6467.546628,-120.531,-12.297,3.985,1.0
13.4833,128.186862,37.960855,6466.1634456,-120.723,-12.32,3.975,1.0
13.5,128.186866,37.960903,6464.778129599999,-120.916,-12.343,3.965,1.0
13.5166,128.186871,37.960951,6463.3903752,-121.108,-12.367,3.955,1.0
13.5333,128.186875,37.960999,6462.000487200001,-121.301,-12.39,3.945,1.0
13.55,128.186879,37.961047,6460.608465600001,-121.493,-12.413,3.935,1.0
13.5666,128.186884,37.961095,6459.214005600001,-121.685,-12.436,3.924,1.0
13.5833,128.186888,37.961143,6457.8177168,-121.877,-12.459,3.914,1.0
13.6,128.186893,37.961191,6456.4186848,-122.069,-12.482,3.904,1.0
13.6166,128.186897,37.961239,6455.0178240000005,-122.261,-12.506,3.894,1.0
13.6333,128.186901,37.961287,6453.614524800001,-122.453,-12.529,3.884,1.0
13.65,128.186906,37.961335,6452.209092000001,-122.644,-12.552,3.874,1.0
13.6666,128.18691,37.961383,6450.8012208,-122.836,-12.576,3.864,1.0
13.6833,128.186915,37.961431,6449.391216,-123.027,-12.599,3.854,1.0
13.7,128.186919,37.961479,6447.9790776,-123.218,-12.622,3.844,1.0
13.7166,128.186923,37.961527,6446.5645008,-123.409,-12.646,3.834,1.0
13.7333,128.186928,37.961575,6445.1477904,-123.6,-12.669,3.824,1.0
13.75,128.186932,37.961623,6443.7289464000005,-123.791,-12.693,3.814,1.0
13.7666,128.186936,37.961671,6442.307664000001,-123.982,-12.716,3.804,1.0
13.7833,128.186941,37.961719,6440.884247999999,-124.172,-12.74,3.794,1.0
13.8,128.186945,37.961767,6439.4583936,-124.363,-12.763,3.784,1.0
13.8166,128.186949,37.961815,6438.0307104,-124.553,-12.787,3.774,1.0
13.8333,128.186954,37.961863,6436.600284000001,-124.743,-12.811,3.764,1.0
13.85,128.186958,37.961911,6435.168028800001,-124.933,-12.834,3.754,1.0
13.8666,128.186962,37.96196,6433.7333352,-125.123,-12.858,3.745,1.0
13.8833,128.186967,37.962008,6432.2962032,-125.312,-12.882,3.735,1.0
13.9,128.186971,37.962056,6430.8572424,-125.502,-12.905,3.725,1.0
13.9166,128.186975,37.962104,6429.4155384000005,-125.691,-12.929,3.715,1.0
13.9333,128.18698,37.962152,6427.972005600001,-125.88,-12.953,3.705,1.0
13.95,128.186984,37.9622,6426.5260344,-126.069,-12.977,3.696,1.0
13.9666,128.186988,37.962248,6425.0779296,-126.258,-13.0,3.686,1.0
13.9833,128.186993,37.962296,6423.6273864,-126.447,-13.024,3.676,1.0
14.0,128.186997,37.962344,6422.174709600001,-126.635,-13.048,3.667,1.0
14.0166,128.187001,37.962392,6420.7195944000005,-126.824,-13.072,3.657,1.0
14.0333,128.187005,37.96244,6419.2623456,-127.012,-13.096,3.647,1.0
14.05,128.18701,37.962488,6417.8026584,-127.2,-13.12,3.638,1.0
14.0666,128.187014,37.962537,6416.3411424000005,-127.388,-13.144,3.628,1.0
14.0833,128.187018,37.962585,6414.8768832000005,-127.576,-13.168,3.618,1.0
14.1,128.187022,37.962633,6413.4107952,-127.763,-13.192,3.609,1.0
14.1166,128.187027,37.962681,6411.941964000001,-127.95,-13.216,3.599,1.0
14.1333,128.187031,37.962729,6410.471304000001,-128.137,-13.24,3.59,1.0
14.15,128.187035,37.962777,6408.998205600001,-128.324,-13.264,3.58,1.0
14.1666,128.187039,37.962825,6407.5226688,-128.511,-13.288,3.571,1.0
14.1833,128.187044,37.962873,6406.0449984,-128.698,-13.312,3.561,1.0
14.2,128.187048,37.962922,6404.5651944,-128.884,-13.337,3.552,1.0
14.2166,128.187052,37.96297,6403.082952000001,-129.07,-13.361,3.543,1.0
14.2333,128.187056,37.963018,6401.598576,-129.256,-13.385,3.533,1.0
14.25,128.187061,37.963066,6400.1117616,-129.442,-13.409,3.524,1.0
14.2666,128.187065,37.963114,6398.6228136,-129.627,-13.433,3.514,1.0
14.2833,128.187069,37.963162,6397.1314272,-129.813,-13.458,3.505,1.0
14.3,128.187073,37.96321,6395.6379072,-129.998,-13.482,3.496,1.0
14.3166,128.187077,37.963259,6394.1422536,-130.183,-13.506,3.486,1.0
14.3333,128.187082,37.963307,6392.6441616,-130.368,-13.531,3.477,1.0
14.35,128.187086,37.963355,6391.1436312000005,-130.552,-13.555,3.468,1.0
14.3666,128.18709,37.963403,6389.6409672,-130.737,-13.58,3.459,1.0
14.3833,128.187094,37.963451,6388.1361696,-130.921,-13.604,3.449,1.0
14.4,128.187098,37.963499,6386.628933600001,-131.105,-13.628,3.44,1.0
14.4166,128.187103,37.963548,6385.119259200001,-131.288,-13.653,3.431,1.0
14.4333,128.187107,37.963596,6383.6074512000005,-131.472,-13.677,3.422,1.0
14.45,128.187111,37.963644,6382.0932048,-131.655,-13.702,3.413,1.0
14.4666,128.187115,37.963692,6380.5768248,-131.838,-13.727,3.404,1.0
14.4833,128.187119,37.96374,6379.0583112,-132.021,-13.751,3.394,1.0
14.5,128.187123,37.963789,6377.5373592000005,-132.204,-13.776,3.385,1.0
14.5166,128.187128,37.963837,6376.013968800001,-132.386,-13.8,3.376,1.0
14.5333,128.187132,37.963885,6374.4884448,-132.568,-13.825,3.367,1.0
14.55,128.187136,37.963933,6372.960787200001,-132.75,-13.85,3.358,1.0
14.5666,128.18714,37.963981,6371.4306912,-132.932,-13.874,3.349,1.0
14.5833,128.187144,37.96403,6369.898156800001,-133.113,-13.899,3.34,1.0
14.6,128.187148,37.964078,6368.3634888,-133.295,-13.924,3.331,1.0
14.6166,128.187152,37.964126,6366.8263824000005,-133.476,-13.948,3.322,1.0
14.6333,128.187156,37.964174,6365.2871424,-133.657,-13.973,3.314,1.0
14.65,128.187161,37.964222,6363.7454640000005,-133.837,-13.998,3.305,1.0
14.6666,128.187165,37.964271,6362.201347200001,-134.018,-14.023,3.296,1.0
14.6833,128.187169,37.964319,6360.655096800001,-134.198,-14.048,3.287,1.0
14.7,128.187173,37.964367,6359.1067128,-134.378,-14.072,3.278,1.0
14.7166,128.187177,37.964415,6357.5558904,-134.558,-14.097,3.269,1.0
14.7333,128.187181,37.964464,6356.0026296,-134.737,-14.122,3.261,1.0
14.75,128.187185,37.964512,6354.4472352,-134.917,-14.147,3.252,1.0
14.7666,128.187189,37.96456,6352.8894024,-135.096,-14.172,3.243,1.0
14.7833,128.187193,37.964608,6351.329436,-135.275,-14.197,3.234,1.0
14.8,128.187197,37.964657,6349.7670312,-135.453,-14.222,3.226,1.0
14.8166,128.187201,37.964705,6348.202188000001,-135.632,-14.247,3.217,1.0
14.8333,128.187205,37.964753,6346.6352112,-135.81,-14.272,3.208,1.0
